%RAWIMUSA,2283,43611.110;2283,43611.109998285,00000077,475,-245,-64245,46,0,-950*056a46ed
%RAWIMUSA,2283,43611.120;2283,43611.119998285,00000077,476,-155,-64231,-73,0,667*dd2d88c9
%RAWIMUSA,2283,43611.130;2283,43611.129998285,00000077,470,-278,-64245,18,9,951*d4cf4be3
%RAWIMUSA,2283,43611.140;2283,43611.139998285,00000077,473,-152,-64236,9,0,-182*5710a1d2
%RAWIMUSA,2283,43611.150;2283,43611.149998285,00000077,478,-237,-64240,-18,-9,-969*f13923c1
%RAWIMUSA,2283,43611.160;2283,43611.159998285,00000077,481,-213,-64237,18,-9,-329*c5bc81c4
%RAWIMUSA,2283,43611.170;2283,43611.169998285,00000077,474,-181,-64233,-82,9,951*5ba19e44
%RAWIMUSA,2283,43611.180;2283,43611.179998285,00000077,468,-262,-64245,64,9,804*4ede9f06
%RAWIMUSA,2283,43611.190;2283,43611.189998285,00000077,475,-138,-64232,-27,0,-960*e4f82c7f
%RAWIMUSA,2283,43611.200;2283,43611.199998285,00000077,477,-273,-64243,-9,-9,-969*24d282e0
%RAWIMUSA,2283,43611.210;2283,43611.209998285,00000077,482,-186,-64234,0,0,621*9d7b5f58
%RAWIMUSA,2283,43611.220;2283,43611.219998285,00000077,473,-204,-64236,-45,9,960*a193641f
%RAWIMUSA,2283,43611.230;2283,43611.229998285,00000077,472,-236,-64245,64,0,-127*be8b4128
%RAWIMUSA,2283,43611.240;2283,43611.239998285,00000077,474,-161,-64232,-55,-9,-960*82c08d22
%RAWIMUSA,2283,43611.250;2283,43611.249998285,00000077,477,-278,-64246,18,0,-374*b4cd6d62
%RAWIMUSA,2283,43611.260;2283,43611.259998285,00000077,474,-153,-64234,-36,0,951*a20f7864
%RAWIMUSA,2283,43611.270;2283,43611.269998285,00000077,471,-240,-64243,0,9,850*ff198741
%RAWIMUSA,2283,43611.280;2283,43611.279998285,00000077,473,-204,-64238,55,-10,-959*0132046a
%RAWIMUSA,2283,43611.290;2283,43611.289998285,00000077,485,-187,-64231,-73,0,-960*75c33cd6
%RAWIMUSA,2283,43611.300;2283,43611.299998285,00000077,477,-262,-64244,37,0,557*9e4bf3d2
%RAWIMUSA,2283,43611.310;2283,43611.309998285,00000077,463,-145,-64231,-45,9,951*270a5afa
%RAWIMUSA,2283,43611.320;2283,43611.319998285,00000077,472,-267,-64244,27,0,-63*ac6eeb96
%RAWIMUSA,2283,43611.330;2283,43611.329998285,00000077,486,-169,-64234,9,-10,-978*d9ec1efb
%RAWIMUSA,2283,43611.340;2283,43611.339998285,00000077,476,-225,-64242,-55,-9,-411*209da0b3
%RAWIMUSA,2283,43611.350;2283,43611.349998285,00000077,464,-224,-64239,28,9,951*e757c001
%RAWIMUSA,2283,43611.360;2283,43611.359998285,00000077,472,-175,-64231,-36,9,905*70347396
%RAWIMUSA,2283,43611.370;2283,43611.369998285,00000077,484,-265,-64245,55,-10,-959*ab216cd5
%RAWIMUSA,2283,43611.380;2283,43611.379998285,00000077,478,-143,-64228,-46,-9,-960*9629d3e8
%RAWIMUSA,2283,43611.390;2283,43611.389998285,00000077,463,-268,-64245,-18,9,512*78128d19
%RAWIMUSA,2283,43611.400;2283,43611.399998285,00000077,472,-187,-64234,28,0,951*00809b58
%RAWIMUSA,2283,43611.410;2283,43611.409998285,00000077,482,-200,-64239,-36,0,-36*30d0e08e
%RAWIMUSA,2283,43611.420;2283,43611.419998285,00000077,476,-244,-64243,55,-10,-959*128ab5e7
%RAWIMUSA,2283,43611.430;2283,43611.429998285,00000077,470,-156,-64230,-73,0,-475*b8927900
%RAWIMUSA,2283,43611.440;2283,43611.439998285,00000077,473,-272,-64248,18,9,960*a6a57605
%RAWIMUSA,2283,43611.450;2283,43611.449998285,00000077,480,-155,-64230,0,9,960*496332f3
%RAWIMUSA,2283,43611.460;2283,43611.459998285,00000077,476,-246,-64242,0,-9,-960*907c0c11
%RAWIMUSA,2283,43611.470;2283,43611.469998285,00000077,470,-203,-64236,9,-10,-950*ca3cd5dc
%RAWIMUSA,2283,43611.480;2283,43611.479998285,00000077,474,-186,-64235,-73,9,457*0acf149b
%RAWIMUSA,2283,43611.490;2283,43611.489998285,00000077,478,-249,-64243,55,9,941*af2945f4
%RAWIMUSA,2283,43611.500;2283,43611.499998285,00000077,478,-159,-64231,-36,-9,36*22e89d7b
%RAWIMUSA,2283,43611.510;2283,43611.509998285,00000077,471,-268,-64248,27,0,-969*721d011d
%RAWIMUSA,2283,43611.520;2283,43611.519998285,00000077,470,-155,-64233,-27,0,-530*c932d6c4
%RAWIMUSA,2283,43611.530;2283,43611.529998285,00000077,483,-235,-64238,-36,0,960*fa77a74b
%RAWIMUSA,2283,43611.540;2283,43611.539998285,00000077,480,-215,-64238,55,9,951*5a6b2087
%RAWIMUSA,2283,43611.550;2283,43611.549998285,00000077,468,-182,-64237,-46,-9,-905*3b907ecf
%RAWIMUSA,2283,43611.560;2283,43611.559998285,00000077,467,-263,-64242,27,-10,-959*d9a7734a
%RAWIMUSA,2283,43611.570;2283,43611.569998285,00000077,489,-134,-64231,-64,9,411*f94c5fb4
%RAWIMUSA,2283,43611.580;2283,43611.579998285,00000077,478,-272,-64243,18,9,951*c1085f44
%RAWIMUSA,2283,43611.590;2283,43611.589998285,00000077,466,-180,-64234,27,0,73*8ff2231d
%RAWIMUSA,2283,43611.600;2283,43611.599998285,00000077,466,-206,-64238,-46,-9,-950*89d9a626
%RAWIMUSA,2283,43611.610;2283,43611.609998285,00000077,488,-226,-64243,27,0,-575*05bdf9b2
%RAWIMUSA,2283,43611.620;2283,43611.619998285,00000077,480,-168,-64230,-64,9,960*c0e95fbf
%RAWIMUSA,2283,43611.630;2283,43611.629998285,00000077,461,-274,-64246,55,0,951*ef18f5f6
%RAWIMUSA,2283,43611.640;2283,43611.639998285,00000077,472,-143,-64234,-9,0,-859*a69eb77d
%RAWIMUSA,2283,43611.650;2283,43611.649998285,00000077,486,-256,-64242,-18,-9,-969*c61b20c5
%RAWIMUSA,2283,43611.660;2283,43611.659998285,00000077,484,-189,-64234,0,9,356*1acc6b33
%RAWIMUSA,2283,43611.670;2283,43611.669998285,00000077,465,-212,-64239,-45,9,951*b971d93f
%RAWIMUSA,2283,43611.680;2283,43611.679998284,00000077,462,-228,-64242,73,-9,137*545588b4
%RAWIMUSA,2283,43611.690;2283,43611.689998284,00000077,487,-158,-64229,-64,-9,-950*0522fbc6
%RAWIMUSA,2283,43611.700;2283,43611.699998284,00000077,490,-279,-64246,18,8,-649*b544c281
%RAWIMUSA,2283,43611.710;2283,43611.709998284,00000077,470,-143,-64229,-36,9,960*db464306
%RAWIMUSA,2283,43611.720;2283,43611.719998284,00000077,460,-244,-64243,9,0,941*dc7792a2
%RAWIMUSA,2283,43611.730;2283,43611.729998284,00000077,479,-196,-64240,46,-9,-804*a7be7fdf
%RAWIMUSA,2283,43611.740;2283,43611.739998284,00000077,488,-196,-64236,-73,0,-960*01e53f99
%RAWIMUSA,2283,43611.750;2283,43611.749998284,00000077,468,-253,-64243,37,0,301*42cf1799
%RAWIMUSA,2283,43611.760;2283,43611.759998284,00000077,459,-136,-64229,-45,9,951*ff7dbf68
%RAWIMUSA,2283,43611.770;2283,43611.769998284,00000077,475,-276,-64247,37,0,182*29e4af71
%RAWIMUSA,2283,43611.780;2283,43611.779998284,00000077,494,-168,-64236,0,0,-960*cb2d69b7
%RAWIMUSA,2283,43611.790;2283,43611.789998284,00000077,475,-225,-64242,-55,0,-676*41a57d94
%RAWIMUSA,2283,43611.800;2283,43611.799998284,00000077,457,-219,-64243,37,0,951*8e8d231d
%RAWIMUSA,2283,43611.810;2283,43611.809998284,00000077,470,-167,-64231,-45,0,951*8ad47d98
%RAWIMUSA,2283,43611.820;2283,43611.819998284,00000077,491,-278,-64246,55,-9,-740*bb85d69c
%RAWIMUSA,2283,43611.830;2283,43611.829998284,00000077,479,-140,-64232,-46,0,-960*eda65aa7
%RAWIMUSA,2283,43611.840;2283,43611.839998284,00000077,462,-257,-64245,-27,18,256*e7044073
%RAWIMUSA,2283,43611.850;2283,43611.849998284,00000077,475,-190,-64237,37,9,951*d5ea0be9
%RAWIMUSA,2283,43611.860;2283,43611.859998284,00000077,484,-204,-64237,-36,-18,246*7c31a303
%RAWIMUSA,2283,43611.870;2283,43611.869998284,00000077,468,-244,-64243,36,-19,-978*cd39e198
%RAWIMUSA,2283,43611.880;2283,43611.879998284,00000077,469,-155,-64232,-64,8,-731*5670cce9
%RAWIMUSA,2283,43611.890;2283,43611.889998284,00000077,475,-268,-64247,18,19,951*e7e239f2
%RAWIMUSA,2283,43611.900;2283,43611.899998284,00000077,489,-162,-64231,0,9,951*d55006f2
%RAWIMUSA,2283,43611.910;2283,43611.909998284,00000077,478,-247,-64243,0,-18,-694*d192863e
%RAWIMUSA,2283,43611.920;2283,43611.919998284,00000077,461,-188,-64237,9,-10,-960*b8e05b75
%RAWIMUSA,2283,43611.930;2283,43611.929998284,00000077,469,-202,-64235,-73,9,201*3fcd61be
%RAWIMUSA,2283,43611.940;2283,43611.939998284,00000077,482,-249,-64244,64,9,941*91571182
%RAWIMUSA,2283,43611.950;2283,43611.949998284,00000077,480,-153,-64231,-36,-8,301*0e2916bb
%RAWIMUSA,2283,43611.960;2283,43611.959998284,00000077,467,-271,-64248,18,8,-960*de1b5b78
%RAWIMUSA,2283,43611.970;2283,43611.969998284,00000077,477,-155,-64233,-27,0,-786*32b444b1
%RAWIMUSA,2283,43611.980;2283,43611.979998284,00000077,477,-245,-64239,-27,0,960*a9bfddcb
%RAWIMUSA,2283,43611.990;2283,43611.989998284,00000077,473,-213,-64236,55,-8,951*c42e17fc
%RAWIMUSA,2283,43612.000;2283,43611.999998284,00000077,467,-171,-64233,-55,0,-658*73d34c92
%RAWIMUSA,2283,43612.010;2283,43612.009998284,00000077,479,-270,-64248,36,8,-960*fab12084
%RAWIMUSA,2283,43612.020;2283,43612.019998284,00000077,487,-143,-64232,-64,9,146*714db90a
%RAWIMUSA,2283,43612.030;2283,43612.029998284,00000077,473,-270,-64247,18,0,951*7bc61e94
%RAWIMUSA,2283,43612.040;2283,43612.039998284,00000077,465,-183,-64233,37,-18,338*621a6e9f
%RAWIMUSA,2283,43612.050;2283,43612.049998284,00000077,474,-203,-64237,-55,-9,-960*b2316168
%RAWIMUSA,2283,43612.060;2283,43612.059998284,00000077,477,-241,-64240,27,8,-841*d12eefc5
%RAWIMUSA,2283,43612.070;2283,43612.069998284,00000077,477,-160,-64229,-64,19,960*ce974d6e
%RAWIMUSA,2283,43612.080;2283,43612.079998284,00000077,470,-277,-64250,55,0,941*191d2d44
%RAWIMUSA,2283,43612.090;2283,43612.089998284,00000077,481,-147,-64229,-9,-9,-585*f716d3f2
%RAWIMUSA,2283,43612.100;2283,43612.099998284,00000077,481,-245,-64241,-36,0,-969*4c620b15
%RAWIMUSA,2283,43612.110;2283,43612.109998284,00000077,467,-212,-64237,18,0,91*3e2641ac
%RAWIMUSA,2283,43612.120;2283,43612.119998284,00000077,465,-177,-64234,-45,0,960*c1c05ac5
%RAWIMUSA,2283,43612.130;2283,43612.129998284,00000077,478,-259,-64247,64,9,393*1d122908
%RAWIMUSA,2283,43612.140;2283,43612.139998284,00000077,489,-147,-64229,-46,0,-960*292643ab
%RAWIMUSA,2283,43612.150;2283,43612.149998284,00000077,477,-270,-64240,-9,0,-896*e77ef241
%RAWIMUSA,2283,43612.160;2283,43612.159998284,00000077,463,-171,-64232,0,0,951*9bc58c48
%RAWIMUSA,2283,43612.170;2283,43612.169998284,00000077,465,-216,-64242,-18,0,951*417774fe
%RAWIMUSA,2283,43612.180;2283,43612.179998284,00000077,485,-232,-64242,55,-9,-539*8f59f711
%RAWIMUSA,2283,43612.190;2283,43612.189998284,00000077,487,-165,-64229,-83,8,-960*a82c98ac
%RAWIMUSA,2283,43612.200;2283,43612.199998284,00000077,472,-270,-64248,27,9,45*47acd0ca
%RAWIMUSA,2283,43612.210;2283,43612.209998284,00000077,460,-144,-64231,-18,0,960*16a92954
%RAWIMUSA,2283,43612.220;2283,43612.219998284,00000077,475,-257,-64241,9,-18,448*ead5bf8c
%RAWIMUSA,2283,43612.230;2283,43612.229998284,00000077,486,-193,-64234,18,0,-978*9dfa85ef
%RAWIMUSA,2283,43612.240;2283,43612.239998284,00000077,474,-199,-64235,-73,17,-941*bc58c96d
%RAWIMUSA,2283,43612.250;2283,43612.249998284,00000077,464,-245,-64246,55,9,951*a42b94f5
%RAWIMUSA,2283,43612.260;2283,43612.259998284,00000077,477,-146,-64229,-45,-8,960*f712f368
%RAWIMUSA,2283,43612.270;2283,43612.269998284,00000077,481,-280,-64246,36,-18,-484*a405c581
%RAWIMUSA,2283,43612.280;2283,43612.279998284,00000077,474,-164,-64232,-27,8,-969*8f5d1d43
%RAWIMUSA,2283,43612.290;2283,43612.289998284,00000077,469,-227,-64241,-45,18,-9*4e84adab
%RAWIMUSA,2283,43612.300;2283,43612.299998284,00000077,476,-211,-64240,55,0,951*f7e5defa
%RAWIMUSA,2283,43612.310;2283,43612.309998284,00000077,484,-175,-64232,-45,-18,503*662664b9
%RAWIMUSA,2283,43612.320;2283,43612.319998284,00000077,470,-269,-64244,36,-10,-959*61a4ff2f
%RAWIMUSA,2283,43612.330;2283,43612.329998284,00000077,464,-145,-64235,-55,17,-969*d39bc2cb
%RAWIMUSA,2283,43612.340;2283,43612.339998284,00000077,477,-264,-64247,9,9,923*967e4c85
%RAWIMUSA,2283,43612.350;2283,43612.349998284,00000077,490,-174,-64232,28,-8,951*e39ecf61
%RAWIMUSA,2283,43612.360;2283,43612.359998284,00000077,470,-217,-64236,-36,-9,-438*2b54ff1f
%RAWIMUSA,2283,43612.370;2283,43612.369998284,00000077,458,-226,-64244,27,0,-960*5cc162d2
%RAWIMUSA,2283,43612.380;2283,43612.379998284,00000077,476,-167,-64231,-73,18,-63*d41f8d3e
%RAWIMUSA,2283,43612.390;2283,43612.389998284,00000077,493,-272,-64248,55,0,960*78d2ef97
%RAWIMUSA,2283,43612.400;2283,43612.399998284,00000077,478,-147,-64234,-8,-8,557*196c1c95
%RAWIMUSA,2283,43612.410;2283,43612.409998284,00000077,457,-253,-64242,-27,-9,-969*a4d54e04
%RAWIMUSA,2283,43612.420;2283,43612.419998284,00000077,472,-193,-64232,9,8,-950*ef471915
%RAWIMUSA,2283,43612.430;2283,43612.429998284,00000077,489,-201,-64237,-45,19,868*17477e37
%RAWIMUSA,2283,43612.440;2283,43612.439998284,00000077,478,-246,-64244,64,-8,960*15f83918
%RAWIMUSA,2283,43612.450;2283,43612.449998284,00000077,464,-146,-64229,-55,-9,-383*30c0f08f
%RAWIMUSA,2283,43612.460;2283,43612.459998284,00000077,468,-273,-64241,9,0,-960*d7f0a7a4
%RAWIMUSA,2283,43612.470;2283,43612.469998284,00000077,485,-160,-64229,-18,18,-109*f5de94e8
%RAWIMUSA,2283,43612.480;2283,43612.479998284,00000077,482,-235,-64242,-18,0,951*0dd53cab
%RAWIMUSA,2283,43612.490;2283,43612.489998284,00000077,466,-212,-64240,55,-8,594*9da4be67
%RAWIMUSA,2283,43612.500;2283,43612.499998284,00000077,470,-173,-64232,-73,0,-950*550038fd
%RAWIMUSA,2283,43612.510;2283,43612.509998284,00000077,482,-265,-64245,27,8,-960*d92024ad
%RAWIMUSA,2283,43612.520;2283,43612.519998284,00000077,482,-147,-64231,-36,9,813*301eaadc
%RAWIMUSA,2283,43612.530;2283,43612.529998284,00000077,466,-265,-64243,28,-8,960*efb704e0
%RAWIMUSA,2283,43612.540;2283,43612.539998284,00000077,471,-176,-64232,9,-18,-338*3fb5571a
%RAWIMUSA,2283,43612.550;2283,43612.549998284,00000077,484,-210,-64237,-64,17,-960*63874d30
%RAWIMUSA,2283,43612.560;2283,43612.559998284,00000077,477,-236,-64242,46,8,-155*19c0ad76
%RAWIMUSA,2283,43612.570;2283,43612.569998284,00000077,467,-160,-64231,-45,-8,960*0c8c8add
%RAWIMUSA,2283,43612.580;2283,43612.579998284,00000077,472,-274,-64248,46,-8,649*37b6cab2
%RAWIMUSA,2283,43612.590;2283,43612.589998284,00000077,488,-153,-64232,-36,8,-969*18461d67
%RAWIMUSA,2283,43612.600;2283,43612.599998284,00000077,475,-251,-64242,-36,0,-960*1c868674
%RAWIMUSA,2283,43612.610;2283,43612.609998284,00000077,469,-194,-64238,37,9,759*5f70ead9
%RAWIMUSA,2283,43612.620;2283,43612.619998284,00000077,473,-192,-64236,-36,-8,960*2c4727e6
%RAWIMUSA,2283,43612.630;2283,43612.629998284,00000077,483,-257,-64244,55,-9,-274*75153d09
%RAWIMUSA,2283,43612.640;2283,43612.639998284,00000077,479,-148,-64227,-73,8,-969*40981704
%RAWIMUSA,2283,43612.650;2283,43612.649998284,00000077,466,-269,-64245,18,8,-210*f6f36680
%RAWIMUSA,2283,43612.660;2283,43612.659998284,00000077,470,-163,-64234,9,-8,941*bada6259
%RAWIMUSA,2283,43612.670;2283,43612.669998284,00000077,479,-235,-64243,-8,-8,704*fc3757d5
%RAWIMUSA,2283,43612.680;2283,43612.679998284,00000077,480,-214,-64240,18,0,-960*56b93375
%RAWIMUSA,2283,43612.690;2283,43612.689998284,00000077,476,-177,-64234,-83,8,-960*5c110140
%RAWIMUSA,2283,43612.700;2283,43612.699998284,00000077,467,-268,-64244,64,9,704*e7f5d86b
%RAWIMUSA,2283,43612.710;2283,43612.709998284,00000077,474,-139,-64231,-27,-8,960*b74d4663
%RAWIMUSA,2283,43612.720;2283,43612.719998284,00000077,479,-271,-64245,0,-9,-228*8a5fe074
%RAWIMUSA,2283,43612.730;2283,43612.729998284,00000077,475,-181,-64234,0,8,-960*be606b73
%RAWIMUSA,2283,43612.740;2283,43612.739998284,00000077,472,-205,-64236,-64,8,-283*88987e15
%RAWIMUSA,2283,43612.750;2283,43612.749998284,00000077,473,-240,-64244,74,-8,951*a7e80716
%RAWIMUSA,2283,43612.760;2283,43612.759998284,00000077,477,-155,-64230,-45,-8,759*3e515070
%RAWIMUSA,2283,43612.770;2283,43612.769998284,00000077,475,-278,-64246,9,8,-969*4a7cfbb5
%RAWIMUSA,2283,43612.780;2283,43612.779998284,00000077,474,-157,-64231,-36,8,-960*41139327
%RAWIMUSA,2283,43612.790;2283,43612.789998284,00000077,473,-240,-64241,-8,0,658*807e8a96
%RAWIMUSA,2283,43612.800;2283,43612.799998284,00000077,478,-205,-64238,55,-8,951*1664df17
%RAWIMUSA,2283,43612.810;2283,43612.809998284,00000077,478,-191,-64234,-64,0,-164*bbbee697
%RAWIMUSA,2283,43612.820;2283,43612.819998284,00000077,471,-255,-64245,27,0,-969*016467b2
%RAWIMUSA,2283,43612.830;2283,43612.829998284,00000077,474,-150,-64232,-55,8,-319*4694a721
%RAWIMUSA,2283,43612.840;2283,43612.839998284,00000077,476,-269,-64246,46,-8,960*eeac2ab1
%RAWIMUSA,2283,43612.850;2283,43612.849998284,00000077,477,-164,-64232,0,0,813*53bd61bc
%RAWIMUSA,2283,43612.860;2283,43612.859998284,00000077,470,-233,-64242,-46,0,-960*81f2219b
%RAWIMUSA,2283,43612.870;2283,43612.869998284,00000077,471,-212,-64240,27,8,-969*2086bf25
%RAWIMUSA,2283,43612.880;2283,43612.879998284,00000077,477,-178,-64230,-54,0,612*f9f102f3
%RAWIMUSA,2283,43612.890;2283,43612.889998284,00000077,478,-271,-64245,64,-8,951*774ef8c5
%RAWIMUSA,2283,43612.900;2283,43612.899998284,00000077,476,-137,-64228,-45,0,-118*6cf733e9
%RAWIMUSA,2283,43612.910;2283,43612.909998284,00000077,472,-262,-64245,-18,8,-960*4d2fe1f3
%RAWIMUSA,2283,43612.920;2283,43612.919998284,00000077,478,-183,-64235,9,0,-374*f5652da5
%RAWIMUSA,2283,43612.930;2283,43612.929998284,00000077,474,-205,-64238,-27,-8,960*c87132cb
%RAWIMUSA,2283,43612.940;2283,43612.939998284,00000077,472,-234,-64244,64,-8,868*5b1380df
%RAWIMUSA,2283,43612.950;2283,43612.949998284,00000077,480,-161,-64231,-73,8,-960*28e3ee5f
%RAWIMUSA,2283,43612.960;2283,43612.959998284,00000077,472,-273,-64250,9,8,-969*3473fb4f
%RAWIMUSA,2283,43612.970;2283,43612.969998284,00000077,479,-151,-64226,0,0,557*f9a115c5
%RAWIMUSA,2283,43612.980;2283,43612.979998284,00000077,461,-251,-64241,-8,-8,951*8253c13b
%RAWIMUSA,2283,43612.990;2283,43612.989998284,00000077,489,-195,-64244,37,0,-73*4ba4a84f
%RAWIMUSA,2283,43613.000;2283,43612.999998284,00000077,470,-186,-64219,-83,8,-960*a3c34005
%RAWIMUSA,2283,43613.010;2283,43613.009998284,00000077,468,-261,-64254,46,0,-438*b8aa914a
%RAWIMUSA,2283,43613.020;2283,43613.019998284,00000077,477,-147,-64236,-27,0,960*46d920f2
%RAWIMUSA,2283,43613.030;2283,43613.029998284,00000077,478,-272,-64228,18,-8,914*9f118d2a
%RAWIMUSA,2283,43613.040;2283,43613.039998284,00000077,477,-166,-64240,-9,0,-960*fbdd7297
%RAWIMUSA,2283,43613.050;2283,43613.049998284,00000077,469,-214,-64246,-64,17,-960*eaee667f
%RAWIMUSA,2283,43613.060;2283,43613.059998284,00000077,473,-232,-64232,64,0,503*fe4c27cd
%RAWIMUSA,2283,43613.070;2283,43613.069998284,00000077,480,-166,-64230,-45,-17,951*126483be
%RAWIMUSA,2283,43613.080;2283,43613.079998284,00000077,478,-271,-64253,37,9,-18*c67c9c1e
%RAWIMUSA,2283,43613.090;2283,43613.089998284,00000077,474,-143,-64232,-46,8,-960*f18cee29
%RAWIMUSA,2283,43613.100;2283,43613.099998284,00000077,467,-256,-64232,-9,0,-475*7950b711
%RAWIMUSA,2283,43613.110;2283,43613.109998284,00000077,478,-189,-64240,46,-8,951*c8d8c850
%RAWIMUSA,2283,43613.120;2283,43613.119998284,00000077,483,-199,-64241,-54,0,960*ae7cda05
%RAWIMUSA,2283,43613.130;2283,43613.129998284,00000077,470,-249,-64241,36,8,-960*1baa3058
%RAWIMUSA,2283,43613.140;2283,43613.139998284,00000077,468,-145,-64223,-73,0,-960*df5feeb9
%RAWIMUSA,2283,43613.150;2283,43613.149998284,00000077,475,-272,-64251,37,0,466*5f7ffde6
%RAWIMUSA,2283,43613.160;2283,43613.159998284,00000077,485,-165,-64238,18,-8,941*1f8bc97c
%RAWIMUSA,2283,43613.170;2283,43613.169998284,00000077,469,-229,-64235,-45,0,36*950ae85d
%RAWIMUSA,2283,43613.180;2283,43613.179998284,00000077,466,-220,-64239,27,8,-969*1a03ddf0
%RAWIMUSA,2283,43613.190;2283,43613.189998284,00000077,482,-168,-64236,-64,8,-539*c8f23904
%RAWIMUSA,2283,43613.200;2283,43613.199998284,00000077,479,-269,-64245,64,-8,951*96f7b001
%RAWIMUSA,2283,43613.210;2283,43613.209998284,00000077,468,-146,-64229,-27,-8,951*44e65864
%RAWIMUSA,2283,43613.220;2283,43613.219998284,00000077,468,-263,-64246,-18,8,-905*6c418c56
%RAWIMUSA,2283,43613.230;2283,43613.229998284,00000077,483,-183,-64236,0,8,-960*399a108a
%RAWIMUSA,2283,43613.240;2283,43613.239998284,00000077,480,-209,-64235,-27,-8,402*fa189ac5
%RAWIMUSA,2283,43613.250;2283,43613.249998284,00000077,467,-235,-64241,64,-8,960*25d2e968
%RAWIMUSA,2283,43613.260;2283,43613.259998284,00000077,469,-161,-64233,-73,9,91*1e241fa7
%RAWIMUSA,2283,43613.270;2283,43613.269998284,00000077,482,-273,-64248,18,8,-960*16340c7a
%RAWIMUSA,2283,43613.280;2283,43613.279998284,00000077,479,-156,-64230,-18,0,-585*cfe6d0f1
%RAWIMUSA,2283,43613.290;2283,43613.289998284,00000077,465,-245,-64241,0,-8,951*3313979f
%RAWIMUSA,2283,43613.300;2283,43613.299998284,00000077,470,-198,-64240,37,0,960*343af53a
%RAWIMUSA,2283,43613.310;2283,43613.309998284,00000077,482,-194,-64234,-82,8,-850*35553264
%RAWIMUSA,2283,43613.320;2283,43613.319998284,00000077,482,-263,-64241,36,0,-959*c8812db4
%RAWIMUSA,2283,43613.330;2283,43613.329998284,00000077,470,-143,-64230,-27,0,356*5afb8412
%RAWIMUSA,2283,43613.340;2283,43613.339998284,00000077,466,-271,-64246,28,-8,951*249a1f6d
%RAWIMUSA,2283,43613.350;2283,43613.349998284,00000077,480,-165,-64235,-9,0,128*488677e8
%RAWIMUSA,2283,43613.360;2283,43613.359998284,00000077,479,-227,-64242,-55,8,-960*b311e5a1
%RAWIMUSA,2283,43613.370;2283,43613.369998284,00000077,471,-224,-64239,46,0,-639*16ab6c40
%RAWIMUSA,2283,43613.380;2283,43613.379998284,00000077,467,-171,-64232,-45,-8,960*a926dc13
%RAWIMUSA,2283,43613.390;2283,43613.389998284,00000077,477,-270,-64245,55,9,960*8c97920e
%RAWIMUSA,2283,43613.400;2283,43613.399998284,00000077,482,-148,-64230,-64,0,-795*854be8bb
%RAWIMUSA,2283,43613.410;2283,43613.409998284,00000077,472,-265,-64246,-9,8,-969*fd98856c
%RAWIMUSA,2283,43613.420;2283,43613.419998284,00000077,470,-185,-64234,37,-9,301*f84d76d5
%RAWIMUSA,2283,43613.430;2283,43613.429998284,00000077,478,-198,-64238,-36,-8,960*28ad91de
%RAWIMUSA,2283,43613.440;2283,43613.439998284,00000077,478,-248,-64242,46,9,192*8b596c9b
%RAWIMUSA,2283,43613.450;2283,43613.449998284,00000077,472,-153,-64230,-83,8,-960*b80d6fcb
%RAWIMUSA,2283,43613.460;2283,43613.459998284,00000077,469,-275,-64246,36,0,-694*d10e378b
%RAWIMUSA,2283,43613.470;2283,43613.469998284,00000077,479,-153,-64231,9,-8,951*53780afa
%RAWIMUSA,2283,43613.480;2283,43613.479998284,00000077,480,-241,-64237,-27,0,960*82f33431
%RAWIMUSA,2283,43613.490;2283,43613.489998284,00000077,471,-210,-64239,18,0,-740*8707444e
%RAWIMUSA,2283,43613.500;2283,43613.499998284,00000077,468,-178,-64233,-73,8,-950*20e52a76
%RAWIMUSA,2283,43613.510;2283,43613.509998284,00000077,477,-260,-64247,64,-9,228*e9ae722e
%RAWIMUSA,2283,43613.520;2283,43613.519998284,00000077,482,-145,-64230,-18,-8,960*03bb3f3c
%RAWIMUSA,2283,43613.530;2283,43613.529998284,00000077,474,-269,-64243,-8,9,256*7ee734ce
%RAWIMUSA,2283,43613.540;2283,43613.539998284,00000077,471,-177,-64234,-9,8,-960*9330e3aa
%RAWIMUSA,2283,43613.550;2283,43613.549998284,00000077,474,-207,-64240,-36,-9,-722*3718e915
%RAWIMUSA,2283,43613.560;2283,43613.559998284,00000077,480,-236,-64240,55,0,951*67eecfe6
%RAWIMUSA,2283,43613.570;2283,43613.569998284,00000077,477,-169,-64231,-54,0,951*44596d78
%RAWIMUSA,2283,43613.580;2283,43613.579998284,00000077,469,-265,-64247,18,8,-685*ed5a5008
%RAWIMUSA,2283,43613.590;2283,43613.589998283,00000077,473,-146,-64233,-36,0,-960*ce99a57e
%RAWIMUSA,2283,43613.600;2283,43613.599998283,00000077,475,-254,-64244,9,-9,192*bed6e084
%RAWIMUSA,2283,43613.610;2283,43613.609998283,00000077,474,-187,-64236,37,-8,951*aa0be326
%RAWIMUSA,2283,43613.620;2283,43613.619998283,00000077,472,-204,-64237,-73,9,292*68da5b79
%RAWIMUSA,2283,43613.630;2283,43613.629998283,00000077,475,-243,-64245,36,8,-960*6d2458c3
%RAWIMUSA,2283,43613.640;2283,43613.639998283,00000077,479,-146,-64228,-46,-9,-795*30c82011
%RAWIMUSA,2283,43613.650;2283,43613.649998283,00000077,473,-278,-64246,46,-8,951*2dfb659c
%RAWIMUSA,2283,43613.660;2283,43613.659998283,00000077,473,-159,-64232,-8,9,960*e4775910
%RAWIMUSA,2283,43613.670;2283,43613.669998283,00000077,476,-229,-64243,-55,8,-639*640fa04b
%RAWIMUSA,2283,43613.680;2283,43613.679998283,00000077,476,-220,-64241,46,0,-950*1b9235d2
%RAWIMUSA,2283,43613.690;2283,43613.689998283,00000077,476,-162,-64231,-45,-9,128*735748c4
%RAWIMUSA,2283,43613.700;2283,43613.699998283,00000077,474,-271,-64245,55,-8,941*bc8b051d
%RAWIMUSA,2283,43613.710;2283,43613.709998283,00000077,470,-147,-64234,-45,9,356*2c927bfd
%RAWIMUSA,2283,43613.720;2283,43613.719998283,00000077,475,-259,-64244,-27,8,-969*5132842a
%RAWIMUSA,2283,43613.730;2283,43613.729998283,00000077,478,-182,-64238,27,-9,-831*c14f2606
%RAWIMUSA,2283,43613.740;2283,43613.739998283,00000077,473,-205,-64240,-27,0,951*61aeb55f
%RAWIMUSA,2283,43613.750;2283,43613.749998283,00000077,475,-238,-64243,37,0,951*31a2d5bc
%RAWIMUSA,2283,43613.760;2283,43613.759998283,00000077,479,-162,-64229,-73,17,-585*5578afc0
%RAWIMUSA,2283,43613.770;2283,43613.769998283,00000077,475,-271,-64245,27,-10,-959*367f5146
%RAWIMUSA,2283,43613.780;2283,43613.779998283,00000077,469,-149,-64232,0,0,82*c86d9870
%RAWIMUSA,2283,43613.790;2283,43613.789998283,00000077,471,-249,-64245,-8,0,960*82d53005
%RAWIMUSA,2283,43613.800;2283,43613.799998283,00000077,482,-202,-64238,18,0,402*5c98f136
%RAWIMUSA,2283,43613.810;2283,43613.809998283,00000077,479,-188,-64234,-83,8,-960*4dc562a6
%RAWIMUSA,2283,43613.820;2283,43613.819998283,00000077,467,-261,-64247,64,-10,-905*04ea6ec5
%RAWIMUSA,2283,43613.830;2283,43613.829998283,00000077,474,-140,-64230,-27,-8,951*1b3be769
%RAWIMUSA,2283,43613.840;2283,43613.839998283,00000077,478,-269,-64246,0,9,960*cd459485
%RAWIMUSA,2283,43613.850;2283,43613.849998283,00000077,479,-176,-64234,0,8,-539*86d2a64b
%RAWIMUSA,2283,43613.860;2283,43613.859998283,00000077,469,-218,-64240,-55,0,-960*89f70a59
%RAWIMUSA,2283,43613.870;2283,43613.869998283,00000077,474,-237,-64242,73,-9,27*db69eb84
%RAWIMUSA,2283,43613.880;2283,43613.879998283,00000077,482,-160,-64230,-54,9,960*b8cf4b4b
%RAWIMUSA,2283,43613.890;2283,43613.889998283,00000077,477,-274,-64250,18,0,457*f6b7547e
%RAWIMUSA,2283,43613.900;2283,43613.899998283,00000077,471,-150,-64232,-36,8,-969*7febbe80
%RAWIMUSA,2283,43613.910;2283,43613.909998283,00000077,470,-250,-64242,0,-9,-950*0ef263fa
%RAWIMUSA,2283,43613.920;2283,43613.919998283,00000077,478,-197,-64236,37,-8,951*80a93766
%RAWIMUSA,2283,43613.930;2283,43613.929998283,00000077,481,-199,-64237,-54,9,960*7b2699fd
%RAWIMUSA,2283,43613.940;2283,43613.939998283,00000077,466,-244,-64244,27,0,-475*e1a79ff0
%RAWIMUSA,2283,43613.950;2283,43613.949998283,00000077,469,-159,-64231,-55,0,-969*0c55819a
%RAWIMUSA,2283,43613.960;2283,43613.959998283,00000077,480,-271,-64245,46,-9,-18*1fb0c095
%RAWIMUSA,2283,43613.970;2283,43613.969998283,00000077,483,-157,-64232,-8,0,960*b15b6430
%RAWIMUSA,2283,43613.980;2283,43613.979998283,00000077,466,-245,-64245,-36,9,493*e456103c
%RAWIMUSA,2283,43613.990;2283,43613.989998283,00000077,467,-200,-64235,18,8,-960*5d6c84c5
%RAWIMUSA,2283,43614.000;2283,43613.999998283,00000077,483,-188,-64234,-46,-9,-960*9b6687f8
%RAWIMUSA,2283,43614.010;2283,43614.009998283,00000077,483,-263,-64247,74,-8,905*4d830688
%RAWIMUSA,2283,43614.020;2283,43614.019998283,00000077,466,-144,-64227,-64,9,951*5a14f6a2
%RAWIMUSA,2283,43614.030;2283,43614.029998283,00000077,465,-273,-64247,0,8,-429*fde920ba
%RAWIMUSA,2283,43614.040;2283,43614.039998283,00000077,479,-170,-64234,0,0,-960*a2eedb8f
%RAWIMUSA,2283,43614.050;2283,43614.049998283,00000077,480,-218,-64238,-27,-9,-63*f16a1544
%RAWIMUSA,2283,43614.060;2283,43614.059998283,00000077,468,-243,-64240,64,0,951*f2c1357e
%RAWIMUSA,2283,43614.070;2283,43614.069998283,00000077,470,-158,-64232,-91,9,548*41774434
%RAWIMUSA,2283,43614.080;2283,43614.079998283,00000077,476,-267,-64246,18,0,-960*10e88906
%RAWIMUSA,2283,43614.090;2283,43614.089998283,00000077,483,-153,-64233,0,-10,-969*ee9f3394
%RAWIMUSA,2283,43614.100;2283,43614.099998283,00000077,470,-254,-64241,0,-8,868*33655523
%RAWIMUSA,2283,43614.110;2283,43614.109998283,00000077,467,-198,-64236,18,9,951*21b04f7f
%RAWIMUSA,2283,43614.120;2283,43614.119998283,00000077,478,-194,-64233,-73,18,-383*292c3fd3
%RAWIMUSA,2283,43614.130;2283,43614.129998283,00000077,480,-249,-64243,55,-19,-959*03433c37
%RAWIMUSA,2283,43614.140;2283,43614.139998283,00000077,470,-147,-64233,-36,-9,-118*20b26240
%RAWIMUSA,2283,43614.150;2283,43614.149998283,00000077,468,-278,-64244,28,9,951*6fce51a9
%RAWIMUSA,2283,43614.160;2283,43614.159998283,00000077,480,-165,-64231,-18,9,603*1c6fb500
%RAWIMUSA,2283,43614.170;2283,43614.169998283,00000077,483,-219,-64241,-55,0,-960*7a578368
%RAWIMUSA,2283,43614.180;2283,43614.179998283,00000077,470,-231,-64241,73,-10,-959*4cc56a10
%RAWIMUSA,2283,43614.190;2283,43614.189998283,00000077,466,-159,-64234,-45,0,813*ab612345
%RAWIMUSA,2283,43614.200;2283,43614.199998283,00000077,475,-272,-64248,28,9,951*caf87709
%RAWIMUSA,2283,43614.210;2283,43614.209998283,00000077,486,-147,-64227,-46,8,-338*f93e4e45
%RAWIMUSA,2283,43614.220;2283,43614.219998283,00000077,475,-259,-64243,-9,-19,-960*e0a8964f
%RAWIMUSA,2283,43614.230;2283,43614.229998283,00000077,463,-191,-64237,36,0,-173*0ac4cbc1
%RAWIMUSA,2283,43614.240;2283,43614.239998283,00000077,474,-190,-64231,-45,0,951*fd7a5e3a
%RAWIMUSA,2283,43614.250;2283,43614.249998283,00000077,486,-248,-64243,27,9,649*bdfc5f71
%RAWIMUSA,2283,43614.260;2283,43614.259998283,00000077,475,-155,-64233,-64,0,-960*359ec574
%RAWIMUSA,2283,43614.270;2283,43614.269998283,00000077,463,-272,-64246,36,-10,-959*54fd16d0
%RAWIMUSA,2283,43614.280;2283,43614.279998283,00000077,475,-156,-64234,18,0,759*de212237
%RAWIMUSA,2283,43614.290;2283,43614.289998283,00000077,482,-229,-64240,-54,9,960*9d303210
%RAWIMUSA,2283,43614.300;2283,43614.299998283,00000077,475,-223,-64239,27,0,-274*5919c68a
%RAWIMUSA,2283,43614.310;2283,43614.309998283,00000077,468,-172,-64235,-55,0,-950*35a4c5bc
%RAWIMUSA,2283,43614.320;2283,43614.319998283,00000077,474,-261,-64249,64,-9,-237*915c7613
%RAWIMUSA,2283,43614.330;2283,43614.329998283,00000077,483,-143,-64231,-36,9,951*a8151225
%RAWIMUSA,2283,43614.340;2283,43614.339998283,00000077,474,-265,-64246,-18,0,704*c5c56722
%RAWIMUSA,2283,43614.350;2283,43614.349998283,00000077,466,-182,-64233,0,0,-960*fa014d19
%RAWIMUSA,2283,43614.360;2283,43614.359998283,00000077,473,-209,-64237,-27,-9,-960*65e62704
%RAWIMUSA,2283,43614.370;2283,43614.369998283,00000077,481,-231,-64242,64,0,713*362ed7f1
%RAWIMUSA,2283,43614.380;2283,43614.379998283,00000077,474,-160,-64228,-73,9,951*f1de44de
%RAWIMUSA,2283,43614.390;2283,43614.389998283,00000077,465,-275,-64247,18,8,-219*f6669075
%RAWIMUSA,2283,43614.400;2283,43614.399998283,00000077,478,-149,-64232,-9,-9,-950*35acb21f
%RAWIMUSA,2283,43614.410;2283,43614.409998283,00000077,484,-250,-64241,0,0,-283*310284d8
%RAWIMUSA,2283,43614.420;2283,43614.419998283,00000077,477,-202,-64237,28,0,951*0da60490
%RAWIMUSA,2283,43614.430;2283,43614.429998283,00000077,466,-184,-64236,-73,9,768*e4866984
%RAWIMUSA,2283,43614.440;2283,43614.439998283,00000077,474,-251,-64240,36,0,-969*20584b66
%RAWIMUSA,2283,43614.450;2283,43614.449998283,00000077,485,-150,-64231,-27,-9,-950*6d75ca6f
%RAWIMUSA,2283,43614.460;2283,43614.459998283,00000077,474,-275,-64247,27,0,658*d34f15e7
%RAWIMUSA,2283,43614.470;2283,43614.469998283,00000077,469,-163,-64234,-8,9,960*c332f3f7
%RAWIMUSA,2283,43614.480;2283,43614.479998283,00000077,472,-217,-64239,-64,0,-164*0e6f79ea
%RAWIMUSA,2283,43614.490;2283,43614.489998283,00000077,484,-234,-64241,64,-10,-959*3268e485
%RAWIMUSA,2283,43614.500;2283,43614.499998283,00000077,479,-162,-64232,-46,0,-338*0a395bdb
%RAWIMUSA,2283,43614.510;2283,43614.509998283,00000077,466,-273,-64250,28,0,960*3424f2e6
%RAWIMUSA,2283,43614.520;2283,43614.519998283,00000077,472,-151,-64228,-36,9,823*91fa6860
%RAWIMUSA,2283,43614.530;2283,43614.529998283,00000077,481,-249,-64241,-18,0,-960*e689b6e5
%RAWIMUSA,2283,43614.540;2283,43614.539998283,00000077,476,-201,-64239,46,-10,-969*a175afbe
%RAWIMUSA,2283,43614.550;2283,43614.549998283,00000077,469,-190,-64235,-36,0,603*a398fea5
%RAWIMUSA,2283,43614.560;2283,43614.559998283,00000077,472,-257,-64246,28,9,960*47b2a821
%RAWIMUSA,2283,43614.570;2283,43614.569998283,00000077,483,-151,-64230,-64,0,-118*641a533b
%RAWIMUSA,2283,43614.580;2283,43614.579998283,00000077,472,-271,-64246,27,-10,-969*e8ab4be5
%RAWIMUSA,2283,43614.590;2283,43614.589998283,00000077,468,-166,-64235,18,0,-383*5f66e98c
%RAWIMUSA,2283,43614.600;2283,43614.599998283,00000077,475,-226,-64239,-36,0,951*6f1afc07
%RAWIMUSA,2283,43614.610;2283,43614.609998283,00000077,481,-228,-64245,28,9,868*de2d174f
%RAWIMUSA,2283,43614.620;2283,43614.619998283,00000077,471,-173,-64232,-73,-9,-960*2090b275
%RAWIMUSA,2283,43614.630;2283,43614.629998283,00000077,470,-261,-64244,64,-10,-969*fed9954a
%RAWIMUSA,2283,43614.640;2283,43614.639998283,00000077,480,-146,-64231,-18,9,548*bc7f5583
%RAWIMUSA,2283,43614.650;2283,43614.649998283,00000077,478,-265,-64243,-18,9,960*3386019c
%RAWIMUSA,2283,43614.660;2283,43614.659998283,00000077,472,-186,-64235,-9,0,-54*7d0b592c
%RAWIMUSA,2283,43614.670;2283,43614.669998283,00000077,474,-208,-64237,-27,-9,-960*31de9cec
%RAWIMUSA,2283,43614.680;2283,43614.679998283,00000077,478,-231,-64243,64,-9,-429*d40c0e52
%RAWIMUSA,2283,43614.690;2283,43614.689998283,00000077,477,-168,-64232,-54,9,951*eaa64741
%RAWIMUSA,2283,43614.700;2283,43614.699998283,00000077,469,-274,-64247,9,9,923*000cf349
%RAWIMUSA,2283,43614.710;2283,43614.709998283,00000077,474,-150,-64229,-27,-9,-960*d15f8b9a
%RAWIMUSA,2283,43614.720;2283,43614.719998283,00000077,474,-248,-64243,0,-10,-969*d6c6e90f
%RAWIMUSA,2283,43614.730;2283,43614.729998283,00000077,475,-199,-64238,55,0,484*acc03f24
%RAWIMUSA,2283,43614.740;2283,43614.739998283,00000077,473,-188,-64236,-82,19,969*09a11105
%RAWIMUSA,2283,43614.750;2283,43614.749998283,00000077,474,-264,-64247,37,0,-27*262756e6
%RAWIMUSA,2283,43614.760;2283,43614.759998283,00000077,476,-140,-64228,-36,-9,-950*8915fbb3
%RAWIMUSA,2283,43614.770;2283,43614.769998283,00000077,472,-269,-64245,27,-9,-493*5b1198ce
%RAWIMUSA,2283,43614.780;2283,43614.779998283,00000077,473,-174,-64231,0,9,951*e48e7d74
%RAWIMUSA,2283,43614.790;2283,43614.789998283,00000077,477,-211,-64237,-64,9,951*4b8e0f1f
%RAWIMUSA,2283,43614.800;2283,43614.799998283,00000077,477,-235,-64247,46,0,-941*66832e7d
%RAWIMUSA,2283,43614.810;2283,43614.809998283,00000077,481,-161,-64231,-46,-9,-969*a677c4cf
%RAWIMUSA,2283,43614.820;2283,43614.819998283,00000077,472,-270,-64246,55,0,448*ef3d4bc1
%RAWIMUSA,2283,43614.830;2283,43614.829998283,00000077,468,-148,-64232,-45,0,960*0145a1f1
%RAWIMUSA,2283,43614.840;2283,43614.839998283,00000077,471,-253,-64241,-36,9,36*bef38545
%RAWIMUSA,2283,43614.850;2283,43614.849998283,00000077,481,-201,-64242,46,0,-959*9556defc
%RAWIMUSA,2283,43614.860;2283,43614.859998283,00000077,476,-178,-64238,-46,0,-530*d70d7b27
%RAWIMUSA,2283,43614.870;2283,43614.869998283,00000077,470,-265,-64238,46,0,941*ca6ac514
%RAWIMUSA,2283,43614.880;2283,43614.879998283,00000077,472,-151,-64230,-64,0,960*9a5f341c
%RAWIMUSA,2283,43614.890;2283,43614.889998283,00000077,472,-260,-64249,9,0,-886*3b297b43
%RAWIMUSA,2283,43614.900;2283,43614.899998283,00000077,479,-171,-64234,27,8,-969*71497fc6
%RAWIMUSA,2283,43614.910;2283,43614.909998283,00000077,482,-223,-64242,-36,0,393*4586978c
%RAWIMUSA,2283,43614.920;2283,43614.919998283,00000077,468,-227,-64237,28,-8,951*05197ccc
%RAWIMUSA,2283,43614.930;2283,43614.929998283,00000077,472,-160,-64233,-82,0,100*4601c348
%RAWIMUSA,2283,43614.940;2283,43614.939998283,00000077,481,-265,-64250,64,0,-959*ab912c1c
%RAWIMUSA,2283,43614.950;2283,43614.949998283,00000077,486,-150,-64231,-9,8,-585*b3922d37
%RAWIMUSA,2283,43614.960;2283,43614.959998283,00000077,468,-262,-64241,-18,0,951*a77e6097
%RAWIMUSA,2283,43614.970;2283,43614.969998283,00000077,462,-185,-64234,9,-8,951*684614f2
%RAWIMUSA,2283,43614.980;2283,43614.979998283,00000077,480,-189,-64235,-64,8,-832*bba1077c
%RAWIMUSA,2283,43614.990;2283,43614.989998283,00000077,484,-259,-64247,64,0,-959*20b626c7
%RAWIMUSA,2283,43615.000;2283,43614.999998283,00000077,475,-145,-64228,-36,0,347*e3a99630
%RAWIMUSA,2283,43615.010;2283,43615.009998283,00000077,464,-268,-64243,0,0,941*55d4dea6
%RAWIMUSA,2283,43615.020;2283,43615.019998283,00000077,475,-166,-64232,-18,-9,146*30b094bd
%RAWIMUSA,2283,43615.030;2283,43615.029998283,00000077,482,-229,-64241,-18,8,-960*1ea7d0ee
%RAWIMUSA,2283,43615.040;2283,43615.039998283,00000077,474,-225,-64241,64,8,-649*a92e0baa
%RAWIMUSA,2283,43615.050;2283,43615.049998283,00000077,466,-160,-64230,-82,-8,960*2e9aeb47
%RAWIMUSA,2283,43615.060;2283,43615.059998283,00000077,471,-273,-64244,28,-8,951*c72f8def
%RAWIMUSA,2283,43615.070;2283,43615.069998283,00000077,485,-148,-64232,-27,8,-786*46bfd78a
%RAWIMUSA,2283,43615.080;2283,43615.079998283,00000077,477,-255,-64248,0,0,-969*56668e08
%RAWIMUSA,2283,43615.090;2283,43615.089998283,00000077,468,-190,-64235,37,0,292*d8c5bf2c
%RAWIMUSA,2283,43615.100;2283,43615.099998283,00000077,468,-194,-64232,-73,0,951*c5699aed
%RAWIMUSA,2283,43615.110;2283,43615.109998283,00000077,478,-259,-64245,37,-9,192*dfa3668f
%RAWIMUSA,2283,43615.120;2283,43615.119998283,00000077,477,-152,-64232,-36,8,-941*2ea3ac49
%RAWIMUSA,2283,43615.130;2283,43615.129998283,00000077,476,-267,-64247,36,0,-694*441c551e
%RAWIMUSA,2283,43615.140;2283,43615.139998283,00000077,472,-164,-64230,-18,0,951*77964df5
%RAWIMUSA,2283,43615.150;2283,43615.149998283,00000077,475,-237,-64239,-54,0,960*5aca3824
%RAWIMUSA,2283,43615.160;2283,43615.159998283,00000077,475,-222,-64243,55,0,-731*4dc08ac1
%RAWIMUSA,2283,43615.170;2283,43615.169998283,00000077,477,-164,-64233,-46,0,-969*f2791eb1
%RAWIMUSA,2283,43615.180;2283,43615.179998283,00000077,474,-273,-64245,46,-9,237*e6193727
%RAWIMUSA,2283,43615.190;2283,43615.189998283,00000077,473,-144,-64228,-54,9,960*b6de8e83
%RAWIMUSA,2283,43615.200;2283,43615.199998283,00000077,477,-264,-64247,-18,0,246*050b9a84
%RAWIMUSA,2283,43615.210;2283,43615.209998283,00000077,474,-196,-64240,46,0,-959*e0e953b1
%RAWIMUSA,2283,43615.220;2283,43615.219998283,00000077,476,-180,-64231,-55,-9,-740*9ae0da78
%RAWIMUSA,2283,43615.230;2283,43615.229998283,00000077,474,-269,-64245,46,0,951*51985e8f
%RAWIMUSA,2283,43615.240;2283,43615.239998283,00000077,477,-134,-64231,-64,9,951*16641361
%RAWIMUSA,2283,43615.250;2283,43615.249998283,00000077,471,-278,-64248,9,0,-667*5c931c7f
%RAWIMUSA,2283,43615.260;2283,43615.259998283,00000077,474,-168,-64233,36,-10,-959*6cffadc6
%RAWIMUSA,2283,43615.270;2283,43615.269998283,00000077,475,-212,-64238,-55,9,192*19ed7109
%RAWIMUSA,2283,43615.280;2283,43615.279998283,00000077,473,-238,-64242,46,9,951*1c34cb7a
%RAWIMUSA,2283,43615.290;2283,43615.289998283,00000077,473,-145,-64231,-101,-8,310*ce5bda11
%RAWIMUSA,2283,43615.300;2283,43615.299998283,00000077,470,-305,-64247,82,-10,-950*5e86e890
%RAWIMUSA,2283,43615.310;2283,43615.309998283,00000077,476,-115,-64224,-18,8,-804*f431cfe6
%RAWIMUSA,2283,43615.320;2283,43615.319998283,00000077,474,-278,-64249,-36,9,951*833df3b7
%RAWIMUSA,2283,43615.330;2283,43615.329998283,00000077,477,-184,-64238,37,-8,960*ba02878c
%RAWIMUSA,2283,43615.340;2283,43615.339998283,00000077,474,-188,-64235,-82,-9,-630*c5dbf71c
%RAWIMUSA,2283,43615.350;2283,43615.349998283,00000077,471,-280,-64249,101,0,-969*6076696d
%RAWIMUSA,2283,43615.360;2283,43615.359998283,00000077,480,-109,-64224,-73,9,137*1e13569c
%RAWIMUSA,2283,43615.370;2283,43615.369998283,00000077,474,-305,-64251,0,0,960*c68d1452
%RAWIMUSA,2283,43615.380;2283,43615.379998283,00000077,474,-153,-64232,9,0,347*30fcf423
%RAWIMUSA,2283,43615.390;2283,43615.389998283,00000077,478,-209,-64239,-46,-9,-969*2d664ebb
%RAWIMUSA,2283,43615.400;2283,43615.399998283,00000077,476,-251,-64247,92,8,-841*db771ce0
%RAWIMUSA,2283,43615.410;2283,43615.409998283,00000077,474,-134,-64228,-91,9,960*74eca150
%RAWIMUSA,2283,43615.420;2283,43615.419998283,00000077,470,-293,-64247,18,-8,960*d5d65d91
%RAWIMUSA,2283,43615.430;2283,43615.429998283,00000077,476,-143,-64231,0,-9,-575*234dcf6a
%RAWIMUSA,2283,43615.440;2283,43615.439998283,00000077,477,-240,-64242,-18,0,-960*44a8aea5
%RAWIMUSA,2283,43615.450;2283,43615.449998283,00000077,475,-211,-64241,46,9,73*ae14b9ee
%RAWIMUSA,2283,43615.460;2283,43615.459998283,00000077,474,-170,-64230,-91,0,960*1553b701
%RAWIMUSA,2283,43615.470;2283,43615.469998283,00000077,476,-274,-64250,46,-8,402*a4e0994f
%RAWIMUSA,2283,43615.480;2283,43615.479998283,00000077,476,-131,-64229,-27,0,-960*938ce917
%RAWIMUSA,2283,43615.490;2283,43615.489998283,00000077,478,-268,-64249,18,8,-905*975b6b19
%RAWIMUSA,2283,43615.500;2283,43615.499998282,00000077,481,-182,-64235,9,9,951*330d0208
%RAWIMUSA,2283,43615.510;2283,43615.509998282,00000077,472,-201,-64236,-82,0,951*c29cece6
%RAWIMUSA,2283,43615.520;2283,43615.519998282,00000077,472,-253,-64246,73,-9,-521*050258ce
%RAWIMUSA,2283,43615.530;2283,43615.529998282,00000077,479,-139,-64225,-46,0,-960*efe98ee1
%RAWIMUSA,2283,43615.540;2283,43615.539998282,00000077,476,-287,-64250,27,9,27*b8739245
%RAWIMUSA,2283,43615.550;2283,43615.549998282,00000077,473,-155,-64233,-27,0,951*46986bc9
%RAWIMUSA,2283,43615.560;2283,43615.559998282,00000077,473,-231,-64240,-45,-8,448*47ddcdc3
%RAWIMUSA,2283,43615.570;2283,43615.569998282,00000077,479,-227,-64242,64,-10,-959*f2ab1ed8
%RAWIMUSA,2283,43615.580;2283,43615.579998282,00000077,478,-163,-64229,-55,8,-950*a60d5bd1
%RAWIMUSA,2283,43615.590;2283,43615.589998282,00000077,474,-280,-64249,28,9,941*3b4efcad
%RAWIMUSA,2283,43615.600;2283,43615.599998282,00000077,472,-135,-64230,-45,-8,960*1784f330
%RAWIMUSA,2283,43615.610;2283,43615.609998282,00000077,476,-266,-64241,-9,-9,-475*7df7f38e
%RAWIMUSA,2283,43615.620;2283,43615.619998282,00000077,479,-205,-64239,64,0,-959*58de6c82
%RAWIMUSA,2283,43615.630;2283,43615.629998282,00000077,462,-164,-64235,-82,9,-27*62cc26b4
%RAWIMUSA,2283,43615.640;2283,43615.639998282,00000077,474,-281,-64252,37,0,941*2afebd77
%RAWIMUSA,2283,43615.650;2283,43615.649998282,00000077,491,-136,-64227,-45,-8,503*e4256aa8
%RAWIMUSA,2283,43615.660;2283,43615.659998282,00000077,472,-273,-64243,9,0,-950*e69fdfa5
%RAWIMUSA,2283,43615.670;2283,43615.669998282,00000077,460,-191,-64237,55,8,-959*c7d1c348
%RAWIMUSA,2283,43615.680;2283,43615.679998282,00000077,473,-176,-64233,-101,9,914*03633e7b
%RAWIMUSA,2283,43615.690;2283,43615.689998282,00000077,487,-277,-64248,55,-8,951*33d15e95
%RAWIMUSA,2283,43615.700;2283,43615.699998282,00000077,476,-130,-64231,-46,-9,-420*ec39bf5c
%RAWIMUSA,2283,43615.710;2283,43615.709998282,00000077,464,-283,-64245,18,8,-969*14bca979
%RAWIMUSA,2283,43615.720;2283,43615.719998282,00000077,478,-174,-64236,27,0,-82*aad4a22a
%RAWIMUSA,2283,43615.730;2283,43615.729998282,00000077,482,-197,-64231,-82,0,960*b66f749d
%RAWIMUSA,2283,43615.740;2283,43615.739998282,00000077,474,-258,-64246,55,-8,567*e395302c
%RAWIMUSA,2283,43615.750;2283,43615.749998282,00000077,468,-129,-64231,-46,0,-960*f21264d9
%RAWIMUSA,2283,43615.760;2283,43615.759998282,00000077,474,-284,-64246,36,8,-960*00fc21c5
%RAWIMUSA,2283,43615.770;2283,43615.769998282,00000077,480,-164,-64234,-8,0,850*37e11d16
%RAWIMUSA,2283,43615.780;2283,43615.779998282,00000077,469,-217,-64238,-73,-8,951*84708b9e
%RAWIMUSA,2283,43615.790;2283,43615.789998282,00000077,470,-243,-64245,73,-9,-365*9c899d74
%RAWIMUSA,2283,43615.800;2283,43615.799998282,00000077,488,-150,-64223,-46,8,-960*b10ea56d
%RAWIMUSA,2283,43615.810;2283,43615.809998282,00000077,479,-271,-64243,18,9,-127*8395c9cc
%RAWIMUSA,2283,43615.820;2283,43615.819998282,00000077,454,-161,-64239,-18,-8,960*8e466ab8
%RAWIMUSA,2283,43615.830;2283,43615.829998282,00000077,463,-233,-64243,-45,-8,612*5562fcb7
%RAWIMUSA,2283,43615.840;2283,43615.839998282,00000077,509,-225,-64238,64,0,-959*b428b567
%RAWIMUSA,2283,43615.850;2283,43615.849998282,00000077,492,-158,-64233,-46,8,-950*3ffade1f
%RAWIMUSA,2283,43615.860;2283,43615.859998282,00000077,435,-273,-64244,18,0,804*718fa13a
%RAWIMUSA,2283,43615.870;2283,43615.869998282,00000077,462,-157,-64231,-45,0,960*f4329496
%RAWIMUSA,2283,43615.880;2283,43615.879998282,00000077,510,-244,-64242,0,-9,-319*7241af0a
%RAWIMUSA,2283,43615.890;2283,43615.889998282,00000077,492,-204,-64236,55,8,-959*f90ac418
%RAWIMUSA,2283,43615.900;2283,43615.899998282,00000077,440,-179,-64235,-73,9,-182*5c0921fb
%RAWIMUSA,2283,43615.910;2283,43615.909998282,00000077,457,-267,-64250,28,-8,951*0b47579a
%RAWIMUSA,2283,43615.920;2283,43615.919998282,00000077,510,-147,-64229,-36,-8,667*b665f278
%RAWIMUSA,2283,43615.930;2283,43615.929998282,00000077,501,-260,-64240,9,0,-960*b06fa66d
%RAWIMUSA,2283,43615.940;2283,43615.939998282,00000077,448,-195,-64233,36,8,-969*4901ae4f
%RAWIMUSA,2283,43615.950;2283,43615.949998282,00000077,444,-193,-64238,-82,9,749*d64ea2d8
%RAWIMUSA,2283,43615.960;2283,43615.959998282,00000077,497,-246,-64247,37,-8,951*f8661986
%RAWIMUSA,2283,43615.970;2283,43615.969998282,00000077,509,-150,-64231,-27,-9,-265*fe44626b
%RAWIMUSA,2283,43615.980;2283,43615.979998282,00000077,461,-274,-64244,27,8,-969*55fc5d25
%RAWIMUSA,2283,43615.990;2283,43615.989998282,00000077,447,-176,-64233,0,8,-237*121b0a1a
%RAWIMUSA,2283,43616.000;2283,43615.999998282,00000077,486,-199,-64237,-64,0,960*478200a5
%RAWIMUSA,2283,43616.010;2283,43616.009998282,00000077,501,-250,-64243,46,-8,713*3eadaa93
%RAWIMUSA,2283,43616.020;2283,43616.019998282,00000077,467,-150,-64231,-36,0,-950*592ee15e
%RAWIMUSA,2283,43616.030;2283,43616.029998282,00000077,444,-269,-64248,18,8,-960*f7de7c50
%RAWIMUSA,2283,43616.040;2283,43616.039998282,00000077,481,-172,-64235,0,0,695*cb29ea3e
%RAWIMUSA,2283,43616.050;2283,43616.049998282,00000077,508,-209,-64232,-73,-8,969*5dc00866
%RAWIMUSA,2283,43616.060;2283,43616.059998282,00000077,474,-251,-64243,73,-9,-219*028446f6
%RAWIMUSA,2283,43616.070;2283,43616.069998282,00000077,446,-149,-64228,-36,17,-969*e7f0a7ae
%RAWIMUSA,2283,43616.080;2283,43616.079998282,00000077,470,-267,-64246,9,8,-283*e68383e4
%RAWIMUSA,2283,43616.090;2283,43616.089998282,00000077,499,-171,-64235,-18,-8,951*feceb06e
%RAWIMUSA,2283,43616.100;2283,43616.099998282,00000077,479,-222,-64237,-36,-8,777*396545aa
%RAWIMUSA,2283,43616.110;2283,43616.109998282,00000077,450,-230,-64245,64,0,-950*d7c706df
%RAWIMUSA,2283,43616.120;2283,43616.119998282,00000077,472,-153,-64230,-46,8,-969*9ff3e2ee
%RAWIMUSA,2283,43616.130;2283,43616.129998282,00000077,493,-273,-64247,9,0,658*f6f23be3
%RAWIMUSA,2283,43616.140;2283,43616.139998282,00000077,480,-166,-64234,-27,0,960*7b8836ea
%RAWIMUSA,2283,43616.150;2283,43616.149998282,00000077,463,-225,-64239,-18,0,-173*22fc98be
%RAWIMUSA,2283,43616.160;2283,43616.159998282,00000077,468,-226,-64243,64,0,-959*689ea105
%RAWIMUSA,2283,43616.170;2283,43616.169998282,00000077,489,-153,-64228,-73,-9,-338*6e32b525
%RAWIMUSA,2283,43616.180;2283,43616.179998282,00000077,478,-282,-64247,9,0,951*4d7ae54d
%RAWIMUSA,2283,43616.190;2283,43616.189998282,00000077,465,-156,-64234,0,-8,823*8e9af50d
%RAWIMUSA,2283,43616.200;2283,43616.199998282,00000077,473,-225,-64245,-27,17,-978*23b576ee
%RAWIMUSA,2283,43616.210;2283,43616.209998282,00000077,488,-230,-64241,55,0,-950*6d028b53
%RAWIMUSA,2283,43616.220;2283,43616.219998282,00000077,479,-160,-64227,-82,-8,594*e755c6a3
%RAWIMUSA,2283,43616.230;2283,43616.229998282,00000077,454,-275,-64246,18,-17,960*cce5f08a
%RAWIMUSA,2283,43616.240;2283,43616.239998282,00000077,471,-152,-64235,9,18,-109*f0810982
%RAWIMUSA,2283,43616.250;2283,43616.249998282,00000077,493,-233,-64243,-9,8,-950*b3266227
%RAWIMUSA,2283,43616.260;2283,43616.259998282,00000077,478,-229,-64238,27,0,-393*1f453d1f
%RAWIMUSA,2283,43616.270;2283,43616.269998282,00000077,458,-162,-64226,-82,-17,960*6a1f03cb
%RAWIMUSA,2283,43616.280;2283,43616.279998282,00000077,471,-267,-64245,46,0,877*511778cd
%RAWIMUSA,2283,43616.290;2283,43616.289998282,00000077,496,-151,-64234,0,17,-969*d785e803
%RAWIMUSA,2283,43616.300;2283,43616.299998282,00000077,474,-251,-64243,-18,8,-950*0ed0f767
%RAWIMUSA,2283,43616.310;2283,43616.309998282,00000077,458,-215,-64239,18,-18,539*9c46a926
%RAWIMUSA,2283,43616.320;2283,43616.319998282,00000077,473,-160,-64234,-73,-17,960*3e25bbc4
%RAWIMUSA,2283,43616.330;2283,43616.329998282,00000077,491,-266,-64245,55,9,-63*663aef12
%RAWIMUSA,2283,43616.340;2283,43616.339998282,00000077,483,-161,-64235,-9,17,-950*2cab9dd0
%RAWIMUSA,2283,43616.350;2283,43616.349998282,00000077,460,-253,-64243,-36,0,-438*8dbcdb7a
%RAWIMUSA,2283,43616.360;2283,43616.359998282,00000077,468,-201,-64233,18,-17,932*9416b0f1
%RAWIMUSA,2283,43616.370;2283,43616.369998282,00000077,485,-173,-64236,-45,0,932*90f6e8d1
%RAWIMUSA,2283,43616.380;2283,43616.379998282,00000077,481,-275,-64246,55,17,-960*db6f83fc
%RAWIMUSA,2283,43616.390;2283,43616.389998282,00000077,465,-151,-64230,-27,8,-960*8c7d1f7a
%RAWIMUSA,2283,43616.400;2283,43616.399998282,00000077,471,-245,-64241,-36,-8,484*c358f9ba
%RAWIMUSA,2283,43616.410;2283,43616.409998282,00000077,483,-201,-64237,28,-17,951*fc031c42
%RAWIMUSA,2283,43616.420;2283,43616.419998282,00000077,472,-190,-64236,-45,0,0*3c641216
%RAWIMUSA,2283,43616.430;2283,43616.429998282,00000077,472,-262,-64248,64,17,-969*22a5b3c7
%RAWIMUSA,2283,43616.440;2283,43616.439998282,00000077,477,-143,-64230,-55,0,-493*e72e84b2
%RAWIMUSA,2283,43616.450;2283,43616.449998282,00000077,480,-253,-64241,-18,-17,960*cbaecfb8
%RAWIMUSA,2283,43616.460;2283,43616.459998282,00000077,468,-194,-64233,28,-8,960*432fd037
%RAWIMUSA,2283,43616.470;2283,43616.469998282,00000077,464,-203,-64234,-36,17,-932*fb4beca9
%RAWIMUSA,2283,43616.480;2283,43616.479998282,00000077,475,-239,-64248,55,8,-950*55d318bd
%RAWIMUSA,2283,43616.490;2283,43616.489998282,00000077,491,-153,-64229,-73,0,438*3924b021
%RAWIMUSA,2283,43616.500;2283,43616.499998282,00000077,477,-270,-64248,9,-17,951*3bef52b9
%RAWIMUSA,2283,43616.510;2283,43616.509998282,00000077,462,-169,-64231,18,-9,45*2546712f
%RAWIMUSA,2283,43616.520;2283,43616.519998282,00000077,470,-218,-64236,-27,17,-960*c8a4fc87
%RAWIMUSA,2283,43616.530;2283,43616.529998282,00000077,487,-245,-64242,36,0,-539*ffc90031
%RAWIMUSA,2283,43616.540;2283,43616.539998282,00000077,483,-157,-64233,-73,0,951*5e369333
%RAWIMUSA,2283,43616.550;2283,43616.549998282,00000077,468,-267,-64248,28,-8,951*95320012
%RAWIMUSA,2283,43616.560;2283,43616.559998282,00000077,467,-159,-64230,18,0,-886*21f0168a
%RAWIMUSA,2283,43616.570;2283,43616.569998282,00000077,479,-230,-64236,-36,8,-960*04b9be7d
%RAWIMUSA,2283,43616.580;2283,43616.579998282,00000077,481,-235,-64242,27,0,393*2180a341
%RAWIMUSA,2283,43616.590;2283,43616.589998282,00000077,475,-156,-64230,-64,0,960*6e4780f6
%RAWIMUSA,2283,43616.600;2283,43616.599998282,00000077,469,-260,-64246,46,0,100*24ab0466
%RAWIMUSA,2283,43616.610;2283,43616.609998282,00000077,473,-159,-64228,0,0,-960*f9f8b9a6
%RAWIMUSA,2283,43616.620;2283,43616.619998282,00000077,475,-247,-64240,-46,-9,-603*e0159d50
%RAWIMUSA,2283,43616.630;2283,43616.629998282,00000077,474,-221,-64240,18,0,960*5dff0212
%RAWIMUSA,2283,43616.640;2283,43616.639998282,00000077,476,-156,-64232,-45,9,960*7119cfd4
%RAWIMUSA,2283,43616.650;2283,43616.649998282,00000077,480,-274,-64248,55,0,-831*351bc49e
%RAWIMUSA,2283,43616.660;2283,43616.659998282,00000077,474,-160,-64225,-27,0,-969*26afa834
%RAWIMUSA,2283,43616.670;2283,43616.669998282,00000077,472,-247,-64243,-36,-18,338*8197e7f2
%RAWIMUSA,2283,43616.680;2283,43616.679998282,00000077,471,-206,-64242,28,0,951*41852e88
%RAWIMUSA,2283,43616.690;2283,43616.689998282,00000077,478,-168,-64234,-36,18,155*f2407d92
%RAWIMUSA,2283,43616.700;2283,43616.699998282,00000077,479,-282,-64244,46,0,-959*cc4d2c28
%RAWIMUSA,2283,43616.710;2283,43616.709998282,00000077,473,-146,-64229,-36,-18,-639*7459b9f3
%RAWIMUSA,2283,43616.720;2283,43616.719998282,00000077,467,-237,-64243,-36,0,951*c1c963be
%RAWIMUSA,2283,43616.730;2283,43616.729998282,00000077,473,-215,-64241,46,9,951*0a5b20b4
%RAWIMUSA,2283,43616.740;2283,43616.739998282,00000077,485,-176,-64232,-46,17,-777*d1d6c213
%RAWIMUSA,2283,43616.750;2283,43616.749998282,00000077,473,-274,-64246,36,-10,-950*c10ea54e
%RAWIMUSA,2283,43616.760;2283,43616.759998282,00000077,468,-135,-64228,-45,-8,283*0b6d72b7
%RAWIMUSA,2283,43616.770;2283,43616.769998282,00000077,475,-243,-64241,-18,-8,960*637b614c
%RAWIMUSA,2283,43616.780;2283,43616.779998282,00000077,478,-229,-64244,55,18,192*906a3c81
%RAWIMUSA,2283,43616.790;2283,43616.789998282,00000077,476,-166,-64234,-55,8,-960*cf5a2c5b
%RAWIMUSA,2283,43616.800;2283,43616.799998282,00000077,467,-265,-64243,18,-19,-694*024dbcd4
%RAWIMUSA,2283,43616.810;2283,43616.809998282,00000077,476,-151,-64228,-27,-8,951*b92c18f9
%RAWIMUSA,2283,43616.820;2283,43616.819998282,00000077,481,-242,-64242,-18,9,951*5b8c04f4
%RAWIMUSA,2283,43616.830;2283,43616.829998282,00000077,480,-222,-64245,64,17,-722*b20f6c31
%RAWIMUSA,2283,43616.840;2283,43616.839998282,00000077,473,-158,-64232,-73,0,-960*d1fb7ce8
%RAWIMUSA,2283,43616.850;2283,43616.849998282,00000077,470,-275,-64241,18,-27,228*df068d49
%RAWIMUSA,2283,43616.860;2283,43616.859998282,00000077,481,-150,-64230,-18,0,951*30a4757a
%RAWIMUSA,2283,43616.870;2283,43616.869998282,00000077,477,-235,-64251,-8,27,256*d0a72306
%RAWIMUSA,2283,43616.880;2283,43616.879998282,00000077,467,-218,-64242,55,0,-959*75f56a78
%RAWIMUSA,2283,43616.890;2283,43616.889998282,00000077,477,-163,-64227,-82,-18,-749*7e5786e3
%RAWIMUSA,2283,43616.900;2283,43616.899998282,00000077,483,-278,-64241,18,-17,951*3b52ee2d
%RAWIMUSA,2283,43616.910;2283,43616.909998282,00000077,466,-155,-64235,0,19,951*402972ac
%RAWIMUSA,2283,43616.920;2283,43616.919998282,00000077,466,-231,-64244,-9,8,-676*2bed7f23
%RAWIMUSA,2283,43616.930;2283,43616.929998282,00000077,484,-227,-64236,36,0,-969*015bd8e6
%RAWIMUSA,2283,43616.940;2283,43616.939998282,00000077,485,-166,-64224,-82,-18,173*70117707
%RAWIMUSA,2283,43616.950;2283,43616.949998282,00000077,466,-272,-64249,37,9,951*2afe98b9
%RAWIMUSA,2283,43616.960;2283,43616.959998282,00000077,469,-159,-64234,9,9,310*c9931489
%RAWIMUSA,2283,43616.970;2283,43616.969998282,00000077,484,-237,-64240,-27,8,-969*241935f9
%RAWIMUSA,2283,43616.980;2283,43616.979998282,00000077,485,-219,-64238,27,-19,-804*1e426a25
%RAWIMUSA,2283,43616.990;2283,43616.989998282,00000077,469,-159,-64232,-82,-8,960*5fa10868
%RAWIMUSA,2283,43617.000;2283,43616.999998282,00000077,461,-273,-64246,46,9,960*497b925e
%RAWIMUSA,2283,43617.010;2283,43617.009998282,00000077,481,-159,-64234,9,8,-630*ba920f6d
%RAWIMUSA,2283,43617.020;2283,43617.019998282,00000077,484,-229,-64241,-46,0,-960*efa4dd8d
%RAWIMUSA,2283,43617.030;2283,43617.029998282,00000077,471,-226,-64240,27,0,118*4415006d
%RAWIMUSA,2283,43617.040;2283,43617.039998282,00000077,466,-159,-64234,-54,-8,951*6dace601
%RAWIMUSA,2283,43617.050;2283,43617.049998282,00000077,478,-273,-64243,46,9,356*dfccd354
%RAWIMUSA,2283,43617.060;2283,43617.059998282,00000077,486,-161,-64232,0,8,-960*b4bfd96c
%RAWIMUSA,2283,43617.070;2283,43617.069998282,00000077,470,-230,-64240,-46,-9,-850*3207f324
%RAWIMUSA,2283,43617.080;2283,43617.079998282,00000077,457,-219,-64240,18,-8,941*adde464b
%RAWIMUSA,2283,43617.090;2283,43617.089998282,00000077,480,-159,-64228,-36,9,960*848aaf34
%RAWIMUSA,2283,43617.100;2283,43617.099998282,00000077,486,-274,-64243,46,0,-585*daaf5524
%RAWIMUSA,2283,43617.110;2283,43617.109998282,00000077,469,-157,-64234,-18,0,-960*de09613b
%RAWIMUSA,2283,43617.120;2283,43617.119998282,00000077,464,-231,-64243,-55,-9,73*25983e30
%RAWIMUSA,2283,43617.130;2283,43617.129998282,00000077,481,-222,-64241,46,0,951*d0b04057
%RAWIMUSA,2283,43617.140;2283,43617.139998282,00000077,484,-164,-64233,-36,9,411*026c638c
%RAWIMUSA,2283,43617.150;2283,43617.149998282,00000077,470,-273,-64246,27,0,-960*59e94a71
%RAWIMUSA,2283,43617.160;2283,43617.159998282,00000077,466,-154,-64231,-27,-9,-914*08882017
%RAWIMUSA,2283,43617.170;2283,43617.169998282,00000077,476,-237,-64242,-36,-8,969*75f9082b
%RAWIMUSA,2283,43617.180;2283,43617.179998282,00000077,479,-225,-64241,55,9,960*37fca2aa
%RAWIMUSA,2283,43617.190;2283,43617.189998282,00000077,476,-160,-64232,-46,8,-530*23aca7f7
%RAWIMUSA,2283,43617.200;2283,43617.199998282,00000077,474,-267,-64242,18,0,-960*01d44e97
%RAWIMUSA,2283,43617.210;2283,43617.209998282,00000077,478,-155,-64230,-27,-9,27*ca492f64
%RAWIMUSA,2283,43617.220;2283,43617.219998282,00000077,465,-241,-64247,-27,0,941*3c83d542
%RAWIMUSA,2283,43617.230;2283,43617.229998282,00000077,468,-223,-64242,64,9,466*8c7f6925
%RAWIMUSA,2283,43617.240;2283,43617.239998282,00000077,497,-165,-64227,-55,8,-969*aeaae907
%RAWIMUSA,2283,43617.250;2283,43617.249998282,00000077,483,-265,-64244,9,-19,-950*6f0afead
%RAWIMUSA,2283,43617.260;2283,43617.259998282,00000077,448,-158,-64231,-18,0,969*11329f85
%RAWIMUSA,2283,43617.270;2283,43617.269998282,00000077,465,-242,-64242,-18,9,960*23141233
%RAWIMUSA,2283,43617.280;2283,43617.279998282,00000077,499,-210,-64240,64,8,-475*ecfc0f3d
%RAWIMUSA,2283,43617.290;2283,43617.289998282,00000077,488,-166,-64227,-73,-9,-960*f94a4ce6
%RAWIMUSA,2283,43617.300;2283,43617.299998282,00000077,447,-279,-64243,9,-9,-27*902ecf3a
%RAWIMUSA,2283,43617.310;2283,43617.309998282,00000077,465,-152,-64231,-8,0,951*8a14739d
%RAWIMUSA,2283,43617.320;2283,43617.319998282,00000077,494,-237,-64240,0,9,512*57d53c68
%RAWIMUSA,2283,43617.330;2283,43617.329998282,00000077,486,-215,-64241,36,8,-960*701d6b31
%RAWIMUSA,2283,43617.340;2283,43617.339998282,00000077,456,-175,-64235,-83,-9,-960*8c6e4574
%RAWIMUSA,2283,43617.350;2283,43617.349998282,00000077,464,-264,-64242,28,0,896*ac8296ea
%RAWIMUSA,2283,43617.360;2283,43617.359998282,00000077,495,-144,-64232,0,0,951*7e7e9723
%RAWIMUSA,2283,43617.370;2283,43617.369998282,00000077,486,-241,-64246,0,8,-420*68b58547
%RAWIMUSA,2283,43617.380;2283,43617.379998282,00000077,456,-219,-64241,18,-10,-959*65987118
%RAWIMUSA,2283,43617.390;2283,43617.389998282,00000077,466,-176,-64234,-82,0,-91*922df4e5
%RAWIMUSA,2283,43617.400;2283,43617.399998282,00000077,496,-256,-64242,46,0,951*7bd9116b
%RAWIMUSA,2283,43617.410;2283,43617.409998281,00000077,482,-153,-64232,0,9,567*e576d082
%RAWIMUSA,2283,43617.420;2283,43617.419998281,00000077,450,-250,-64243,-18,0,-960*5cb85a11
%RAWIMUSA,2283,43617.430;2283,43617.429998281,00000077,470,-204,-64239,9,-10,-960*cfd4442a
%RAWIMUSA,2283,43617.440;2283,43617.439998281,00000077,500,-177,-64233,-64,-8,850*103233bc
%RAWIMUSA,2283,43617.450;2283,43617.449998281,00000077,480,-268,-64246,55,9,960*2265f5f9
%RAWIMUSA,2283,43617.460;2283,43617.459998281,00000077,454,-152,-64228,-9,8,-374*f9f4698e
%RAWIMUSA,2283,43617.470;2283,43617.469998281,00000077,466,-251,-64242,-36,-9,-960*c00fca84
%RAWIMUSA,2283,43617.480;2283,43617.479998281,00000077,495,-196,-64235,18,-9,-127*0ade65ad
%RAWIMUSA,2283,43617.490;2283,43617.489998281,00000077,483,-186,-64234,-54,0,941*0954dfce
%RAWIMUSA,2283,43617.500;2283,43617.499998281,00000077,452,-271,-64245,64,9,621*b3ae3e9a
%RAWIMUSA,2283,43617.510;2283,43617.509998281,00000077,465,-144,-64231,-36,0,-960*24ea91bc
%RAWIMUSA,2283,43617.520;2283,43617.519998281,00000077,496,-248,-64239,-27,0,-960*4959915d
%RAWIMUSA,2283,43617.530;2283,43617.529998281,00000077,491,-207,-64237,27,-8,795*a529bae2
%RAWIMUSA,2283,43617.540;2283,43617.539998281,00000077,450,-185,-64237,-45,9,941*0f6b294d
%RAWIMUSA,2283,43617.550;2283,43617.549998281,00000077,457,-266,-64244,55,8,-310*a7df3695
%RAWIMUSA,2283,43617.560;2283,43617.559998281,00000077,496,-145,-64229,-46,-9,-960*af619043
%RAWIMUSA,2283,43617.570;2283,43617.569998281,00000077,490,-252,-64242,-36,-9,-173*05925a9d
%RAWIMUSA,2283,43617.580;2283,43617.579998281,00000077,454,-206,-64235,46,9,960*1ffce4c7
%RAWIMUSA,2283,43617.590;2283,43617.589998281,00000077,462,-180,-64238,-36,9,667*3bfcb270
%RAWIMUSA,2283,43617.600;2283,43617.599998281,00000077,493,-258,-64243,36,0,-969*715b4c35
%RAWIMUSA,2283,43617.610;2283,43617.609998281,00000077,487,-151,-64228,-46,-9,-960*beaf4cbd
%RAWIMUSA,2283,43617.620;2283,43617.619998281,00000077,456,-258,-64242,-18,0,740*fb9190c5
%RAWIMUSA,2283,43617.630;2283,43617.629998281,00000077,457,-191,-64236,46,9,951*58c6007f
%RAWIMUSA,2283,43617.640;2283,43617.639998281,00000077,492,-183,-64236,-36,0,-255*9f9069c1
%RAWIMUSA,2283,43617.650;2283,43617.649998281,00000077,492,-263,-64246,27,-10,-969*2ebfef12
%RAWIMUSA,2283,43617.660;2283,43617.659998281,00000077,460,-154,-64228,-64,-9,-237*ad33c66a
%RAWIMUSA,2283,43617.670;2283,43617.669998281,00000077,461,-257,-64245,18,19,951*ae22acec
%RAWIMUSA,2283,43617.680;2283,43617.679998281,00000077,487,-186,-64232,37,0,713*80c0f329
%RAWIMUSA,2283,43617.690;2283,43617.689998281,00000077,486,-188,-64237,-64,0,-960*222800c5
%RAWIMUSA,2283,43617.700;2283,43617.699998281,00000077,462,-264,-64245,36,-10,-959*8cb3b3fe
%RAWIMUSA,2283,43617.710;2283,43617.709998281,00000077,467,-143,-64230,-45,0,695*a79b6907
%RAWIMUSA,2283,43617.720;2283,43617.719998281,00000077,485,-263,-64250,9,9,960*cbeff8ee
%RAWIMUSA,2283,43617.730;2283,43617.729998281,00000077,484,-196,-64231,36,0,-210*b8dbacc2
%RAWIMUSA,2283,43617.740;2283,43617.739998281,00000077,462,-194,-64239,-73,-9,-960*1d666d20
