%RAWIMUSA,2283,42919.530;2283,42919.529998647,00000077,-494,115,64180,-36,8,-941*24c05a94
%RAWIMUSA,2283,42919.540;2283,42919.539998647,00000077,-500,167,64166,-27,-9,-639*02627a68
%RAWIMUSA,2283,42919.550;2283,42919.549998647,00000077,-498,121,64174,18,-8,969*c6d20427
%RAWIMUSA,2283,42919.560;2283,42919.559998647,00000077,-492,152,64171,-18,9,969*7cd7eb4a
%RAWIMUSA,2283,42919.570;2283,42919.569998647,00000077,-489,149,64168,36,8,-777*2e22ab68
%RAWIMUSA,2283,42919.580;2283,42919.579998647,00000077,-499,131,64176,-73,-9,-950*f12e3127
%RAWIMUSA,2283,42919.590;2283,42919.589998647,00000077,-501,166,64162,37,-9,292*8072c5fa
%RAWIMUSA,2283,42919.600;2283,42919.599998647,00000077,-492,108,64180,-36,9,960*1e8401e0
%RAWIMUSA,2283,42919.610;2283,42919.609998647,00000077,-495,180,64165,46,9,219*b7b2084d
%RAWIMUSA,2283,42919.620;2283,42919.619998647,00000077,-499,114,64181,-36,-9,-960*2ff89ca8
%RAWIMUSA,2283,42919.630;2283,42919.629998647,00000077,-500,165,64168,-27,0,-685*86f0e869
%RAWIMUSA,2283,42919.640;2283,42919.639998647,00000077,-491,130,64174,28,0,960*4b9979f0
%RAWIMUSA,2283,42919.650;2283,42919.649998647,00000077,-493,144,64171,-27,9,960*34cb5f69
%RAWIMUSA,2283,42919.660;2283,42919.659998647,00000077,-499,161,64167,36,0,-722*9e94cf7b
%RAWIMUSA,2283,42919.670;2283,42919.669998647,00000077,-498,116,64177,-73,-9,-960*b4e743c9
%RAWIMUSA,2283,42919.680;2283,42919.679998647,00000077,-496,174,64160,27,-9,237*f4730374
%RAWIMUSA,2283,42919.690;2283,42919.689998647,00000077,-493,107,64183,-18,9,960*79d5752d
%RAWIMUSA,2283,42919.700;2283,42919.699998647,00000077,-497,176,64162,18,9,265*94cb5d42
%RAWIMUSA,2283,42919.710;2283,42919.709998647,00000077,-496,124,64174,-9,0,-960*1cd2081d
%RAWIMUSA,2283,42919.720;2283,42919.719998647,00000077,-494,148,64171,-55,-9,-740*4cc7458e
%RAWIMUSA,2283,42919.730;2283,42919.729998647,00000077,-497,149,64169,46,0,960*911c0d14
%RAWIMUSA,2283,42919.740;2283,42919.739998647,00000077,-498,123,64177,-36,9,960*02916c5f
%RAWIMUSA,2283,42919.750;2283,42919.749998647,00000077,-494,179,64164,36,8,-667*da600cad
%RAWIMUSA,2283,42919.760;2283,42919.759998647,00000077,-491,102,64178,-55,-9,-950*a6e1184a
%RAWIMUSA,2283,42919.770;2283,42919.769998647,00000077,-495,175,64165,0,-9,173*da175fed
%RAWIMUSA,2283,42919.780;2283,42919.779998647,00000077,-498,128,64173,28,9,960*9d8f7068
%RAWIMUSA,2283,42919.790;2283,42919.789998647,00000077,-497,141,64171,-36,9,320*9b7df2b2
%RAWIMUSA,2283,42919.800;2283,42919.799998647,00000077,-496,158,64165,36,-10,-950*77223b62
%RAWIMUSA,2283,42919.810;2283,42919.809998647,00000077,-491,116,64179,-82,-9,-804*6344c197
%RAWIMUSA,2283,42919.820;2283,42919.819998647,00000077,-502,182,64164,55,9,960*75f22ddb
%RAWIMUSA,2283,42919.830;2283,42919.829998647,00000077,-498,101,64180,-18,9,951*63029c16
%RAWIMUSA,2283,42919.840;2283,42919.839998647,00000077,-485,168,64161,0,0,-621*75cbf850
%RAWIMUSA,2283,42919.850;2283,42919.849998647,00000077,-496,134,64178,-9,-9,-950*04a5c2c1
%RAWIMUSA,2283,42919.860;2283,42919.859998647,00000077,-506,149,64170,-45,0,109*e82e16bd
%RAWIMUSA,2283,42919.870;2283,42919.869998647,00000077,-496,147,64170,64,0,969*733b91fa
%RAWIMUSA,2283,42919.880;2283,42919.879998647,00000077,-484,117,64179,-45,9,365*ae9b50b7
%RAWIMUSA,2283,42919.890;2283,42919.889998647,00000077,-494,184,64162,18,-10,-950*88faeb33
%RAWIMUSA,2283,42919.900;2283,42919.899998647,00000077,-508,107,64179,-55,0,-868*21c6f3bc
%RAWIMUSA,2283,42919.910;2283,42919.909998647,00000077,-494,167,64166,18,0,960*fcef5482
%RAWIMUSA,2283,42919.920;2283,42919.919998647,00000077,-487,124,64175,28,9,960*f1d2ac62
%RAWIMUSA,2283,42919.930;2283,42919.929998647,00000077,-499,158,64170,-46,0,-557*3aba088a
%RAWIMUSA,2283,42919.940;2283,42919.939998647,00000077,-506,142,64167,18,-10,-941*d894693b
%RAWIMUSA,2283,42919.950;2283,42919.949998647,00000077,-497,124,64175,-55,-9,73*221c3e32
%RAWIMUSA,2283,42919.960;2283,42919.959998647,00000077,-487,176,64161,64,9,960*69bb7fe3
%RAWIMUSA,2283,42919.970;2283,42919.969998647,00000077,-490,115,64178,-36,9,420*b6739adb
%RAWIMUSA,2283,42919.980;2283,42919.979998647,00000077,-503,174,64161,0,-9,-960*0ca2698f
%RAWIMUSA,2283,42919.990;2283,42919.989998647,00000077,-499,109,64177,-27,-9,-905*8b64ec36
%RAWIMUSA,2283,42920.000;2283,42919.999998647,00000077,-486,168,64166,0,9,951*7bf55a85
%RAWIMUSA,2283,42920.010;2283,42920.009998647,00000077,-495,137,64171,46,9,960*a0fd9129
%RAWIMUSA,2283,42920.020;2283,42920.019998647,00000077,-505,131,64173,-64,0,-521*03d63bbc
%RAWIMUSA,2283,42920.030;2283,42920.029998647,00000077,-496,160,64166,27,-10,-950*14dea85a
%RAWIMUSA,2283,42920.040;2283,42920.039998647,00000077,-486,119,64182,-45,0,18*ad7d7a3c
%RAWIMUSA,2283,42920.050;2283,42920.049998647,00000077,-494,179,64164,46,9,969*a883d671
%RAWIMUSA,2283,42920.060;2283,42920.059998647,00000077,-505,103,64178,-27,0,466*7c8931fb
%RAWIMUSA,2283,42920.070;2283,42920.069998647,00000077,-497,165,64165,-9,-9,-960*6fae5acb
%RAWIMUSA,2283,42920.080;2283,42920.079998647,00000077,-488,128,64177,-18,-9,-950*30643226
%RAWIMUSA,2283,42920.090;2283,42920.089998647,00000077,-491,155,64170,-8,9,951*8f77b399
%RAWIMUSA,2283,42920.100;2283,42920.099998647,00000077,-506,137,64171,46,9,951*3e2e9c80
%RAWIMUSA,2283,42920.110;2283,42920.109998647,00000077,-498,132,64178,-64,0,-466*5013be88
%RAWIMUSA,2283,42920.120;2283,42920.119998647,00000077,-485,171,64165,27,-19,-950*b52f99cc
%RAWIMUSA,2283,42920.130;2283,42920.129998647,00000077,-492,113,64180,-45,9,-27*fd943044
%RAWIMUSA,2283,42920.140;2283,42920.139998647,00000077,-505,173,64161,46,0,969*2e9dacff
%RAWIMUSA,2283,42920.150;2283,42920.149998647,00000077,-499,108,64179,-18,9,521*01917b39
%RAWIMUSA,2283,42920.160;2283,42920.159998647,00000077,-489,175,64166,-27,-9,-950*aeef3b99
%RAWIMUSA,2283,42920.170;2283,42920.169998647,00000077,-495,131,64174,0,-9,-950*23454826
%RAWIMUSA,2283,42920.180;2283,42920.179998647,00000077,-505,137,64176,-27,9,896*369def07
%RAWIMUSA,2283,42920.190;2283,42920.189998647,00000077,-497,156,64168,64,9,960*f30d775c
%RAWIMUSA,2283,42920.200;2283,42920.199998647,00000077,-489,121,64179,-64,-9,-402*77f9e3cc
%RAWIMUSA,2283,42920.210;2283,42920.209998647,00000077,-493,177,64162,18,-10,-941*32a7337d
%RAWIMUSA,2283,42920.220;2283,42920.219998647,00000077,-504,106,64179,-36,9,-82*abd03b21
%RAWIMUSA,2283,42920.230;2283,42920.229998647,00000077,-499,174,64164,28,0,960*0dcf9028
%RAWIMUSA,2283,42920.240;2283,42920.239998647,00000077,-489,125,64175,0,9,567*e3b7ca9f
%RAWIMUSA,2283,42920.250;2283,42920.249998647,00000077,-492,152,64169,-46,-9,-950*ce41b567
%RAWIMUSA,2283,42920.260;2283,42920.259998647,00000077,-501,140,64169,27,-10,-950*6a24aa06
%RAWIMUSA,2283,42920.270;2283,42920.269998647,00000077,-497,129,64178,-45,9,859*4ffd4a66
%RAWIMUSA,2283,42920.280;2283,42920.279998647,00000077,-490,170,64163,64,9,951*e5f23bee
%RAWIMUSA,2283,42920.290;2283,42920.289998647,00000077,-493,111,64180,-64,-9,-356*9a23a325
%RAWIMUSA,2283,42920.300;2283,42920.299998647,00000077,-503,177,64164,9,0,-950*a2588f31
%RAWIMUSA,2283,42920.310;2283,42920.309998647,00000077,-501,113,64178,-18,0,-137*c6cc8515
%RAWIMUSA,2283,42920.320;2283,42920.319998647,00000077,-489,162,64167,9,9,960*d326e877
%RAWIMUSA,2283,42920.330;2283,42920.329998647,00000077,-493,131,64172,27,0,621*c8f7f184
%RAWIMUSA,2283,42920.340;2283,42920.339998647,00000077,-501,144,64172,-73,0,-950*689cc078
%RAWIMUSA,2283,42920.350;2283,42920.349998647,00000077,-497,161,64166,36,-10,-932*25b0d0ec
%RAWIMUSA,2283,42920.360;2283,42920.359998647,00000077,-489,111,64180,-36,9,795*f7ec393f
%RAWIMUSA,2283,42920.370;2283,42920.369998647,00000077,-493,179,64161,46,9,960*f782fe70
%RAWIMUSA,2283,42920.380;2283,42920.379998647,00000077,-501,114,64177,-36,-9,-292*aa5f4be2
%RAWIMUSA,2283,42920.390;2283,42920.389998647,00000077,-497,169,64165,-18,-9,-960*065a62bd
%RAWIMUSA,2283,42920.400;2283,42920.399998647,00000077,-491,122,64177,9,8,-173*c2ca19f3
%RAWIMUSA,2283,42920.410;2283,42920.409998647,00000077,-495,153,64173,-18,9,951*7247780d
%RAWIMUSA,2283,42920.420;2283,42920.419998647,00000077,-498,152,64168,37,-8,685*132d2bb1
%RAWIMUSA,2283,42920.430;2283,42920.429998647,00000077,-497,124,64178,-73,-9,-960*1f279d3c
%RAWIMUSA,2283,42920.440;2283,42920.439998647,00000077,-491,167,64163,27,0,-960*3eaa382b
%RAWIMUSA,2283,42920.450;2283,42920.449998647,00000077,-498,111,64178,-18,9,740*c97f4aed
%RAWIMUSA,2283,42920.460;2283,42920.459998647,00000077,-498,180,64161,28,9,960*2c9f2398
%RAWIMUSA,2283,42920.470;2283,42920.469998647,00000077,-496,112,64180,-18,-9,-246*341c606b
%RAWIMUSA,2283,42920.480;2283,42920.479998647,00000077,-490,158,64168,-46,-9,-950*ba4f0b6c
%RAWIMUSA,2283,42920.490;2283,42920.489998647,00000077,-500,140,64171,46,0,-228*25429d14
%RAWIMUSA,2283,42920.500;2283,42920.499998647,00000077,-499,136,64177,-45,9,951*dcbf5441
%RAWIMUSA,2283,42920.510;2283,42920.509998647,00000077,-494,162,64166,46,0,740*6fca74d4
%RAWIMUSA,2283,42920.520;2283,42920.519998647,00000077,-492,112,64180,-64,-9,-960*4f381a5a
%RAWIMUSA,2283,42920.530;2283,42920.529998647,00000077,-496,180,64162,18,0,-941*ed5931b6
%RAWIMUSA,2283,42920.540;2283,42920.539998647,00000077,-500,115,64179,-8,9,695*139c4926
%RAWIMUSA,2283,42920.550;2283,42920.549998647,00000077,-493,164,64166,9,0,951*6ebcc0cf
%RAWIMUSA,2283,42920.560;2283,42920.559998647,00000077,-494,128,64172,0,-9,-201*cb29a442
%RAWIMUSA,2283,42920.570;2283,42920.569998647,00000077,-496,145,64172,-64,0,-941*84172849
%RAWIMUSA,2283,42920.580;2283,42920.579998647,00000077,-498,161,64168,55,0,-283*6e50414d
%RAWIMUSA,2283,42920.590;2283,42920.589998647,00000077,-494,113,64181,-45,9,951*24e33b7e
%RAWIMUSA,2283,42920.600;2283,42920.599998647,00000077,-493,177,64163,37,0,777*7da6a24d
%RAWIMUSA,2283,42920.610;2283,42920.609998647,00000077,-497,110,64182,-46,-9,-950*ebe394eb
%RAWIMUSA,2283,42920.620;2283,42920.619998647,00000077,-497,174,64162,-9,0,-950*295ad30c
%RAWIMUSA,2283,42920.630;2283,42920.629998647,00000077,-499,126,64177,27,0,640*108438b9
%RAWIMUSA,2283,42920.640;2283,42920.639998647,00000077,-491,145,64174,-18,9,951*58708a8b
%RAWIMUSA,2283,42920.650;2283,42920.649998647,00000077,-486,151,64164,18,-9,-146*648153ce
%RAWIMUSA,2283,42920.660;2283,42920.659998647,00000077,-496,126,64178,-73,-9,-950*c893d206
%RAWIMUSA,2283,42920.670;2283,42920.669998646,00000077,-503,173,64162,55,8,-338*b30ac0f5
%RAWIMUSA,2283,42920.680;2283,42920.679998646,00000077,-495,104,64178,-27,9,951*354ca3bb
%RAWIMUSA,2283,42920.690;2283,42920.689998646,00000077,-491,177,64163,9,0,832*3b8f671b
%RAWIMUSA,2283,42920.700;2283,42920.699998646,00000077,-496,123,64176,-18,-9,-950*47de1ab8
%RAWIMUSA,2283,42920.710;2283,42920.709998646,00000077,-503,157,64168,-36,0,-950*690a3245
%RAWIMUSA,2283,42920.720;2283,42920.719998646,00000077,-493,142,64169,55,9,594*a8d151fe
%RAWIMUSA,2283,42920.730;2283,42920.729998646,00000077,-490,132,64176,-45,0,951*527a9e5c
%RAWIMUSA,2283,42920.740;2283,42920.739998646,00000077,-495,169,64164,37,0,-91*2f74cf88
%RAWIMUSA,2283,42920.750;2283,42920.749998646,00000077,-504,108,64181,-73,-9,-960*0f70c212
%RAWIMUSA,2283,42920.760;2283,42920.759998646,00000077,-497,179,64161,36,8,-393*82c83a16
%RAWIMUSA,2283,42920.770;2283,42920.769998646,00000077,-488,109,64180,0,9,951*3c91c167
%RAWIMUSA,2283,42920.780;2283,42920.779998646,00000077,-495,164,64167,-18,0,887*1661facb
%RAWIMUSA,2283,42920.790;2283,42920.789998646,00000077,-502,134,64171,9,-10,-960*76298722
%RAWIMUSA,2283,42920.800;2283,42920.799998646,00000077,-498,137,64175,-55,0,-941*df7da1f9
%RAWIMUSA,2283,42920.810;2283,42920.809998646,00000077,-486,160,64164,64,9,539*8e3a0a70
%RAWIMUSA,2283,42920.820;2283,42920.819998646,00000077,-493,115,64180,-45,0,951*f91b220a
%RAWIMUSA,2283,42920.830;2283,42920.829998646,00000077,-504,180,64162,27,-9,-36*226810ec
%RAWIMUSA,2283,42920.840;2283,42920.839998646,00000077,-498,109,64178,-46,-9,-941*9db69b63
%RAWIMUSA,2283,42920.850;2283,42920.849998646,00000077,-490,167,64167,9,8,-447*4f3478ff
%RAWIMUSA,2283,42920.860;2283,42920.859998646,00000077,-494,128,64177,18,9,960*9f18504b
%RAWIMUSA,2283,42920.870;2283,42920.869998646,00000077,-499,152,64169,-27,-8,941*f5f52963
%RAWIMUSA,2283,42920.880;2283,42920.879998646,00000077,-498,137,64171,9,-9,-941*1c9e67a1
%RAWIMUSA,2283,42920.890;2283,42920.889998646,00000077,-493,138,64176,-55,8,-950*367f3cd7
%RAWIMUSA,2283,42920.900;2283,42920.899998646,00000077,-489,167,64165,64,9,484*bc49eb45
%RAWIMUSA,2283,42920.910;2283,42920.909998646,00000077,-500,106,64179,-45,0,960*db342c13
%RAWIMUSA,2283,42920.920;2283,42920.919998646,00000077,-504,178,64162,9,-9,9*affb6ec5
%RAWIMUSA,2283,42920.930;2283,42920.929998646,00000077,-491,115,64181,-46,-9,-950*ba37274e
%RAWIMUSA,2283,42920.940;2283,42920.939998646,00000077,-487,169,64165,18,8,-493*f727d99a
%RAWIMUSA,2283,42920.950;2283,42920.949998646,00000077,-503,123,64175,28,9,960*74c616c1
%RAWIMUSA,2283,42920.960;2283,42920.959998646,00000077,-501,146,64175,-54,-8,960*3dc711df
%RAWIMUSA,2283,42920.970;2283,42920.969998646,00000077,-488,156,64165,27,-9,-914*977aafe0
%RAWIMUSA,2283,42920.980;2283,42920.979998646,00000077,-488,120,64179,-64,8,-950*38929986
%RAWIMUSA,2283,42920.990;2283,42920.989998646,00000077,-503,169,64161,64,9,439*d5b94c4a
%RAWIMUSA,2283,42921.000;2283,42920.999998646,00000077,-503,111,64179,-27,0,960*35ade98e
%RAWIMUSA,2283,42921.010;2283,42921.009998646,00000077,-490,181,64163,-9,-9,64*b56a3614
%RAWIMUSA,2283,42921.020;2283,42921.019998646,00000077,-489,120,64175,-18,-9,-941*218e3445
%RAWIMUSA,2283,42921.030;2283,42921.029998646,00000077,-500,151,64171,-9,8,-548*dea16d37
%RAWIMUSA,2283,42921.040;2283,42921.039998646,00000077,-502,141,64170,55,9,960*62543a8c
%RAWIMUSA,2283,42921.050;2283,42921.049998646,00000077,-492,134,64173,-64,-8,960*2882e28d
%RAWIMUSA,2283,42921.060;2283,42921.059998646,00000077,-487,168,64162,18,-9,-868*429917fc
%RAWIMUSA,2283,42921.070;2283,42921.069998646,00000077,-500,109,64180,-46,8,-950*3ebee2b8
%RAWIMUSA,2283,42921.080;2283,42921.079998646,00000077,-506,179,64161,46,9,393*4078eca2
%RAWIMUSA,2283,42921.090;2283,42921.089998646,00000077,-490,115,64180,-8,-8,960*c303afdc
%RAWIMUSA,2283,42921.100;2283,42921.099998646,00000077,-484,164,64169,-36,-9,118*b4b76e6a
%RAWIMUSA,2283,42921.110;2283,42921.109998646,00000077,-499,127,64171,9,0,-950*3d36654b
%RAWIMUSA,2283,42921.120;2283,42921.119998646,00000077,-505,142,64174,-36,8,-603*3979c618
%RAWIMUSA,2283,42921.130;2283,42921.129998646,00000077,-495,164,64167,74,0,960*4b0a28e9
%RAWIMUSA,2283,42921.140;2283,42921.139998646,00000077,-486,115,64180,-73,0,951*4e858518
%RAWIMUSA,2283,42921.150;2283,42921.149998646,00000077,-498,176,64160,18,-9,-804*a356d956
%RAWIMUSA,2283,42921.160;2283,42921.159998646,00000077,-507,110,64179,-27,8,-950*b178fbf0
%RAWIMUSA,2283,42921.170;2283,42921.169998646,00000077,-493,174,64167,18,0,320*40535c04
%RAWIMUSA,2283,42921.180;2283,42921.179998646,00000077,-484,125,64174,18,0,960*731d5539
%RAWIMUSA,2283,42921.190;2283,42921.189998646,00000077,-498,147,64172,-55,-9,164*5f258472
%RAWIMUSA,2283,42921.200;2283,42921.199998646,00000077,-504,152,64170,27,0,-950*00f49095
%RAWIMUSA,2283,42921.210;2283,42921.209998646,00000077,-498,125,64176,-46,8,-639*b3fa330a
%RAWIMUSA,2283,42921.220;2283,42921.219998646,00000077,-487,177,64162,64,0,941*30da622e
%RAWIMUSA,2283,42921.230;2283,42921.229998646,00000077,-495,105,64182,-54,-8,960*2e35254c
%RAWIMUSA,2283,42921.240;2283,42921.239998646,00000077,-502,178,64164,-9,-9,-758*e094d605
%RAWIMUSA,2283,42921.250;2283,42921.249998646,00000077,-498,121,64175,9,8,-950*9f54e97b
%RAWIMUSA,2283,42921.260;2283,42921.259998646,00000077,-490,151,64169,-18,9,283*8c9e8f56
%RAWIMUSA,2283,42921.270;2283,42921.269998646,00000077,-493,148,64170,46,-8,951*81e35b0f
%RAWIMUSA,2283,42921.280;2283,42921.279998646,00000077,-501,125,64179,-82,-9,210*67b6fead
%RAWIMUSA,2283,42921.290;2283,42921.289998646,00000077,-498,174,64164,27,8,-950*d2d98ae0
%RAWIMUSA,2283,42921.300;2283,42921.299998646,00000077,-491,108,64179,-27,8,-703*ac04cfdd
%RAWIMUSA,2283,42921.310;2283,42921.309998646,00000077,-495,176,64163,37,0,960*6f66d92c
%RAWIMUSA,2283,42921.320;2283,42921.319998646,00000077,-501,114,64176,-18,-8,960*be69cf24
%RAWIMUSA,2283,42921.330;2283,42921.329998646,00000077,-500,160,64169,-36,-9,-703*64aba64c
%RAWIMUSA,2283,42921.340;2283,42921.339998646,00000077,-491,137,64169,27,8,-960*5359dc36
%RAWIMUSA,2283,42921.350;2283,42921.349998646,00000077,-494,137,64174,-36,9,219*c101a455
%RAWIMUSA,2283,42921.360;2283,42921.359998646,00000077,-502,165,64165,46,-8,960*a7d69b13
%RAWIMUSA,2283,42921.370;2283,42921.369998646,00000077,-496,108,64181,-73,-8,265*bf4377d5
%RAWIMUSA,2283,42921.380;2283,42921.379998646,00000077,-486,178,64161,18,0,-950*33240734
%RAWIMUSA,2283,42921.390;2283,42921.389998646,00000077,-494,113,64180,0,8,-749*80347f55
%RAWIMUSA,2283,42921.400;2283,42921.399998646,00000077,-504,169,64167,0,0,951*a9e33a0c
%RAWIMUSA,2283,42921.410;2283,42921.409998646,00000077,-498,134,64175,9,-8,951*280af053
%RAWIMUSA,2283,42921.420;2283,42921.419998646,00000077,-485,143,64176,-64,0,-658*204de86b
%RAWIMUSA,2283,42921.430;2283,42921.429998646,00000077,-492,155,64167,46,0,-950*13fca4e1
%RAWIMUSA,2283,42921.440;2283,42921.439998646,00000077,-506,120,64178,-36,9,173*89040be4
%RAWIMUSA,2283,42921.450;2283,42921.449998646,00000077,-499,173,64161,37,-8,951*6994d8a1
%RAWIMUSA,2283,42921.460;2283,42921.459998646,00000077,-485,109,64180,-55,-8,320*045c1254
%RAWIMUSA,2283,42921.470;2283,42921.469998646,00000077,-492,176,64166,0,8,-960*cc308a84
%RAWIMUSA,2283,42921.480;2283,42921.479998646,00000077,-508,124,64174,18,8,-804*ef6e18d5
%RAWIMUSA,2283,42921.490;2283,42921.489998646,00000077,-500,150,64170,-18,-8,960*410c4f56
%RAWIMUSA,2283,42921.500;2283,42921.499998646,00000077,-488,149,64171,18,0,951*eceb1bb7
%RAWIMUSA,2283,42921.510;2283,42921.509998646,00000077,-493,128,64178,-73,0,-603*6cd01816
%RAWIMUSA,2283,42921.520;2283,42921.519998646,00000077,-504,168,64163,55,8,-960*ebf766b0
%RAWIMUSA,2283,42921.530;2283,42921.529998646,00000077,-495,107,64179,-27,0,118*6236bcf4
%RAWIMUSA,2283,42921.540;2283,42921.539998646,00000077,-489,173,64164,18,-8,960*6027f058
%RAWIMUSA,2283,42921.550;2283,42921.549998646,00000077,-499,120,64179,-27,-8,374*cbc33d0d
%RAWIMUSA,2283,42921.560;2283,42921.559998646,00000077,-501,158,64167,-36,8,-950*0427ecd5
%RAWIMUSA,2283,42921.570;2283,42921.569998646,00000077,-497,133,64169,46,8,-859*77a6fa32
%RAWIMUSA,2283,42921.580;2283,42921.579998646,00000077,-485,137,64170,-27,-8,951*19c99b67
%RAWIMUSA,2283,42921.590;2283,42921.589998646,00000077,-497,164,64166,18,0,960*15b3045a
%RAWIMUSA,2283,42921.600;2283,42921.599998646,00000077,-507,119,64180,-64,0,-557*c1080d7f
%RAWIMUSA,2283,42921.610;2283,42921.609998646,00000077,-493,167,64161,46,0,-950*e9d7f91c
%RAWIMUSA,2283,42921.620;2283,42921.619998646,00000077,-480,112,64181,-18,9,73*c8dba240
%RAWIMUSA,2283,42921.630;2283,42921.629998646,00000077,-504,178,64163,0,-8,960*95c0ab96
%RAWIMUSA,2283,42921.640;2283,42921.639998646,00000077,-507,124,64177,-8,-8,429*1e1653d0
%RAWIMUSA,2283,42921.650;2283,42921.649998646,00000077,-489,150,64173,-46,8,-950*ccae6d10
%RAWIMUSA,2283,42921.660;2283,42921.659998646,00000077,-483,146,64168,55,8,-914*127e31e0
%RAWIMUSA,2283,42921.670;2283,42921.669998646,00000077,-503,132,64172,-36,-8,960*f3ae81bb
%RAWIMUSA,2283,42921.680;2283,42921.679998646,00000077,-510,166,64165,28,-8,960*541da3bf
%RAWIMUSA,2283,42921.690;2283,42921.689998646,00000077,-487,111,64179,-64,0,-493*0f014c61
%RAWIMUSA,2283,42921.700;2283,42921.699998646,00000077,-482,180,64162,36,8,-960*98a8c748
%RAWIMUSA,2283,42921.710;2283,42921.709998646,00000077,-501,116,64177,-9,9,18*86759284
%RAWIMUSA,2283,42921.720;2283,42921.719998646,00000077,-506,166,64167,-8,-8,960*17bd2ebe
%RAWIMUSA,2283,42921.730;2283,42921.729998646,00000077,-491,130,64175,0,-8,484*f764aee8
%RAWIMUSA,2283,42921.740;2283,42921.739998646,00000077,-484,141,64175,-55,17,-941*b629ede5
%RAWIMUSA,2283,42921.750;2283,42921.749998646,00000077,-503,163,64165,64,0,-950*f5c7833d
%RAWIMUSA,2283,42921.760;2283,42921.759998646,00000077,-503,113,64182,-45,0,932*511aa19b
%RAWIMUSA,2283,42921.770;2283,42921.769998646,00000077,-493,179,64162,18,-8,960*16ba9060
%RAWIMUSA,2283,42921.780;2283,42921.779998646,00000077,-487,109,64180,-46,0,-447*f9de5185
%RAWIMUSA,2283,42921.790;2283,42921.789998646,00000077,-498,170,64163,9,8,-950*9a773e6e
%RAWIMUSA,2283,42921.800;2283,42921.799998646,00000077,-510,125,64175,27,0,-36*f9772ab3
%RAWIMUSA,2283,42921.810;2283,42921.809998646,00000077,-494,147,64170,-45,-8,951*72c27462
%RAWIMUSA,2283,42921.820;2283,42921.819998646,00000077,-477,154,64170,18,0,539*a53f4ef6
%RAWIMUSA,2283,42921.830;2283,42921.829998646,00000077,-496,127,64178,-64,8,-960*1c5abc9d
%RAWIMUSA,2283,42921.840;2283,42921.839998646,00000077,-515,174,64161,64,8,-950*01f5bc4a
%RAWIMUSA,2283,42921.850;2283,42921.849998646,00000077,-495,100,64179,-36,-8,887*70b71370
%RAWIMUSA,2283,42921.860;2283,42921.859998646,00000077,-479,182,64162,0,-8,960*f1dd5462
%RAWIMUSA,2283,42921.870;2283,42921.869998646,00000077,-501,124,64177,-27,0,-393*e01bf59a
%RAWIMUSA,2283,42921.880;2283,42921.879998646,00000077,-513,153,64171,-9,8,-950*b233e89d
%RAWIMUSA,2283,42921.890;2283,42921.889998646,00000077,-496,142,64169,55,0,-82*76cd1470
%RAWIMUSA,2283,42921.900;2283,42921.899998646,00000077,-479,130,64176,-64,-8,951*fa9ed9ab
%RAWIMUSA,2283,42921.910;2283,42921.909998646,00000077,-494,175,64164,27,0,585*8ed661d8
%RAWIMUSA,2283,42921.920;2283,42921.919998646,00000077,-512,104,64181,-55,8,-960*d03c28fd
%RAWIMUSA,2283,42921.930;2283,42921.929998646,00000077,-498,173,64161,36,8,-950*448d820e
%RAWIMUSA,2283,42921.940;2283,42921.939998646,00000077,-478,114,64175,0,-8,841*5e6766a6
%RAWIMUSA,2283,42921.950;2283,42921.949998646,00000077,-491,168,64169,-36,-8,960*394c1363
%RAWIMUSA,2283,42921.960;2283,42921.959998646,00000077,-516,143,64170,9,8,-338*347cc277
%RAWIMUSA,2283,42921.970;2283,42921.969998646,00000077,-498,123,64175,-36,0,-960*d2390e99
%RAWIMUSA,2283,42921.980;2283,42921.979998646,00000077,-476,171,64162,64,0,-146*af417972
%RAWIMUSA,2283,42921.990;2283,42921.989998646,00000077,-495,118,64180,-54,-8,960*20576d1e
%RAWIMUSA,2283,42922.000;2283,42921.999998646,00000077,-516,177,64162,0,0,640*5bc7691c
%RAWIMUSA,2283,42922.010;2283,42922.009998646,00000077,-496,110,64179,-9,8,-950*260a3de2
%RAWIMUSA,2283,42922.020;2283,42922.019998646,00000077,-477,161,64166,0,8,-950*b54185af
%RAWIMUSA,2283,42922.030;2283,42922.029998646,00000077,-499,144,64172,37,-8,795*af9500a2
%RAWIMUSA,2283,42922.040;2283,42922.039998646,00000077,-516,131,64172,-73,0,960*cd893688
%RAWIMUSA,2283,42922.050;2283,42922.049998646,00000077,-495,164,64165,27,0,-292*111dc0d7
%RAWIMUSA,2283,42922.060;2283,42922.059998646,00000077,-477,115,64180,-27,8,-960*76839d9e
%RAWIMUSA,2283,42922.070;2283,42922.069998646,00000077,-498,183,64161,36,-9,-182*230ac9ba
%RAWIMUSA,2283,42922.080;2283,42922.079998646,00000077,-516,109,64177,-27,-8,951*67353137
%RAWIMUSA,2283,42922.090;2283,42922.089998646,00000077,-496,159,64165,-27,0,685*62a653f0
%RAWIMUSA,2283,42922.100;2283,42922.099998646,00000077,-476,139,64171,18,8,-950*4f88932c
%RAWIMUSA,2283,42922.110;2283,42922.109998646,00000077,-497,141,64173,-27,8,-950*397c9c05
%RAWIMUSA,2283,42922.120;2283,42922.119998646,00000077,-515,152,64170,55,-8,731*4b5c8b88
%RAWIMUSA,2283,42922.130;2283,42922.129998646,00000077,-496,113,64177,-73,-8,951*cab8697f
%RAWIMUSA,2283,42922.140;2283,42922.139998646,00000077,-477,182,64162,18,8,-246*d344a27c
%RAWIMUSA,2283,42922.150;2283,42922.149998646,00000077,-497,115,64183,-9,8,-950*5b4f3c86
%RAWIMUSA,2283,42922.160;2283,42922.159998646,00000077,-514,169,64162,18,-9,-237*2b6aeaed
%RAWIMUSA,2283,42922.170;2283,42922.169998646,00000077,-499,118,64173,-8,-8,951*85975207
%RAWIMUSA,2283,42922.180;2283,42922.179998646,00000077,-478,160,64170,-54,0,731*08c47380
%RAWIMUSA,2283,42922.190;2283,42922.189998646,00000077,-493,156,64168,46,8,-950*45c4f11f
%RAWIMUSA,2283,42922.200;2283,42922.199998646,00000077,-514,118,64177,-36,8,-950*7ccae7d1
%RAWIMUSA,2283,42922.210;2283,42922.209998646,00000077,-501,165,64166,46,-17,685*e90db3a1
%RAWIMUSA,2283,42922.220;2283,42922.219998646,00000077,-480,115,64180,-54,0,960*045fd840
%RAWIMUSA,2283,42922.230;2283,42922.229998646,00000077,-491,178,64162,-9,8,-182*f94894d6
%RAWIMUSA,2283,42922.240;2283,42922.239998646,00000077,-510,114,64175,27,8,-950*b4753c3d
%RAWIMUSA,2283,42922.250;2283,42922.249998646,00000077,-496,151,64171,-27,-9,-292*1b88c2f7
%RAWIMUSA,2283,42922.260;2283,42922.259998646,00000077,-482,154,64168,28,-8,960*f3d87574
%RAWIMUSA,2283,42922.270;2283,42922.269998646,00000077,-491,122,64177,-73,0,795*ccb7e180
%RAWIMUSA,2283,42922.280;2283,42922.279998646,00000077,-508,167,64167,46,8,-950*06ea4f1a
%RAWIMUSA,2283,42922.290;2283,42922.289998646,00000077,-499,107,64182,-18,0,-941*60e6e89e
%RAWIMUSA,2283,42922.300;2283,42922.299998646,00000077,-485,181,64163,9,-8,631*79b18345
%RAWIMUSA,2283,42922.310;2283,42922.309998646,00000077,-487,121,64176,-18,0,960*a8ef9e23
%RAWIMUSA,2283,42922.320;2283,42922.319998646,00000077,-504,153,64169,-36,9,-127*2e552f63
%RAWIMUSA,2283,42922.330;2283,42922.329998646,00000077,-502,145,64168,46,8,-960*07d09a21
%RAWIMUSA,2283,42922.340;2283,42922.339998646,00000077,-485,136,64175,-27,-9,-338*2fc5835a
%RAWIMUSA,2283,42922.350;2283,42922.349998646,00000077,-493,162,64163,28,-8,960*90ab742e
%RAWIMUSA,2283,42922.360;2283,42922.359998646,00000077,-503,110,64181,-73,9,841*203a6f19
%RAWIMUSA,2283,42922.370;2283,42922.369998646,00000077,-501,179,64161,36,8,-950*bc8ffd95
%RAWIMUSA,2283,42922.380;2283,42922.379998646,00000077,-482,116,64178,0,-9,-950*5b51afdd
%RAWIMUSA,2283,42922.390;2283,42922.389998646,00000077,-490,166,64166,-8,-8,585*3a7327f9
%RAWIMUSA,2283,42922.400;2283,42922.399998646,00000077,-504,127,64173,0,0,951*34f25f74
%RAWIMUSA,2283,42922.410;2283,42922.409998646,00000077,-499,141,64173,-55,18,-91*8b413476
%RAWIMUSA,2283,42922.420;2283,42922.419998646,00000077,-489,166,64165,64,0,-941*22d8e8ed
%RAWIMUSA,2283,42922.430;2283,42922.429998646,00000077,-487,118,64178,-36,-9,-402*c7d6d20e
%RAWIMUSA,2283,42922.440;2283,42922.439998646,00000077,-502,172,64163,18,-8,960*047c7bf4
%RAWIMUSA,2283,42922.450;2283,42922.449998646,00000077,-500,116,64180,-54,9,905*7137cbb1
%RAWIMUSA,2283,42922.460;2283,42922.459998646,00000077,-492,173,64165,18,8,-950*4abff602
%RAWIMUSA,2283,42922.470;2283,42922.469998646,00000077,-498,124,64180,18,-10,-950*107d6258
%RAWIMUSA,2283,42922.480;2283,42922.479998646,00000077,-497,146,64168,-36,-8,530*64e3162c
%RAWIMUSA,2283,42922.490;2283,42922.489998646,00000077,-490,138,64168,18,0,960*c58dbd01
%RAWIMUSA,2283,42922.500;2283,42922.499998646,00000077,-497,135,64178,-64,9,-36*e54498bd
%RAWIMUSA,2283,42922.510;2283,42922.509998646,00000077,-502,176,64166,64,0,-950*c3ba75b1
%RAWIMUSA,2283,42922.520;2283,42922.519998646,00000077,-493,103,64182,-36,-9,-447*8f83be1f
%RAWIMUSA,2283,42922.530;2283,42922.529998646,00000077,-489,175,64164,9,0,960*a7aa4804
%RAWIMUSA,2283,42922.540;2283,42922.539998646,00000077,-495,112,64175,-27,0,951*31d008d1
%RAWIMUSA,2283,42922.550;2283,42922.549998646,00000077,-501,162,64168,-9,8,-960*8fb80542
%RAWIMUSA,2283,42922.560;2283,42922.559998646,00000077,-497,143,64171,46,0,-950*b8fcbfd0
%RAWIMUSA,2283,42922.570;2283,42922.569998646,00000077,-491,125,64178,-64,-8,475*b150cf5d
%RAWIMUSA,2283,42922.580;2283,42922.579998645,00000077,-495,172,64161,37,0,960*30c97f0c
%RAWIMUSA,2283,42922.590;2283,42922.589998645,00000077,-497,106,64182,-55,9,9*4a4972a4
%RAWIMUSA,2283,42922.600;2283,42922.599998645,00000077,-498,179,64161,27,0,-950*efdce986
%RAWIMUSA,2283,42922.610;2283,42922.609998645,00000077,-493,117,64175,18,-9,-502*b39e2405
%RAWIMUSA,2283,42922.620;2283,42922.619998645,00000077,-491,153,64168,-45,0,960*a59ebdd8
%RAWIMUSA,2283,42922.630;2283,42922.629998645,00000077,-499,144,64172,9,9,969*240be6f7
%RAWIMUSA,2283,42922.640;2283,42922.639998645,00000077,-501,134,64173,-36,8,-905*2d59153e
%RAWIMUSA,2283,42922.650;2283,42922.649998645,00000077,-492,167,64162,64,-10,-959*ffd73bc5
%RAWIMUSA,2283,42922.660;2283,42922.659998645,00000077,-490,109,64181,-55,-8,438*b9a997f5
%RAWIMUSA,2283,42922.670;2283,42922.669998645,00000077,-508,179,64162,9,9,969*f6042a9a
%RAWIMUSA,2283,42922.680;2283,42922.679998645,00000077,-496,107,64181,-18,9,73*4c97cfa2
%RAWIMUSA,2283,42922.690;2283,42922.689998645,00000077,-480,165,64163,0,0,-941*e93006e3
%RAWIMUSA,2283,42922.700;2283,42922.699998645,00000077,-498,132,64170,36,-9,-557*cbf6f5a4
%RAWIMUSA,2283,42922.710;2283,42922.709998645,00000077,-510,140,64177,-82,0,969*c2273f11
%RAWIMUSA,2283,42922.720;2283,42922.719998645,00000077,-497,166,64165,37,0,960*c24c5578
%RAWIMUSA,2283,42922.730;2283,42922.729998645,00000077,-482,105,64181,-36,8,-859*4ca2d414
%RAWIMUSA,2283,42922.740;2283,42922.739998645,00000077,-495,180,64162,36,-10,-950*0007ad80
%RAWIMUSA,2283,42922.750;2283,42922.749998645,00000077,-507,115,64179,-18,-8,374*59ba3f53
%RAWIMUSA,2283,42922.760;2283,42922.759998645,00000077,-495,159,64168,-36,0,960*386cdc3d
%RAWIMUSA,2283,42922.770;2283,42922.769998645,00000077,-482,131,64171,18,9,118*dfee923d
%RAWIMUSA,2283,42922.780;2283,42922.779998645,00000077,-496,140,64174,-27,8,-941*902de9c1
%RAWIMUSA,2283,42922.790;2283,42922.789998645,00000077,-510,165,64165,55,-9,-612*573ca8ef
%RAWIMUSA,2283,42922.800;2283,42922.799998645,00000077,-499,112,64179,-73,-8,960*02c40d7f
%RAWIMUSA,2283,42922.810;2283,42922.809998645,00000077,-486,171,64164,18,9,969*f5b2b692
%RAWIMUSA,2283,42922.820;2283,42922.819998645,00000077,-494,111,64178,-18,8,-804*1d052a8b
%RAWIMUSA,2283,42922.830;2283,42922.829998645,00000077,-504,175,64163,18,-10,-950*622a48c9
%RAWIMUSA,2283,42922.840;2283,42922.839998645,00000077,-498,126,64173,9,-9,320*4a12cdb9
%RAWIMUSA,2283,42922.850;2283,42922.849998645,00000077,-489,142,64173,-64,0,960*e22314b7
%RAWIMUSA,2283,42922.860;2283,42922.859998645,00000077,-495,153,64165,37,9,182*64f0d1f4
%RAWIMUSA,2283,42922.870;2283,42922.869998645,00000077,-502,124,64178,-36,0,-960*01cd1bdf
%RAWIMUSA,2283,42922.880;2283,42922.879998645,00000077,-496,177,64163,46,-9,-649*d18ec4a8
%RAWIMUSA,2283,42922.890;2283,42922.889998645,00000077,-493,104,64181,-54,0,951*27efad08
%RAWIMUSA,2283,42922.900;2283,42922.899998645,00000077,-490,169,64165,-8,9,960*67a4c635
%RAWIMUSA,2283,42922.910;2283,42922.909998645,00000077,-499,128,64172,18,0,-749*ad5c3c3c
%RAWIMUSA,2283,42922.920;2283,42922.919998645,00000077,-498,152,64169,-18,0,-969*3b24d413
%RAWIMUSA,2283,42922.930;2283,42922.929998645,00000077,-495,147,64168,37,-9,274*8881b872
%RAWIMUSA,2283,42922.940;2283,42922.939998645,00000077,-496,121,64179,-82,9,960*b92dbca1
%RAWIMUSA,2283,42922.950;2283,42922.949998645,00000077,-497,173,64162,46,0,228*563b0185
%RAWIMUSA,2283,42922.960;2283,42922.959998645,00000077,-497,109,64179,-18,0,-950*9cd7e5c5
%RAWIMUSA,2283,42922.970;2283,42922.969998645,00000077,-493,174,64162,18,-9,-713*49575054
%RAWIMUSA,2283,42922.980;2283,42922.979998645,00000077,-497,121,64178,-18,0,951*43f46675
%RAWIMUSA,2283,42922.990;2283,42922.989998645,00000077,-494,151,64169,-54,9,960*51406c2c
%RAWIMUSA,2283,42923.000;2283,42922.999998645,00000077,-496,146,64169,64,0,-703*aa55fdcc
%RAWIMUSA,2283,42923.010;2283,42923.009998645,00000077,-493,126,64177,-46,0,-941*02565f62
%RAWIMUSA,2283,42923.020;2283,42923.019998645,00000077,-495,172,64160,37,-9,219*2e267e1e
%RAWIMUSA,2283,42923.030;2283,42923.029998645,00000077,-497,108,64181,-64,9,960*1cc3a664
%RAWIMUSA,2283,42923.040;2283,42923.039998645,00000077,-494,178,64162,18,9,274*1c1dee29
%RAWIMUSA,2283,42923.050;2283,42923.049998645,00000077,-497,115,64176,18,0,-950*ddc35d91
%RAWIMUSA,2283,42923.060;2283,42923.059998645,00000077,-495,157,64170,-18,-9,-767*2ee4d8a7
%RAWIMUSA,2283,42923.070;2283,42923.069998645,00000077,-498,141,64171,9,0,941*cdd91b20
%RAWIMUSA,2283,42923.080;2283,42923.079998645,00000077,-492,137,64173,-64,9,960*33f9915f
%RAWIMUSA,2283,42923.090;2283,42923.089998645,00000077,-495,161,64164,64,0,-649*77aec5cb
%RAWIMUSA,2283,42923.100;2283,42923.099998645,00000077,-501,111,64180,-36,-9,-941*04d8b53c
%RAWIMUSA,2283,42923.110;2283,42923.109998645,00000077,-501,176,64162,18,0,164*9d43767f
%RAWIMUSA,2283,42923.120;2283,42923.119998645,00000077,-491,111,64181,-45,0,960*a01d5f59
%RAWIMUSA,2283,42923.130;2283,42923.129998645,00000077,-494,168,64165,0,9,329*0e7f8250
%RAWIMUSA,2283,42923.140;2283,42923.139998645,00000077,-501,127,64172,27,0,-941*da0458de
%RAWIMUSA,2283,42923.150;2283,42923.149998645,00000077,-494,143,64173,-36,-9,-813*f3ace6e7
%RAWIMUSA,2283,42923.160;2283,42923.159998645,00000077,-492,160,64168,28,0,951*2964b366
%RAWIMUSA,2283,42923.170;2283,42923.169998645,00000077,-495,115,64175,-73,9,951*148baadf
%RAWIMUSA,2283,42923.180;2283,42923.179998645,00000077,-502,177,64161,55,0,-594*e3b54b6d
%RAWIMUSA,2283,42923.190;2283,42923.189998645,00000077,-492,107,64180,-18,-9,-950*c27e496e
%RAWIMUSA,2283,42923.200;2283,42923.199998645,00000077,-494,173,64163,-18,0,118*c71a3ec2
%RAWIMUSA,2283,42923.210;2283,42923.209998645,00000077,-496,123,64175,0,9,951*d7c859f1
%RAWIMUSA,2283,42923.220;2283,42923.219998645,00000077,-498,145,64172,-36,9,384*d2887ce5
%RAWIMUSA,2283,42923.230;2283,42923.229998645,00000077,-499,150,64167,55,-10,-941*e1ff7d73
%RAWIMUSA,2283,42923.240;2283,42923.239998645,00000077,-489,126,64176,-55,-9,-868*a6c36c8a
%RAWIMUSA,2283,42923.250;2283,42923.249998645,00000077,-491,165,64161,28,0,951*dfed5177
%RAWIMUSA,2283,42923.260;2283,42923.259998645,00000077,-499,110,64182,-54,9,969*181971c1
%RAWIMUSA,2283,42923.270;2283,42923.269998645,00000077,-504,183,64162,36,0,-539*49906219
%RAWIMUSA,2283,42923.280;2283,42923.279998645,00000077,-493,114,64177,9,-9,-941*b99afabc
%RAWIMUSA,2283,42923.290;2283,42923.289998645,00000077,-487,152,64170,-36,0,64*1ea7592e
%RAWIMUSA,2283,42923.300;2283,42923.299998645,00000077,-501,145,64171,9,9,941*b0359727
%RAWIMUSA,2283,42923.310;2283,42923.309998645,00000077,-505,141,64176,-45,0,429*beaef682
%RAWIMUSA,2283,42923.320;2283,42923.319998645,00000077,-490,154,64164,64,0,-950*dd48e3b5
%RAWIMUSA,2283,42923.330;2283,42923.329998645,00000077,-486,107,64180,-55,-9,-923*4f1add71
%RAWIMUSA,2283,42923.340;2283,42923.339998645,00000077,-501,187,64162,9,9,951*ef576c15
%RAWIMUSA,2283,42923.350;2283,42923.349998645,00000077,-502,114,64178,-36,9,960*3de0195a
%RAWIMUSA,2283,42923.360;2283,42923.359998645,00000077,-492,159,64165,9,0,-502*b00be1cf
%RAWIMUSA,2283,42923.370;2283,42923.369998645,00000077,-487,127,64173,36,-10,-941*c743a8be
%RAWIMUSA,2283,42923.380;2283,42923.379998645,00000077,-497,147,64174,-64,0,9*eeb29e7a
%RAWIMUSA,2283,42923.390;2283,42923.389998645,00000077,-502,160,64165,37,9,960*dd85abce
%RAWIMUSA,2283,42923.400;2283,42923.399998645,00000077,-493,104,64181,-55,0,475*fe65185d
%RAWIMUSA,2283,42923.410;2283,42923.409998645,00000077,-490,180,64161,55,0,-950*707387d2
%RAWIMUSA,2283,42923.420;2283,42923.419998645,00000077,-497,116,64179,-27,-9,-941*902b9988
%RAWIMUSA,2283,42923.430;2283,42923.429998645,00000077,-503,170,64163,-27,9,932*9cc94140
%RAWIMUSA,2283,42923.440;2283,42923.439998645,00000077,-495,115,64176,0,9,960*ca262ee7
%RAWIMUSA,2283,42923.450;2283,42923.449998645,00000077,-485,150,64173,-9,-9,-447*31d55084
%RAWIMUSA,2283,42923.460;2283,42923.459998645,00000077,-492,152,64170,46,-10,-950*2af7ee32
%RAWIMUSA,2283,42923.470;2283,42923.469998645,00000077,-508,131,64175,-73,9,-45*c04022e8
%RAWIMUSA,2283,42923.480;2283,42923.479998645,00000077,-495,156,64163,28,0,960*f424681f
%RAWIMUSA,2283,42923.490;2283,42923.489998645,00000077,-485,112,64180,-36,9,530*0b048eaf
%RAWIMUSA,2283,42923.500;2283,42923.499998645,00000077,-499,185,64163,36,-10,-950*eda031c5
%RAWIMUSA,2283,42923.510;2283,42923.509998645,00000077,-508,106,64176,-9,-9,-950*11460ee8
%RAWIMUSA,2283,42923.520;2283,42923.519998645,00000077,-492,157,64166,-36,9,887*b7de3d66
%RAWIMUSA,2283,42923.530;2283,42923.529998645,00000077,-486,146,64171,18,9,960*883a258b
%RAWIMUSA,2283,42923.540;2283,42923.539998645,00000077,-497,139,64174,-27,0,-393*0768380c
%RAWIMUSA,2283,42923.550;2283,42923.549998645,00000077,-502,152,64164,55,-10,-950*53e25834
%RAWIMUSA,2283,42923.560;2283,42923.559998645,00000077,-489,111,64178,-73,0,-91*217c337c
%RAWIMUSA,2283,42923.570;2283,42923.569998645,00000077,-486,183,64161,18,9,969*bfc1f6f2
%RAWIMUSA,2283,42923.580;2283,42923.579998645,00000077,-501,111,64179,-8,0,594*da73a962
%RAWIMUSA,2283,42923.590;2283,42923.589998645,00000077,-504,163,64167,0,-9,-950*9c92c3ff
%RAWIMUSA,2283,42923.600;2283,42923.599998645,00000077,-494,131,64174,18,0,-941*38691583
%RAWIMUSA,2283,42923.610;2283,42923.609998645,00000077,-488,139,64172,-64,9,832*d7bee1a0
%RAWIMUSA,2283,42923.620;2283,42923.619998645,00000077,-496,167,64163,46,9,969*26d43c89
%RAWIMUSA,2283,42923.630;2283,42923.629998645,00000077,-500,111,64179,-46,-9,-347*612107cc
%RAWIMUSA,2283,42923.640;2283,42923.639998645,00000077,-499,175,64162,55,-10,-950*f7528e38
%RAWIMUSA,2283,42923.650;2283,42923.649998645,00000077,-493,110,64179,-45,0,-146*3fcf1b23
%RAWIMUSA,2283,42923.660;2283,42923.659998645,00000077,-498,168,64167,-27,9,960*6d398679
%RAWIMUSA,2283,42923.670;2283,42923.669998645,00000077,-499,132,64175,27,0,631*93e02c92
%RAWIMUSA,2283,42923.680;2283,42923.679998645,00000077,-491,137,64171,-27,-9,-960*7f9e687d
%RAWIMUSA,2283,42923.690;2283,42923.689998645,00000077,-496,161,64168,36,0,-950*49794e75
%RAWIMUSA,2283,42923.700;2283,42923.699998645,00000077,-501,123,64180,-73,9,786*a427e1c5
%RAWIMUSA,2283,42923.710;2283,42923.709998645,00000077,-496,170,64161,37,9,969*83f72f7d
%RAWIMUSA,2283,42923.720;2283,42923.719998645,00000077,-486,106,64181,-18,-9,-292*4c3f1527
%RAWIMUSA,2283,42923.730;2283,42923.729998645,00000077,-493,178,64162,27,-10,-959*ffbc72e5
%RAWIMUSA,2283,42923.740;2283,42923.739998645,00000077,-501,121,64174,-18,8,-191*c879e26d
%RAWIMUSA,2283,42923.750;2283,42923.749998645,00000077,-496,148,64171,-54,0,960*7b1d1db9
%RAWIMUSA,2283,42923.760;2283,42923.759998645,00000077,-491,147,64171,55,0,695*7a8c3d5b
%RAWIMUSA,2283,42923.770;2283,42923.769998645,00000077,-501,134,64178,-46,-9,-950*e6ccb851
%RAWIMUSA,2283,42923.780;2283,42923.779998645,00000077,-501,161,64161,36,0,-950*a360d30f
%RAWIMUSA,2283,42923.790;2283,42923.789998645,00000077,-494,103,64182,-73,9,731*07e2638f
%RAWIMUSA,2283,42923.800;2283,42923.799998645,00000077,-493,185,64166,28,0,960*eeac131c
%RAWIMUSA,2283,42923.810;2283,42923.809998645,00000077,-494,116,64179,0,-9,-237*295f47b1
%RAWIMUSA,2283,42923.820;2283,42923.819998645,00000077,-496,160,64167,-9,-9,-960*45c80289
%RAWIMUSA,2283,42923.830;2283,42923.829998645,00000077,-497,129,64172,9,8,-246*5161e3b0
%RAWIMUSA,2283,42923.840;2283,42923.839998645,00000077,-492,147,64174,-64,9,951*87e9e566
%RAWIMUSA,2283,42923.850;2283,42923.849998645,00000077,-496,157,64166,55,0,749*1a996218
%RAWIMUSA,2283,42923.860;2283,42923.859998645,00000077,-503,112,64181,-36,-9,-960*6aeae146
%RAWIMUSA,2283,42923.870;2283,42923.869998645,00000077,-491,170,64159,36,0,-941*3d7f3971
%RAWIMUSA,2283,42923.880;2283,42923.879998645,00000077,-485,119,64178,-64,9,676*bf647f9f
%RAWIMUSA,2283,42923.890;2283,42923.889998645,00000077,-503,171,64162,9,9,969*278d5354
%RAWIMUSA,2283,42923.900;2283,42923.899998645,00000077,-502,111,64175,27,-18,-191*d477e392
%RAWIMUSA,2283,42923.910;2283,42923.909998645,00000077,-492,158,64170,-27,0,-941*b893e933
%RAWIMUSA,2283,42923.920;2283,42923.919998645,00000077,-487,152,64172,18,8,-301*dad7b277
%RAWIMUSA,2283,42923.930;2283,42923.929998645,00000077,-501,125,64178,-73,9,951*f7010dbe
%RAWIMUSA,2283,42923.940;2283,42923.939998645,00000077,-504,162,64164,64,-8,795*4c3c2fce
%RAWIMUSA,2283,42923.950;2283,42923.949998645,00000077,-482,110,64178,-27,-9,-960*23aaf002
%RAWIMUSA,2283,42923.960;2283,42923.959998645,00000077,-487,183,64163,9,8,-950*fde23995
%RAWIMUSA,2283,42923.970;2283,42923.969998645,00000077,-506,112,64179,-36,0,621*81dd3732
%RAWIMUSA,2283,42923.980;2283,42923.979998645,00000077,-506,161,64166,-8,9,969*9110fbec
%RAWIMUSA,2283,42923.990;2283,42923.989998645,00000077,-487,133,64173,36,-9,-137*7d4860f6
%RAWIMUSA,2283,42924.000;2283,42923.999998645,00000077,-490,148,64173,-36,0,-950*e477e065
%RAWIMUSA,2283,42924.010;2283,42924.009998645,00000077,-511,152,64172,18,0,-356*38ae4a4c
%RAWIMUSA,2283,42924.020;2283,42924.019998645,00000077,-503,117,64176,-64,9,960*ac652a12
%RAWIMUSA,2283,42924.030;2283,42924.029998645,00000077,-475,175,64163,55,-8,850*a5a498fa
%RAWIMUSA,2283,42924.040;2283,42924.039998645,00000077,-490,113,64182,-18,0,-960*a4fdbff7
%RAWIMUSA,2283,42924.050;2283,42924.049998645,00000077,-522,171,64164,0,0,-950*f82ff2b5
%RAWIMUSA,2283,42924.060;2283,42924.059998645,00000077,-500,112,64176,-27,9,576*e4cb6de1
%RAWIMUSA,2283,42924.070;2283,42924.069998645,00000077,-467,164,64167,-18,0,960*d4bb5452
%RAWIMUSA,2283,42924.080;2283,42924.079998645,00000077,-488,142,64174,46,-9,-82*e859cadf
%RAWIMUSA,2283,42924.090;2283,42924.089998645,00000077,-528,132,64176,-46,0,-950*3c5e3bfc
%RAWIMUSA,2283,42924.100;2283,42924.099998645,00000077,-505,147,64167,27,0,-393*0acc6833
%RAWIMUSA,2283,42924.110;2283,42924.109998645,00000077,-463,115,64176,-73,9,951*41ee5cee
%RAWIMUSA,2283,42924.120;2283,42924.119998645,00000077,-476,190,64159,55,0,905*66498502
%RAWIMUSA,2283,42924.130;2283,42924.129998645,00000077,-527,110,64182,-9,-9,-960*35d9678c
%RAWIMUSA,2283,42924.140;2283,42924.139998645,00000077,-517,156,64166,-18,0,-960*f7aec1ef
%RAWIMUSA,2283,42924.150;2283,42924.149998645,00000077,-467,131,64175,-8,9,530*7d64f8d8
%RAWIMUSA,2283,42924.160;2283,42924.159998645,00000077,-472,155,64173,-36,0,969*4e6ffa80
%RAWIMUSA,2283,42924.170;2283,42924.169998645,00000077,-520,149,64167,55,-9,-18*fc0a68e4
%RAWIMUSA,2283,42924.180;2283,42924.179998645,00000077,-520,115,64179,-55,0,-950*a942d403
%RAWIMUSA,2283,42924.190;2283,42924.189998645,00000077,-473,177,64163,27,0,-457*cd45b940
%RAWIMUSA,2283,42924.200;2283,42924.199998645,00000077,-474,112,64179,-45,19,960*751b7dbd
%RAWIMUSA,2283,42924.210;2283,42924.209998645,00000077,-518,170,64163,18,-8,951*138b0d88
%RAWIMUSA,2283,42924.220;2283,42924.219998645,00000077,-516,118,64171,27,-10,-950*bf86d0aa
%RAWIMUSA,2283,42924.230;2283,42924.229998645,00000077,-482,153,64173,-55,0,-950*4758ba60
%RAWIMUSA,2283,42924.240;2283,42924.239998645,00000077,-477,154,64169,18,9,484*d38a6a3b
%RAWIMUSA,2283,42924.250;2283,42924.249998645,00000077,-510,119,64177,-54,0,960*dbd7de8c
%RAWIMUSA,2283,42924.260;2283,42924.259998645,00000077,-516,166,64164,64,-9,18*a5777baf
%RAWIMUSA,2283,42924.270;2283,42924.269998645,00000077,-483,114,64180,-46,0,-950*a67f28e3
%RAWIMUSA,2283,42924.280;2283,42924.279998645,00000077,-475,182,64161,0,8,-493*97432aec
%RAWIMUSA,2283,42924.290;2283,42924.289998645,00000077,-508,110,64182,-18,9,951*debb9602
%RAWIMUSA,2283,42924.300;2283,42924.299998645,00000077,-512,157,64166,-8,-8,969*1361b933
%RAWIMUSA,2283,42924.310;2283,42924.309998645,00000077,-483,142,64172,55,-10,-905*e135a019
%RAWIMUSA,2283,42924.320;2283,42924.319998645,00000077,-478,133,64173,-73,8,-969*ad3be47d
%RAWIMUSA,2283,42924.330;2283,42924.329998645,00000077,-507,163,64162,27,0,420*72fc5443
%RAWIMUSA,2283,42924.340;2283,42924.339998645,00000077,-516,105,64182,-45,0,960*fa8e84e7
%RAWIMUSA,2283,42924.350;2283,42924.349998645,00000077,-491,179,64165,46,-9,82*03f1c19c
%RAWIMUSA,2283,42924.360;2283,42924.359998645,00000077,-474,117,64175,-18,0,-950*7f79cc1c
%RAWIMUSA,2283,42924.370;2283,42924.369998645,00000077,-490,165,64165,-36,8,-557*9f75978d
%RAWIMUSA,2283,42924.380;2283,42924.379998645,00000077,-518,131,64173,18,9,960*e124eda7
%RAWIMUSA,2283,42924.390;2283,42924.389998645,00000077,-503,133,64174,-36,-17,960*78b339bc
%RAWIMUSA,2283,42924.400;2283,42924.399998645,00000077,-472,168,64164,64,-9,-859*51f0fc30
%RAWIMUSA,2283,42924.410;2283,42924.409998645,00000077,-489,105,64181,-73,17,-941*f729b7dc
%RAWIMUSA,2283,42924.420;2283,42924.419998645,00000077,-520,180,64159,9,0,374*8f022599
%RAWIMUSA,2283,42924.430;2283,42924.429998645,00000077,-509,115,64179,0,-8,941*4e26d0e6
%RAWIMUSA,2283,42924.440;2283,42924.439998645,00000077,-470,161,64166,-9,0,128*bc6ec1e2
%RAWIMUSA,2283,42924.450;2283,42924.449998645,00000077,-486,135,64173,27,0,-950*33e5c0cf
%RAWIMUSA,2283,42924.460;2283,42924.459998645,00000077,-524,133,64174,-73,8,-612*d19acdf8
%RAWIMUSA,2283,42924.470;2283,42924.469998645,00000077,-509,159,64165,46,0,969*a173a55b
%RAWIMUSA,2283,42924.480;2283,42924.479998644,00000077,-470,117,64174,-45,-8,960*860489e7
%RAWIMUSA,2283,42924.490;2283,42924.489998644,00000077,-483,172,64166,55,-9,-786*be52e119
%RAWIMUSA,2283,42924.500;2283,42924.499998644,00000077,-521,113,64181,-55,8,-950*333eca01
%RAWIMUSA,2283,42924.510;2283,42924.509998644,00000077,-506,173,64165,-18,9,310*ac19952d
%RAWIMUSA,2283,42924.520;2283,42924.519998644,00000077,-471,118,64175,28,-8,969*a150aea5
%RAWIMUSA,2283,42924.530;2283,42924.529998644,00000077,-484,147,64168,-27,0,173*29a07352
%RAWIMUSA,2283,42924.540;2283,42924.539998644,00000077,-520,153,64170,36,0,-941*47711617
%RAWIMUSA,2283,42924.550;2283,42924.549998644,00000077,-509,126,64177,-73,0,-676*796a1224
%RAWIMUSA,2283,42924.560;2283,42924.559998644,00000077,-474,165,64166,37,0,969*b91dd345
%RAWIMUSA,2283,42924.570;2283,42924.569998644,00000077,-482,110,64179,-18,0,951*60ec8d60
%RAWIMUSA,2283,42924.580;2283,42924.579998644,00000077,-517,177,64162,27,-9,-740*c4b97429
%RAWIMUSA,2283,42924.590;2283,42924.589998644,00000077,-513,115,64179,-27,8,-941*1084f9c0
%RAWIMUSA,2283,42924.600;2283,42924.599998644,00000077,-476,160,64170,-36,9,256*f51f485f
%RAWIMUSA,2283,42924.610;2283,42924.609998644,00000077,-477,136,64171,37,0,969*57045a15
%RAWIMUSA,2283,42924.620;2283,42924.619998644,00000077,-513,138,64172,-27,-9,237*3c88cfc3
%RAWIMUSA,2283,42924.630;2283,42924.629998644,00000077,-513,161,64167,36,0,-959*62e324e4
%RAWIMUSA,2283,42924.640;2283,42924.639998644,00000077,-478,116,64178,-73,8,-713*02dca660
%RAWIMUSA,2283,42924.650;2283,42924.649998644,00000077,-480,176,64163,37,0,951*09388131
%RAWIMUSA,2283,42924.660;2283,42924.659998644,00000077,-516,108,64181,-18,-8,960*8161d511
%RAWIMUSA,2283,42924.670;2283,42924.669998644,00000077,-514,165,64164,9,-9,-703*04217ec9
%RAWIMUSA,2283,42924.680;2283,42924.679998644,00000077,-474,126,64170,-9,8,-950*f76a29d6
%RAWIMUSA,2283,42924.690;2283,42924.689998644,00000077,-481,159,64173,-45,9,210*516344eb
%RAWIMUSA,2283,42924.700;2283,42924.699998644,00000077,-521,147,64172,46,-8,960*01d1b348
%RAWIMUSA,2283,42924.710;2283,42924.709998644,00000077,-503,115,64170,-36,-8,292*7bd58827
%RAWIMUSA,2283,42924.720;2283,42924.719998644,00000077,-467,165,64162,36,8,-960*1f08b633
%RAWIMUSA,2283,42924.730;2283,42924.729998644,00000077,-498,126,64184,-55,8,-777*fc7e286f
%RAWIMUSA,2283,42924.740;2283,42924.739998644,00000077,-518,179,64162,9,-8,969*23fb9e3f
%RAWIMUSA,2283,42924.750;2283,42924.749998644,00000077,-495,102,64179,9,-8,960*75ebd432
%RAWIMUSA,2283,42924.760;2283,42924.759998644,00000077,-475,158,64170,0,8,-639*fafbd4c8
%RAWIMUSA,2283,42924.770;2283,42924.769998644,00000077,-495,143,64168,0,8,-950*fc165bd8
%RAWIMUSA,2283,42924.780;2283,42924.779998644,00000077,-512,152,64171,-64,0,164*9c00cc4b
%RAWIMUSA,2283,42924.790;2283,42924.789998644,00000077,-495,133,64171,64,-8,951*088be232
%RAWIMUSA,2283,42924.800;2283,42924.799998644,00000077,-484,123,64174,-36,-8,329*259783ae
%RAWIMUSA,2283,42924.810;2283,42924.809998644,00000077,-499,186,64163,36,8,-950*7706b0d7
%RAWIMUSA,2283,42924.820;2283,42924.819998644,00000077,-504,109,64183,-73,8,-832*e4ef0966
%RAWIMUSA,2283,42924.830;2283,42924.829998644,00000077,-496,168,64162,18,0,951*5192e3e6
%RAWIMUSA,2283,42924.840;2283,42924.839998644,00000077,-487,113,64176,18,-8,960*79127014
%RAWIMUSA,2283,42924.850;2283,42924.849998644,00000077,-496,165,64171,-27,0,-594*0ced215a
%RAWIMUSA,2283,42924.860;2283,42924.859998644,00000077,-502,150,64169,27,8,-941*1c170492
%RAWIMUSA,2283,42924.870;2283,42924.869998644,00000077,-493,114,64175,-82,0,100*7a70d9b0
%RAWIMUSA,2283,42924.880;2283,42924.879998644,00000077,-490,174,64165,64,-8,969*2fee7bc5
%RAWIMUSA,2283,42924.890;2283,42924.889998644,00000077,-501,117,64181,-27,0,384*daf73297
%RAWIMUSA,2283,42924.900;2283,42924.899998644,00000077,-498,176,64162,0,0,-950*5eee0f09
%RAWIMUSA,2283,42924.910;2283,42924.909998644,00000077,-491,111,64176,-9,8,-868*f455fecb
%RAWIMUSA,2283,42924.920;2283,42924.919998644,00000077,-491,154,64169,-36,0,960*5354ef8c
%RAWIMUSA,2283,42924.930;2283,42924.929998644,00000077,-502,153,64171,55,-8,951*89e89c52
%RAWIMUSA,2283,42924.940;2283,42924.939998644,00000077,-500,118,64176,-55,0,-539*0c4d1003
%RAWIMUSA,2283,42924.950;2283,42924.949998644,00000077,-489,169,64161,27,8,-950*ba36f1d4
%RAWIMUSA,2283,42924.960;2283,42924.959998644,00000077,-492,111,64182,-55,0,54*2c05b3ce
%RAWIMUSA,2283,42924.970;2283,42924.969998644,00000077,-503,185,64162,37,-8,960*a6210008
%RAWIMUSA,2283,42924.980;2283,42924.979998644,00000077,-500,115,64176,9,-8,429*e63945f5
%RAWIMUSA,2283,42924.990;2283,42924.989998644,00000077,-487,149,64170,-36,8,-950*fc8e6b68
%RAWIMUSA,2283,42925.000;2283,42924.999998644,00000077,-492,144,64171,9,8,-923*c7a52b73
%RAWIMUSA,2283,42925.010;2283,42925.009998644,00000077,-506,134,64179,-45,0,951*7f852752
%RAWIMUSA,2283,42925.020;2283,42925.019998644,00000077,-498,166,64165,55,-8,960*3e1f9ce7
%RAWIMUSA,2283,42925.030;2283,42925.029998644,00000077,-489,106,64177,-36,0,-493*cf586c91
%RAWIMUSA,2283,42925.040;2283,42925.039998644,00000077,-495,180,64165,9,8,-950*ab1d6d99
%RAWIMUSA,2283,42925.050;2283,42925.049998644,00000077,-505,118,64178,-36,0,9*8bab8cec
%RAWIMUSA,2283,42925.060;2283,42925.059998644,00000077,-498,165,64167,9,-8,960*51e646ee
%RAWIMUSA,2283,42925.070;2283,42925.069998644,00000077,-482,125,64174,37,0,484*a047b46b
%RAWIMUSA,2283,42925.080;2283,42925.079998644,00000077,-495,139,64173,-64,8,-950*5aac2af9
%RAWIMUSA,2283,42925.090;2283,42925.089998644,00000077,-506,160,64165,27,0,-950*a40aa48b
%RAWIMUSA,2283,42925.100;2283,42925.099998644,00000077,-501,119,64182,-54,0,941*d9b4266b
%RAWIMUSA,2283,42925.110;2283,42925.109998644,00000077,-492,173,64166,55,-8,960*f825a3aa
%RAWIMUSA,2283,42925.120;2283,42925.119998644,00000077,-485,108,64176,-27,8,-447*ede4829e
%RAWIMUSA,2283,42925.130;2283,42925.129998644,00000077,-488,175,64165,-9,8,-941*c3fbd700
%RAWIMUSA,2283,42925.140;2283,42925.139998644,00000077,-512,120,64175,-18,-9,-45*339efbde
%RAWIMUSA,2283,42925.150;2283,42925.149998644,00000077,-508,151,64175,-8,-8,960*d86777cc
%RAWIMUSA,2283,42925.160;2283,42925.159998644,00000077,-483,138,64169,55,0,548*cdc2d106
%RAWIMUSA,2283,42925.170;2283,42925.169998644,00000077,-476,132,64174,-73,8,-960*2183f716
%RAWIMUSA,2283,42925.180;2283,42925.179998644,00000077,-505,172,64164,27,8,-941*6a10d187
%RAWIMUSA,2283,42925.190;2283,42925.189998644,00000077,-513,101,64183,-45,-8,887*de808e9d
%RAWIMUSA,2283,42925.200;2283,42925.199998644,00000077,-485,175,64161,46,-8,951*a27ae1c4
%RAWIMUSA,2283,42925.210;2283,42925.209998644,00000077,-482,119,64180,-9,8,-383*f0c97f98
%RAWIMUSA,2283,42925.220;2283,42925.219998644,00000077,-499,157,64169,-46,8,-950*0139ba7c
%RAWIMUSA,2283,42925.230;2283,42925.229998644,00000077,-510,134,64169,18,-9,-100*f2f5de2f
%RAWIMUSA,2283,42925.240;2283,42925.239998644,00000077,-492,135,64173,-36,-8,960*f4e45190
%RAWIMUSA,2283,42925.250;2283,42925.249998644,00000077,-490,167,64166,64,0,594*3d72a85f
%RAWIMUSA,2283,42925.260;2283,42925.259998644,00000077,-500,112,64179,-73,8,-960*08aa052b
%RAWIMUSA,2283,42925.270;2283,42925.269998644,00000077,-499,177,64164,18,8,-950*2b5a9426
%RAWIMUSA,2283,42925.280;2283,42925.279998644,00000077,-490,114,64182,-18,-8,832*58b8e74b
%RAWIMUSA,2283,42925.290;2283,42925.289998644,00000077,-491,169,64165,9,-8,951*9160c7d9
%RAWIMUSA,2283,42925.300;2283,42925.299998644,00000077,-501,126,64174,18,8,-338*4f19effd
%RAWIMUSA,2283,42925.310;2283,42925.309998644,00000077,-501,141,64172,-64,8,-941*0efee40e
%RAWIMUSA,2283,42925.320;2283,42925.319998644,00000077,-488,153,64169,36,-9,-155*2c1617e5
%RAWIMUSA,2283,42925.330;2283,42925.329998644,00000077,-491,118,64176,-36,0,960*f9632e36
%RAWIMUSA,2283,42925.340;2283,42925.339998644,00000077,-504,178,64163,55,0,649*81a8c614
%RAWIMUSA,2283,42925.350;2283,42925.349998644,00000077,-505,104,64182,-55,0,-960*13abc7bc
%RAWIMUSA,2283,42925.360;2283,42925.359998644,00000077,-488,170,64161,-9,8,-950*5976b2f5
%RAWIMUSA,2283,42925.370;2283,42925.369998644,00000077,-487,127,64174,18,-8,777*453d3792
%RAWIMUSA,2283,42925.380;2283,42925.379998644,00000077,-504,151,64171,-27,-8,960*72f83ffa
%RAWIMUSA,2283,42925.390;2283,42925.389998644,00000077,-506,151,64166,46,8,-283*35a4e47c
%RAWIMUSA,2283,42925.400;2283,42925.399998644,00000077,-492,115,64176,-73,8,-950*f5a2a330
%RAWIMUSA,2283,42925.410;2283,42925.409998644,00000077,-487,173,64165,27,-9,-210*e4dce48c
%RAWIMUSA,2283,42925.420;2283,42925.419998644,00000077,-502,117,64178,-27,-8,969*f719b9b6
%RAWIMUSA,2283,42925.430;2283,42925.429998644,00000077,-500,169,64162,37,0,704*61409131
%RAWIMUSA,2283,42925.440;2283,42925.439998644,00000077,-493,112,64179,-36,8,-969*cb532724
%RAWIMUSA,2283,42925.450;2283,42925.449998644,00000077,-493,167,64164,-27,8,-941*855f22bd
%RAWIMUSA,2283,42925.460;2283,42925.459998644,00000077,-501,133,64176,18,-8,731*d9b60151
%RAWIMUSA,2283,42925.470;2283,42925.469998644,00000077,-493,146,64169,-18,0,951*54e4af15
%RAWIMUSA,2283,42925.480;2283,42925.479998644,00000077,-493,137,64171,27,0,-219*15ecaac1
%RAWIMUSA,2283,42925.490;2283,42925.489998644,00000077,-498,134,64175,-73,8,-950*6e6e084d
%RAWIMUSA,2283,42925.500;2283,42925.499998644,00000077,-498,167,64161,46,-9,-255*438e6e34
%RAWIMUSA,2283,42925.510;2283,42925.509998644,00000077,-494,110,64179,-36,0,960*8505ae6e
%RAWIMUSA,2283,42925.520;2283,42925.519998644,00000077,-491,175,64160,37,0,749*d0c4c7af
%RAWIMUSA,2283,42925.530;2283,42925.529998644,00000077,-501,118,64181,-36,8,-960*9e9a1f41
%RAWIMUSA,2283,42925.540;2283,42925.539998644,00000077,-503,165,64167,-27,0,-950*681c2001
%RAWIMUSA,2283,42925.550;2283,42925.549998644,00000077,-488,122,64173,27,-8,667*a8648889
%RAWIMUSA,2283,42925.560;2283,42925.559998644,00000077,-488,150,64172,-27,0,951*b8405df7
%RAWIMUSA,2283,42925.570;2283,42925.569998644,00000077,-501,157,64166,36,0,-182*c5baff1e
%RAWIMUSA,2283,42925.580;2283,42925.579998644,00000077,-504,116,64175,-73,8,-941*dcba5486
%RAWIMUSA,2283,42925.590;2283,42925.589998644,00000077,-489,166,64163,36,-9,-310*27f33fca
%RAWIMUSA,2283,42925.600;2283,42925.599998644,00000077,-485,117,64182,-27,-8,960*9ff5b5ba
%RAWIMUSA,2283,42925.610;2283,42925.609998644,00000077,-501,182,64161,27,9,795*0bb38097
%RAWIMUSA,2283,42925.620;2283,42925.619998644,00000077,-503,106,64178,-27,8,-950*727fbe81
%RAWIMUSA,2283,42925.630;2283,42925.629998644,00000077,-490,156,64167,-36,0,-941*1a0d97a3
%RAWIMUSA,2283,42925.640;2283,42925.639998644,00000077,-490,145,64173,46,0,612*dcb134d7
%RAWIMUSA,2283,42925.650;2283,42925.649998644,00000077,-500,135,64174,-45,-8,960*cc01ee5e
%RAWIMUSA,2283,42925.660;2283,42925.659998644,00000077,-501,158,64164,46,8,-127*6f0fd404
%RAWIMUSA,2283,42925.670;2283,42925.669998644,00000077,-494,113,64178,-73,8,-969*16ddfc47
%RAWIMUSA,2283,42925.680;2283,42925.679998644,00000077,-494,187,64162,27,-9,-356*0f1bc517
%RAWIMUSA,2283,42925.690;2283,42925.689998644,00000077,-497,108,64179,-8,-8,960*48013e6f
%RAWIMUSA,2283,42925.700;2283,42925.699998644,00000077,-500,162,64167,0,9,859*1ed43ffc
%RAWIMUSA,2283,42925.710;2283,42925.709998644,00000077,-501,128,64173,9,0,-960*10b310ca
%RAWIMUSA,2283,42925.720;2283,42925.719998644,00000077,-491,147,64174,-73,0,-950*241ab91d
%RAWIMUSA,2283,42925.730;2283,42925.729998644,00000077,-495,163,64169,64,-8,576*65808abb
%RAWIMUSA,2283,42925.740;2283,42925.739998644,00000077,-496,99,64177,-36,0,960*8eab8538
%RAWIMUSA,2283,42925.750;2283,42925.749998644,00000077,-490,175,64161,27,9,-73*47856794
%RAWIMUSA,2283,42925.760;2283,42925.759998644,00000077,-506,129,64181,-46,8,-950*ca63a55b
%RAWIMUSA,2283,42925.770;2283,42925.769998644,00000077,-502,164,64167,-9,-18,-420*03f061d8
%RAWIMUSA,2283,42925.780;2283,42925.779998644,00000077,-484,114,64176,37,0,960*821b915a
%RAWIMUSA,2283,42925.790;2283,42925.789998644,00000077,-496,149,64173,-36,9,896*b36ff656
%RAWIMUSA,2283,42925.800;2283,42925.799998644,00000077,-499,173,64163,27,0,-950*c01ed1c6
%RAWIMUSA,2283,42925.810;2283,42925.809998644,00000077,-501,112,64180,-73,-9,-950*5b8bfc02
%RAWIMUSA,2283,42925.820;2283,42925.819998644,00000077,-488,160,64162,55,0,521*badd2d2f
%RAWIMUSA,2283,42925.830;2283,42925.829998644,00000077,-493,113,64179,-18,0,960*5115734f
%RAWIMUSA,2283,42925.840;2283,42925.839998644,00000077,-504,188,64164,-9,9,-18*07121e29
%RAWIMUSA,2283,42925.850;2283,42925.849998644,00000077,-495,117,64176,-9,0,-950*66b07193
%RAWIMUSA,2283,42925.860;2283,42925.859998644,00000077,-489,132,64172,-27,-9,-466*e6fc5d34
%RAWIMUSA,2283,42925.870;2283,42925.869998644,00000077,-495,156,64168,55,-8,941*37051279
%RAWIMUSA,2283,42925.880;2283,42925.879998644,00000077,-502,137,64174,-54,9,951*f0aa443d
%RAWIMUSA,2283,42925.890;2283,42925.889998644,00000077,-499,165,64165,27,8,-950*ab5d2610
%RAWIMUSA,2283,42925.900;2283,42925.899998644,00000077,-498,94,64181,-64,-9,-950*9ebc7384
%RAWIMUSA,2283,42925.910;2283,42925.909998644,00000077,-493,179,64160,37,-8,466*0345b6ff
%RAWIMUSA,2283,42925.920;2283,42925.919998644,00000077,-494,131,64173,9,0,960*c54403e6
%RAWIMUSA,2283,42925.930;2283,42925.929998644,00000077,-498,157,64170,-27,9,27*32fbf6ee
%RAWIMUSA,2283,42925.940;2283,42925.939998644,00000077,-503,129,64173,9,0,-950*38f41314
%RAWIMUSA,2283,42925.950;2283,42925.949998644,00000077,-494,135,64174,-46,-9,-511*24aff901
%RAWIMUSA,2283,42925.960;2283,42925.959998644,00000077,-496,176,64166,55,-8,960*73cd2274
%RAWIMUSA,2283,42925.970;2283,42925.969998644,00000077,-502,110,64181,-45,9,960*c237d923
%RAWIMUSA,2283,42925.980;2283,42925.979998644,00000077,-490,159,64157,9,8,-896*6f4f4887
%RAWIMUSA,2283,42925.990;2283,42925.989998644,00000077,-493,120,64178,-36,-9,-960*e0923cb2
%RAWIMUSA,2283,42926.000;2283,42925.999998644,00000077,-499,189,64162,9,-8,411*61fcac02
%RAWIMUSA,2283,42926.010;2283,42926.009998644,00000077,-497,115,64174,28,0,951*254392ca
%RAWIMUSA,2283,42926.020;2283,42926.019998644,00000077,-497,136,64173,-45,9,82*46bc80bc
%RAWIMUSA,2283,42926.030;2283,42926.029998644,00000077,-499,153,64170,18,0,-950*b1102c94
%RAWIMUSA,2283,42926.040;2283,42926.039998644,00000077,-493,137,64176,-55,-9,-557*8d76ee27
%RAWIMUSA,2283,42926.050;2283,42926.049998644,00000077,-489,167,64159,64,0,960*d6e937eb
%RAWIMUSA,2283,42926.060;2283,42926.059998644,00000077,-498,95,64183,-45,9,951*d36ffd77
%RAWIMUSA,2283,42926.070;2283,42926.069998644,00000077,-501,188,64163,0,0,-850*d99bd8fa
%RAWIMUSA,2283,42926.080;2283,42926.079998644,00000077,-495,123,64177,-18,-9,-941*1a808a46
%RAWIMUSA,2283,42926.090;2283,42926.089998644,00000077,-490,142,64170,-18,0,356*4c303a6a
%RAWIMUSA,2283,42926.100;2283,42926.099998644,00000077,-498,145,64169,64,0,969*3f4e2876
%RAWIMUSA,2283,42926.110;2283,42926.109998644,00000077,-502,132,64180,-73,9,128*ad4a084b
%RAWIMUSA,2283,42926.120;2283,42926.119998644,00000077,-494,185,64161,18,0,-950*3a30e9f4
%RAWIMUSA,2283,42926.130;2283,42926.129998644,00000077,-488,93,64182,-27,-9,-612*5a851211
%RAWIMUSA,2283,42926.140;2283,42926.139998644,00000077,-497,170,64162,28,0,951*05a5eaf0
%RAWIMUSA,2283,42926.150;2283,42926.149998644,00000077,-500,136,64174,0,9,960*6ac0e4fb
%RAWIMUSA,2283,42926.160;2283,42926.159998644,00000077,-496,153,64172,-55,8,-795*c1485579
%RAWIMUSA,2283,42926.170;2283,42926.169998644,00000077,-496,132,64170,27,-10,-941*530e58db
%RAWIMUSA,2283,42926.180;2283,42926.179998644,00000077,-494,127,64176,-36,-8,310*410f2a70
%RAWIMUSA,2283,42926.190;2283,42926.189998644,00000077,-495,179,64161,55,0,960*8747cbb0
%RAWIMUSA,2283,42926.200;2283,42926.199998644,00000077,-495,115,64180,-55,18,192*0850a584
%RAWIMUSA,2283,42926.210;2283,42926.209998644,00000077,-504,166,64161,0,-9,-950*b5d680f9
%RAWIMUSA,2283,42926.220;2283,42926.219998644,00000077,-494,114,64178,0,-9,-658*d875fde9
%RAWIMUSA,2283,42926.230;2283,42926.229998644,00000077,-490,173,64169,-8,0,960*654055ef
%RAWIMUSA,2283,42926.240;2283,42926.239998644,00000077,-504,137,64173,28,9,960*e74fdead
