%RAWIMUSA,2283,40613.050;2283,40613.049999855,00000077,-62,64171,-168,0,0,-228*0be8c969
%RAWIMUSA,2283,40613.060;2283,40613.059999855,00000077,-57,64172,-182,18,0,951*297930a5
%RAWIMUSA,2283,40613.070;2283,40613.069999855,00000077,-55,64171,-179,0,9,713*d0817097
%RAWIMUSA,2283,40613.080;2283,40613.079999855,00000077,-68,64169,-169,-18,8,-950*3cdb0fe1
%RAWIMUSA,2283,40613.090;2283,40613.089999855,00000077,-62,64172,-168,-9,0,-941*23241226
%RAWIMUSA,2283,40613.100;2283,40613.099999855,00000077,-52,64172,-182,18,-8,704*620f80a0
%RAWIMUSA,2283,40613.110;2283,40613.109999855,00000077,-53,64170,-185,18,9,951*6b190f8f
%RAWIMUSA,2283,40613.120;2283,40613.119999855,00000077,-76,64168,-169,-18,18,-201*ff22a41e
%RAWIMUSA,2283,40613.130;2283,40613.129999855,00000077,-51,64176,-167,-18,0,-932*4c426dfd
%RAWIMUSA,2283,40613.140;2283,40613.139999855,00000077,-61,64165,-184,9,-9,-283*0aea347e
%RAWIMUSA,2283,40613.150;2283,40613.149999855,00000077,-50,64174,-183,18,0,960*a6b79836
%RAWIMUSA,2283,40613.160;2283,40613.159999855,00000077,-65,64170,-170,0,18,768*fab17bd2
%RAWIMUSA,2283,40613.170;2283,40613.169999855,00000077,-78,64163,-170,-18,8,-950*df15c300
%RAWIMUSA,2283,40613.180;2283,40613.179999855,00000077,-27,64179,-179,-9,0,-941*a5aa71d4
%RAWIMUSA,2283,40613.190;2283,40613.189999855,00000077,-90,64163,-179,18,-8,640*6dd4b109
%RAWIMUSA,2283,40613.200;2283,40613.199999855,00000077,-31,64174,-172,18,9,969*d2876c89
%RAWIMUSA,2283,40613.210;2283,40613.209999855,00000077,-92,64171,-174,-9,18,-173*613873fa
%RAWIMUSA,2283,40613.220;2283,40613.219999855,00000077,-25,64175,-173,-18,0,-923*d84f119b
%RAWIMUSA,2283,40613.230;2283,40613.229999855,00000077,-81,64166,-178,9,-9,-365*3cedee80
%RAWIMUSA,2283,40613.240;2283,40613.239999855,00000077,-49,64178,-178,18,9,987*d1091d3b
%RAWIMUSA,2283,40613.250;2283,40613.249999855,00000077,-75,64163,-176,0,9,795*6358ca01
%RAWIMUSA,2283,40613.260;2283,40613.259999855,00000077,-34,64177,-171,-18,8,-923*211ef7fd
%RAWIMUSA,2283,40613.270;2283,40613.269999855,00000077,-76,64167,-173,-9,0,-969*698df2c5
%RAWIMUSA,2283,40613.280;2283,40613.279999855,00000077,-57,64176,-180,18,-8,631*128a036f
%RAWIMUSA,2283,40613.290;2283,40613.289999855,00000077,-67,64167,-175,18,9,932*f94ec56e
%RAWIMUSA,2283,40613.300;2283,40613.299999855,00000077,-47,64172,-175,-18,18,-91*13d0d88c
%RAWIMUSA,2283,40613.310;2283,40613.309999855,00000077,-61,64173,-173,-18,0,-960*307ad63c
%RAWIMUSA,2283,40613.320;2283,40613.319999855,00000077,-72,64169,-178,9,-9,-365*d03a5f0d
%RAWIMUSA,2283,40613.330;2283,40613.329999855,00000077,-46,64174,-179,18,9,951*6a8936b9
%RAWIMUSA,2283,40613.340;2283,40613.339999855,00000077,-76,64165,-171,0,9,868*8f9b45ca
%RAWIMUSA,2283,40613.350;2283,40613.349999855,00000077,-44,64175,-175,-18,8,-941*a4567645
%RAWIMUSA,2283,40613.360;2283,40613.359999855,00000077,-89,64166,-178,-9,-9,-960*55c5c1cc
%RAWIMUSA,2283,40613.370;2283,40613.369999855,00000077,-26,64178,-175,18,0,557*ca301a29
%RAWIMUSA,2283,40613.380;2283,40613.379999855,00000077,-89,64164,-175,9,9,941*33a1ee23
%RAWIMUSA,2283,40613.390;2283,40613.389999855,00000077,-29,64179,-174,-18,9,-36*908cd08f
%RAWIMUSA,2283,40613.400;2283,40613.399999855,00000077,-93,64163,-177,-18,0,-969*363c60c3
%RAWIMUSA,2283,40613.410;2283,40613.409999855,00000077,-25,64180,-173,9,0,-402*12c6f960
%RAWIMUSA,2283,40613.420;2283,40613.419999855,00000077,-90,64164,-176,18,0,941*41d072d2
%RAWIMUSA,2283,40613.430;2283,40613.429999855,00000077,-30,64177,-177,0,9,941*9cb603cc
%RAWIMUSA,2283,40613.440;2283,40613.439999855,00000077,-96,64165,-178,-18,8,-960*10a2f8fa
%RAWIMUSA,2283,40613.450;2283,40613.449999855,00000077,-26,64178,-169,0,-9,-923*6a5c513a
%RAWIMUSA,2283,40613.460;2283,40613.459999855,00000077,-84,64165,-177,18,0,484*a6d78bf5
%RAWIMUSA,2283,40613.470;2283,40613.469999855,00000077,-32,64177,-180,9,19,978*2d1d7d52
%RAWIMUSA,2283,40613.480;2283,40613.479999855,00000077,-98,64166,-176,-18,0,-18*99176cdb
%RAWIMUSA,2283,40613.490;2283,40613.489999855,00000077,-26,64177,-170,-18,0,-923*abdcccb4
%RAWIMUSA,2283,40613.500;2283,40613.499999855,00000077,-81,64165,-173,9,0,-502*45bbfd52
%RAWIMUSA,2283,40613.510;2283,40613.509999855,00000077,-35,64176,-184,18,0,978*efc907b9
%RAWIMUSA,2283,40613.520;2283,40613.519999855,00000077,-89,64167,-175,0,19,923*fa3e16d7
%RAWIMUSA,2283,40613.530;2283,40613.529999855,00000077,-34,64173,-170,-18,0,-896*10511ec5
%RAWIMUSA,2283,40613.540;2283,40613.539999855,00000077,-71,64167,-180,0,-10,-978*f4115604
%RAWIMUSA,2283,40613.550;2283,40613.549999855,00000077,-50,64177,-179,18,0,466*5975f0cd
%RAWIMUSA,2283,40613.560;2283,40613.559999855,00000077,-76,64165,-173,9,19,941*08da9cb4
%RAWIMUSA,2283,40613.570;2283,40613.569999855,00000077,-31,64175,-179,-18,9,82*436b7fa4
%RAWIMUSA,2283,40613.580;2283,40613.579999855,00000077,-81,64169,-173,-18,-9,-969*f7180c64
%RAWIMUSA,2283,40613.590;2283,40613.589999855,00000077,-50,64174,-173,9,0,-511*07391cae
%RAWIMUSA,2283,40613.600;2283,40613.599999855,00000077,-68,64164,-177,28,9,932*849331b1
%RAWIMUSA,2283,40613.610;2283,40613.609999855,00000077,-47,64175,-176,-8,9,978*df64cdcc
%RAWIMUSA,2283,40613.620;2283,40613.619999855,00000077,-75,64166,-174,-18,0,-886*a59a6836
%RAWIMUSA,2283,40613.630;2283,40613.629999855,00000077,-47,64173,-181,-9,0,-932*270796ca
%RAWIMUSA,2283,40613.640;2283,40613.639999855,00000077,-69,64169,-175,18,0,365*e6e0ee9c
%RAWIMUSA,2283,40613.650;2283,40613.649999855,00000077,-53,64173,-175,18,9,978*5884e778
%RAWIMUSA,2283,40613.660;2283,40613.659999855,00000077,-61,64168,-177,-18,9,82*ab5502e0
%RAWIMUSA,2283,40613.670;2283,40613.669999855,00000077,-56,64175,-176,-18,0,-914*d019af92
%RAWIMUSA,2283,40613.680;2283,40613.679999855,00000077,-66,64167,-177,18,-9,-612*71d79473
%RAWIMUSA,2283,40613.690;2283,40613.689999855,00000077,-50,64174,-178,9,9,987*59891896
%RAWIMUSA,2283,40613.700;2283,40613.699999855,00000077,-68,64170,-178,0,9,932*fb58070a
%RAWIMUSA,2283,40613.710;2283,40613.709999855,00000077,-51,64171,-172,-18,8,-795*e0231496
%RAWIMUSA,2283,40613.720;2283,40613.719999855,00000077,-63,64170,-174,0,-10,-969*70047406
%RAWIMUSA,2283,40613.730;2283,40613.729999855,00000077,-51,64172,-183,9,9,365*4f0abce5
%RAWIMUSA,2283,40613.740;2283,40613.739999855,00000077,-73,64168,-178,9,9,932*d6586030
%RAWIMUSA,2283,40613.750;2283,40613.749999855,00000077,-54,64170,-170,-18,9,182*f8b8b1a7
%RAWIMUSA,2283,40613.760;2283,40613.759999855,00000077,-58,64172,-180,-9,-9,-969*e6839692
%RAWIMUSA,2283,40613.770;2283,40613.769999855,00000077,-61,64172,-180,9,0,-621*ebdeeccb
%RAWIMUSA,2283,40613.780;2283,40613.779999855,00000077,-62,64172,-170,18,9,932*f8fed60b
%RAWIMUSA,2283,40613.790;2283,40613.789999855,00000077,-60,64171,-172,-8,9,969*0d1b12e4
%RAWIMUSA,2283,40613.800;2283,40613.799999855,00000077,-49,64172,-176,-18,0,-777*cc32e44c
%RAWIMUSA,2283,40613.810;2283,40613.809999855,00000077,-64,64171,-180,0,0,-923*8bd637f9
%RAWIMUSA,2283,40613.820;2283,40613.819999855,00000077,-62,64169,-173,18,0,265*1db46ca1
%RAWIMUSA,2283,40613.830;2283,40613.829999855,00000077,-57,64174,-172,9,9,978*db686d57
%RAWIMUSA,2283,40613.840;2283,40613.839999855,00000077,-55,64170,-177,-18,9,192*59dd9491
%RAWIMUSA,2283,40613.850;2283,40613.849999855,00000077,-63,64169,-180,-18,-9,-932*1612b443
%RAWIMUSA,2283,40613.860;2283,40613.859999855,00000077,-62,64170,-171,18,0,-703*e3bcb308
%RAWIMUSA,2283,40613.870;2283,40613.869999855,00000077,-56,64173,-174,18,9,978*e55557e7
%RAWIMUSA,2283,40613.880;2283,40613.879999855,00000077,-45,64174,-180,-8,9,932*73889720
%RAWIMUSA,2283,40613.890;2283,40613.889999855,00000077,-75,64163,-179,-18,0,-694*e276b84d
%RAWIMUSA,2283,40613.900;2283,40613.899999855,00000077,-83,64170,-177,9,-10,-978*3b92152a
%RAWIMUSA,2283,40613.910;2283,40613.909999855,00000077,-29,64177,-166,18,9,265*016e7977
%RAWIMUSA,2283,40613.920;2283,40613.919999855,00000077,-76,64165,-180,0,9,923*23c2f609
%RAWIMUSA,2283,40613.930;2283,40613.929999855,00000077,-46,64173,-183,-18,9,283*9bb07630
%RAWIMUSA,2283,40613.940;2283,40613.939999855,00000077,-83,64168,-180,-9,0,-969*28f16b06
%RAWIMUSA,2283,40613.950;2283,40613.949999855,00000077,-31,64171,-168,18,0,-713*93628c1f
%RAWIMUSA,2283,40613.960;2283,40613.959999855,00000077,-82,64164,-177,18,9,923*76d27826
%RAWIMUSA,2283,40613.970;2283,40613.969999855,00000077,-38,64179,-183,-18,9,987*52ee5321
%RAWIMUSA,2283,40613.980;2283,40613.979999855,00000077,-96,64165,-178,-9,-9,-676*2a4bd655
%RAWIMUSA,2283,40613.990;2283,40613.989999855,00000077,-17,64178,-168,0,0,-923*da81a3f9
%RAWIMUSA,2283,40614.000;2283,40613.999999855,00000077,-96,64166,-176,18,9,164*ae8f27c7
%RAWIMUSA,2283,40614.010;2283,40614.009999855,00000077,-27,64178,-176,9,9,978*e497836d
%RAWIMUSA,2283,40614.020;2283,40614.019999855,00000077,-99,64162,-180,-18,0,292*89d72453
%RAWIMUSA,2283,40614.030;2283,40614.029999855,00000077,-23,64178,-177,-9,0,-932*bfc56847
%RAWIMUSA,2283,40614.040;2283,40614.039999855,00000077,-75,64165,-166,9,0,-804*9d8f032f
%RAWIMUSA,2283,40614.050;2283,40614.049999855,00000077,-51,64176,-178,18,9,969*24e19fef
%RAWIMUSA,2283,40614.060;2283,40614.059999855,00000077,-73,64170,-183,-8,9,960*3bf7b4c9
%RAWIMUSA,2283,40614.070;2283,40614.069999855,00000077,-47,64172,-178,-18,0,-621*0dc0c52a
%RAWIMUSA,2283,40614.080;2283,40614.079999855,00000077,-53,64174,-165,0,-9,-941*3796a9fe
%RAWIMUSA,2283,40614.090;2283,40614.089999855,00000077,-72,64169,-179,18,9,128*d8cd4a7a
%RAWIMUSA,2283,40614.100;2283,40614.099999855,00000077,-50,64171,-184,0,19,969*e9356261
%RAWIMUSA,2283,40614.110;2283,40614.109999855,00000077,-71,64170,-177,-18,0,356*a946bdd5
%RAWIMUSA,2283,40614.120;2283,40614.119999855,00000077,-49,64171,-165,-9,0,-950*4ebf6818
%RAWIMUSA,2283,40614.130;2283,40614.129999855,00000077,-69,64170,-174,18,0,-831*d13aac04
%RAWIMUSA,2283,40614.140;2283,40614.139999855,00000077,-63,64169,-186,18,9,951*fa89c2a3
%RAWIMUSA,2283,40614.150;2283,40614.149999855,00000077,-45,64172,-175,-18,19,960*e5e3c6f3
%RAWIMUSA,2283,40614.160;2283,40614.159999855,00000077,-70,64170,-167,-18,-9,-566*7447beb0
%RAWIMUSA,2283,40614.170;2283,40614.169999855,00000077,-63,64171,-176,9,0,-941*ed43aef3
%RAWIMUSA,2283,40614.180;2283,40614.179999855,00000077,-55,64169,-186,18,9,91*ed4c0a5e
%RAWIMUSA,2283,40614.190;2283,40614.189999855,00000077,-60,64169,-174,-8,9,951*74d6a942
%RAWIMUSA,2283,40614.200;2283,40614.199999855,00000077,-57,64174,-167,-8,0,402*8df53abb
%RAWIMUSA,2283,40614.210;2283,40614.209999855,00000077,-70,64169,-178,-9,0,-950*ac0ebf7b
%RAWIMUSA,2283,40614.220;2283,40614.219999855,00000077,-55,64170,-186,9,0,-886*b4e6c133
%RAWIMUSA,2283,40614.230;2283,40614.229999855,00000077,-55,64170,-177,18,19,951*41da2c03
%RAWIMUSA,2283,40614.240;2283,40614.239999855,00000077,-65,64170,-165,-8,9,960*0b156b70
%RAWIMUSA,2283,40614.250;2283,40614.249999855,00000077,-61,64173,-176,-18,-9,-511*01e17058
%RAWIMUSA,2283,40614.260;2283,40614.259999855,00000077,-59,64171,-184,9,0,-941*6d1876e9
%RAWIMUSA,2283,40614.270;2283,40614.269999855,00000077,-60,64173,-174,18,9,36*22b6c1de
%RAWIMUSA,2283,40614.280;2283,40614.279999855,00000077,-63,64171,-167,-8,9,951*904c99d4
%RAWIMUSA,2283,40614.290;2283,40614.289999855,00000077,-62,64170,-176,-18,0,466*3e11cce8
%RAWIMUSA,2283,40614.300;2283,40614.299999855,00000077,-55,64170,-184,-9,-9,-950*fdd8709a
%RAWIMUSA,2283,40614.310;2283,40614.309999855,00000077,-60,64171,-173,18,8,-941*e92c4dce
%RAWIMUSA,2283,40614.320;2283,40614.319999855,00000077,-67,64169,-170,18,9,960*c4cbc568
%RAWIMUSA,2283,40614.330;2283,40614.329999855,00000077,-58,64171,-176,-18,9,951*a840492c
%RAWIMUSA,2283,40614.340;2283,40614.339999855,00000077,-54,64171,-182,-18,-9,-457*15ca888a
%RAWIMUSA,2283,40614.350;2283,40614.349999855,00000077,-59,64170,-172,9,0,-950*5322da05
%RAWIMUSA,2283,40614.360;2283,40614.359999855,00000077,-63,64172,-170,18,18,-18*7631d076
%RAWIMUSA,2283,40614.370;2283,40614.369999855,00000077,-56,64169,-181,0,9,960*875786a2
%RAWIMUSA,2283,40614.380;2283,40614.379999855,00000077,-60,64173,-180,-18,0,512*27ed51f2
%RAWIMUSA,2283,40614.390;2283,40614.389999855,00000077,-62,64169,-170,-9,-9,-950*65ba2a3b
%RAWIMUSA,2283,40614.400;2283,40614.399999855,00000077,-59,64169,-177,18,0,-941*06b1d955
%RAWIMUSA,2283,40614.410;2283,40614.409999855,00000077,-59,64170,-185,18,19,914*1e6b321d
%RAWIMUSA,2283,40614.420;2283,40614.419999855,00000077,-53,64178,-172,-18,0,951*49766a4e
%RAWIMUSA,2283,40614.430;2283,40614.429999855,00000077,-73,64166,-167,-18,0,-402*2fd3e8b0
%RAWIMUSA,2283,40614.440;2283,40614.439999855,00000077,-51,64169,-175,9,0,-941*50700864
%RAWIMUSA,2283,40614.450;2283,40614.449999855,00000077,-61,64175,-184,18,9,-73*ec1fcf86
%RAWIMUSA,2283,40614.460;2283,40614.459999855,00000077,-60,64168,-171,0,9,951*e5e5c123
%RAWIMUSA,2283,40614.470;2283,40614.469999855,00000077,-62,64172,-167,-18,0,576*38fd6a0b
%RAWIMUSA,2283,40614.480;2283,40614.479999855,00000077,-54,64169,-177,0,0,-941*4aa9dbb5
%RAWIMUSA,2283,40614.490;2283,40614.489999855,00000077,-54,64171,-184,9,8,-950*0b9f2788
%RAWIMUSA,2283,40614.500;2283,40614.499999855,00000077,-69,64169,-173,18,9,850*423e8fdd
%RAWIMUSA,2283,40614.510;2283,40614.509999855,00000077,-68,64170,-172,-18,0,960*15832f03
%RAWIMUSA,2283,40614.520;2283,40614.519999855,00000077,-50,64171,-179,-18,-9,-347*85a0802c
%RAWIMUSA,2283,40614.530;2283,40614.529999855,00000077,-60,64171,-183,9,8,-950*8af5c199
%RAWIMUSA,2283,40614.540;2283,40614.539999855,00000077,-65,64173,-170,18,9,-118*13c33067
%RAWIMUSA,2283,40614.550;2283,40614.549999855,00000077,-62,64170,-170,-8,9,960*372fbeeb
%RAWIMUSA,2283,40614.560;2283,40614.559999855,00000077,-55,64173,-180,-18,0,621*89b345ba
%RAWIMUSA,2283,40614.570;2283,40614.569999855,00000077,-56,64169,-182,0,-9,-950*49592454
%RAWIMUSA,2283,40614.580;2283,40614.579999855,00000077,-70,64170,-172,18,8,-941*3df12d77
%RAWIMUSA,2283,40614.590;2283,40614.589999855,00000077,-61,64172,-169,9,9,795*5ed8855c
%RAWIMUSA,2283,40614.600;2283,40614.599999855,00000077,-53,64172,-180,-18,0,969*58985481
%RAWIMUSA,2283,40614.610;2283,40614.609999855,00000077,-59,64170,-177,-18,0,-301*8f10a2d5
%RAWIMUSA,2283,40614.620;2283,40614.619999855,00000077,-67,64172,-175,18,0,-950*7d86600f
%RAWIMUSA,2283,40614.630;2283,40614.629999855,00000077,-62,64170,-171,18,18,-164*f3e8363e
%RAWIMUSA,2283,40614.640;2283,40614.639999855,00000077,-54,64171,-178,-8,0,941*e3c3aab8
%RAWIMUSA,2283,40614.650;2283,40614.649999855,00000077,-57,64171,-182,-18,0,676*05878884
%RAWIMUSA,2283,40614.660;2283,40614.659999855,00000077,-67,64171,-176,0,-9,-950*288093f9
%RAWIMUSA,2283,40614.670;2283,40614.669999855,00000077,-62,64170,-173,9,17,-941*c46c20bb
%RAWIMUSA,2283,40614.680;2283,40614.679999855,00000077,-55,64172,-174,9,9,749*ae05108a
%RAWIMUSA,2283,40614.690;2283,40614.689999855,00000077,-62,64170,-178,-8,0,951*c53e010a
%RAWIMUSA,2283,40614.700;2283,40614.699999855,00000077,-60,64172,-177,-18,-9,-255*7f4f768e
%RAWIMUSA,2283,40614.710;2283,40614.709999855,00000077,-61,64172,-172,9,8,-941*8e571da9
%RAWIMUSA,2283,40614.720;2283,40614.719999855,00000077,-51,64170,-174,18,8,-228*93f47300
%RAWIMUSA,2283,40614.730;2283,40614.729999855,00000077,-62,64172,-179,-8,9,951*c75ded47
%RAWIMUSA,2283,40614.740;2283,40614.739999855,00000077,-66,64173,-174,-18,-8,731*0b40f47c
%RAWIMUSA,2283,40614.750;2283,40614.749999854,00000077,-55,64172,-172,0,0,-950*7cbc7caf
%RAWIMUSA,2283,40614.760;2283,40614.759999854,00000077,-58,64169,-176,18,8,-950*36a1fbab
%RAWIMUSA,2283,40614.770;2283,40614.769999854,00000077,-61,64171,-176,9,9,695*3de92a4f
%RAWIMUSA,2283,40614.780;2283,40614.779999854,00000077,-66,64169,-179,-18,0,951*2362445b
%RAWIMUSA,2283,40614.790;2283,40614.789999854,00000077,-57,64171,-172,-18,0,-191*179362bb
%RAWIMUSA,2283,40614.800;2283,40614.799999854,00000077,-53,64174,-176,27,0,-950*9317cb82
%RAWIMUSA,2283,40614.810;2283,40614.809999854,00000077,-65,64170,-179,18,18,-274*30421c43
%RAWIMUSA,2283,40614.820;2283,40614.819999854,00000077,-60,64173,-178,-18,0,960*74dfd777
%RAWIMUSA,2283,40614.830;2283,40614.829999854,00000077,-61,64172,-174,-18,0,768*e3514cce
%RAWIMUSA,2283,40614.840;2283,40614.839999854,00000077,-58,64171,-172,9,0,-950*64e8637e
%RAWIMUSA,2283,40614.850;2283,40614.849999854,00000077,-63,64171,-178,18,8,-941*cfefe011
%RAWIMUSA,2283,40614.860;2283,40614.859999854,00000077,-60,64170,-179,0,9,640*26157312
%RAWIMUSA,2283,40614.870;2283,40614.869999854,00000077,-58,64169,-172,-18,0,960*818ce85d
%RAWIMUSA,2283,40614.880;2283,40614.879999854,00000077,-61,64170,-173,-18,-9,-137*11576e99
%RAWIMUSA,2283,40614.890;2283,40614.889999854,00000077,-62,64170,-176,18,8,-941*63cac93a
%RAWIMUSA,2283,40614.900;2283,40614.899999854,00000077,-60,64169,-177,18,8,-329*b5dd7abc
%RAWIMUSA,2283,40614.910;2283,40614.909999854,00000077,-59,64173,-175,-8,0,951*f5ac9f37
%RAWIMUSA,2283,40614.920;2283,40614.919999854,00000077,-63,64172,-175,-18,0,832*b734a097
%RAWIMUSA,2283,40614.930;2283,40614.929999854,00000077,-62,64171,-179,0,0,-941*147a9a30
%RAWIMUSA,2283,40614.940;2283,40614.939999854,00000077,-55,64170,-174,18,8,-950*c5a53829
%RAWIMUSA,2283,40614.950;2283,40614.949999854,00000077,-60,64171,-177,0,9,594*ff9f89fa
%RAWIMUSA,2283,40614.960;2283,40614.959999854,00000077,-62,64169,-175,-8,-8,960*13f6b08e
%RAWIMUSA,2283,40614.970;2283,40614.969999854,00000077,-59,64169,-179,-18,0,-100*40333409
%RAWIMUSA,2283,40614.980;2283,40614.979999854,00000077,-55,64170,-175,18,8,-950*4aa32422
%RAWIMUSA,2283,40614.990;2283,40614.989999854,00000077,-63,64173,-177,18,8,-374*c7a01d3a
%RAWIMUSA,2283,40615.000;2283,40614.999999854,00000077,-64,64167,-175,-8,0,960*7071704c
%RAWIMUSA,2283,40615.010;2283,40615.009999854,00000077,-58,64171,-173,-18,0,887*91f927b6
%RAWIMUSA,2283,40615.020;2283,40615.019999854,00000077,-60,64169,-180,0,0,-941*365471ac
%RAWIMUSA,2283,40615.030;2283,40615.029999854,00000077,-59,64172,-180,18,8,-941*ebed6a57
%RAWIMUSA,2283,40615.040;2283,40615.039999854,00000077,-65,64171,-175,0,9,548*a7437be8
%RAWIMUSA,2283,40615.050;2283,40615.049999854,00000077,-55,64172,-175,-8,0,951*2d8e84c6
%RAWIMUSA,2283,40615.060;2283,40615.059999854,00000077,-60,64172,-176,-18,-9,-36*670cd293
%RAWIMUSA,2283,40615.070;2283,40615.069999854,00000077,-59,64177,-181,18,17,-941*975f55a1
%RAWIMUSA,2283,40615.080;2283,40615.079999854,00000077,-78,64166,-177,18,8,-438*83cb1561
%RAWIMUSA,2283,40615.090;2283,40615.089999854,00000077,-43,64171,-176,-18,0,969*4fd22749
%RAWIMUSA,2283,40615.100;2283,40615.099999854,00000077,-55,64170,-175,-8,-8,932*3a8fbceb
%RAWIMUSA,2283,40615.110;2283,40615.109999854,00000077,-65,64170,-180,0,8,-950*9619019f
%RAWIMUSA,2283,40615.120;2283,40615.119999854,00000077,-62,64171,-178,18,8,-941*d1e9b293
%RAWIMUSA,2283,40615.130;2283,40615.129999854,00000077,-60,64169,-174,0,9,484*011d1b3b
%RAWIMUSA,2283,40615.140;2283,40615.139999854,00000077,-53,64173,-176,-8,-8,960*de0c25b0
%RAWIMUSA,2283,40615.150;2283,40615.149999854,00000077,-63,64170,-178,-18,0,0*6cb63456
%RAWIMUSA,2283,40615.160;2283,40615.159999854,00000077,-64,64171,-175,18,8,-950*8d4ef428
%RAWIMUSA,2283,40615.170;2283,40615.169999854,00000077,-51,64171,-172,18,8,-484*03935f46
%RAWIMUSA,2283,40615.180;2283,40615.179999854,00000077,-62,64170,-173,-18,0,951*820efbf1
%RAWIMUSA,2283,40615.190;2283,40615.189999854,00000077,-64,64171,-178,-18,0,960*e1e3a02a
%RAWIMUSA,2283,40615.200;2283,40615.199999854,00000077,-63,64173,-175,9,0,-914*6590a02f
%RAWIMUSA,2283,40615.210;2283,40615.209999854,00000077,-57,64170,-172,18,17,-950*ce7e72f2
%RAWIMUSA,2283,40615.220;2283,40615.219999854,00000077,-53,64172,-175,0,0,439*690e6710
%RAWIMUSA,2283,40615.230;2283,40615.229999854,00000077,-69,64172,-178,-18,0,951*142ca137
%RAWIMUSA,2283,40615.240;2283,40615.239999854,00000077,-59,64171,-176,-9,-9,54*93bf7369
%RAWIMUSA,2283,40615.250;2283,40615.249999854,00000077,-54,64172,-176,18,17,-950*58f205d7
%RAWIMUSA,2283,40615.260;2283,40615.259999854,00000077,-60,64171,-176,18,8,-539*78ececd7
%RAWIMUSA,2283,40615.270;2283,40615.269999854,00000077,-62,64171,-176,-18,0,960*385d863d
%RAWIMUSA,2283,40615.280;2283,40615.279999854,00000077,-62,64170,-178,-18,-8,960*536bf66f
%RAWIMUSA,2283,40615.290;2283,40615.289999854,00000077,-54,64170,-173,9,8,-877*2abf19d2
%RAWIMUSA,2283,40615.300;2283,40615.299999854,00000077,-57,64170,-177,18,8,-941*b5618d6d
%RAWIMUSA,2283,40615.310;2283,40615.309999854,00000077,-66,64171,-178,0,9,384*1d6ce2e3
%RAWIMUSA,2283,40615.320;2283,40615.319999854,00000077,-61,64171,-171,-18,-8,969*e205e291
%RAWIMUSA,2283,40615.330;2283,40615.329999854,00000077,-54,64168,-178,-9,0,118*7a41bbeb
%RAWIMUSA,2283,40615.340;2283,40615.339999854,00000077,-59,64170,-180,18,8,-941*905dff5e
%RAWIMUSA,2283,40615.350;2283,40615.349999854,00000077,-65,64172,-174,18,8,-585*2d9188ee
%RAWIMUSA,2283,40615.360;2283,40615.359999854,00000077,-63,64171,-173,-18,0,951*2f4d8d95
%RAWIMUSA,2283,40615.370;2283,40615.369999854,00000077,-53,64170,-179,-18,-8,951*47710f22
%RAWIMUSA,2283,40615.380;2283,40615.379999854,00000077,-59,64171,-182,9,8,-813*6a1390fb
%RAWIMUSA,2283,40615.390;2283,40615.389999854,00000077,-69,64170,-173,18,8,-950*ed2589d4
%RAWIMUSA,2283,40615.400;2283,40615.399999854,00000077,-57,64169,-171,0,9,338*688966ae
%RAWIMUSA,2283,40615.410;2283,40615.409999854,00000077,-55,64173,-176,-18,-8,951*b4021865
%RAWIMUSA,2283,40615.420;2283,40615.419999854,00000077,-63,64172,-177,-9,0,155*6ca99701
%RAWIMUSA,2283,40615.430;2283,40615.429999854,00000077,-64,64172,-174,27,17,-941*ca96db3e
%RAWIMUSA,2283,40615.440;2283,40615.439999854,00000077,-61,64169,-175,9,8,-630*d1a7aa80
%RAWIMUSA,2283,40615.450;2283,40615.449999854,00000077,-53,64173,-177,-18,0,951*c739fe13
%RAWIMUSA,2283,40615.460;2283,40615.459999854,00000077,-66,64169,-177,-8,-8,951*76748851
%RAWIMUSA,2283,40615.470;2283,40615.469999854,00000077,-63,64170,-176,9,8,-767*3c8b770f
%RAWIMUSA,2283,40615.480;2283,40615.479999854,00000077,-52,64170,-179,18,8,-932*a0513f44
%RAWIMUSA,2283,40615.490;2283,40615.489999854,00000077,-59,64172,-176,-8,9,283*81b1f3fc
%RAWIMUSA,2283,40615.500;2283,40615.499999854,00000077,-64,64170,-175,-18,-8,951*62ff936f
%RAWIMUSA,2283,40615.510;2283,40615.509999854,00000077,-65,64171,-175,0,0,210*c96b3e9f
%RAWIMUSA,2283,40615.520;2283,40615.519999854,00000077,-56,64172,-177,18,17,-941*fc992ed0
%RAWIMUSA,2283,40615.530;2283,40615.529999854,00000077,-53,64171,-173,9,8,-694*9c09ba71
%RAWIMUSA,2283,40615.540;2283,40615.539999854,00000077,-66,64173,-172,-18,-8,960*f52fc15a
%RAWIMUSA,2283,40615.550;2283,40615.549999854,00000077,-64,64168,-173,-8,-8,951*c387a8e8
%RAWIMUSA,2283,40615.560;2283,40615.559999854,00000077,-53,64170,-175,9,17,-713*44c4ecc2
%RAWIMUSA,2283,40615.570;2283,40615.569999854,00000077,-61,64170,-183,18,8,-941*8b507a2b
%RAWIMUSA,2283,40615.580;2283,40615.579999854,00000077,-65,64169,-178,0,0,228*84221961
%RAWIMUSA,2283,40615.590;2283,40615.589999854,00000077,-62,64169,-170,-18,0,951*b61dc916
%RAWIMUSA,2283,40615.600;2283,40615.599999854,00000077,-53,64174,-175,0,0,274*3249b88a
%RAWIMUSA,2283,40615.610;2283,40615.609999854,00000077,-61,64171,-178,9,8,-941*567ddd36
%RAWIMUSA,2283,40615.620;2283,40615.619999854,00000077,-67,64172,-177,18,8,-740*7ce7f6e3
%RAWIMUSA,2283,40615.630;2283,40615.629999854,00000077,-58,64170,-170,-18,0,960*23fbbe19
%RAWIMUSA,2283,40615.640;2283,40615.639999854,00000077,-53,64171,-177,-18,0,960*cefe0a99
%RAWIMUSA,2283,40615.650;2283,40615.649999854,00000077,-60,64170,-180,18,8,-658*d02b16df
%RAWIMUSA,2283,40615.660;2283,40615.659999854,00000077,-66,64171,-177,18,8,-941*b4406ba6
%RAWIMUSA,2283,40615.670;2283,40615.669999854,00000077,-59,64168,-174,-9,0,192*b205b11b
%RAWIMUSA,2283,40615.680;2283,40615.679999854,00000077,-52,64170,-174,-18,-8,951*84b4819e
%RAWIMUSA,2283,40615.690;2283,40615.689999854,00000077,-64,64171,-181,0,9,329*2a21709c
%RAWIMUSA,2283,40615.700;2283,40615.699999854,00000077,-67,64170,-175,18,8,-941*acbbe831
%RAWIMUSA,2283,40615.710;2283,40615.709999854,00000077,-53,64170,-174,9,8,-786*a9daeb42
%RAWIMUSA,2283,40615.720;2283,40615.719999854,00000077,-55,64170,-175,-18,0,960*8d2363e4
%RAWIMUSA,2283,40615.730;2283,40615.729999854,00000077,-66,64172,-177,-18,-8,951*58ffbb39
%RAWIMUSA,2283,40615.740;2283,40615.739999854,00000077,-64,64172,-177,18,17,-594*e8c3964c
%RAWIMUSA,2283,40615.750;2283,40615.749999854,00000077,-57,64172,-173,18,8,-941*c98efa01
%RAWIMUSA,2283,40615.760;2283,40615.759999854,00000077,-55,64169,-174,-9,-9,137*f6960bb0
%RAWIMUSA,2283,40615.770;2283,40615.769999854,00000077,-63,64172,-178,-18,0,951*32660294
%RAWIMUSA,2283,40615.780;2283,40615.779999854,00000077,-65,64172,-175,0,9,365*a5d5af61
%RAWIMUSA,2283,40615.790;2283,40615.789999854,00000077,-54,64170,-173,18,8,-960*7574d74a
%RAWIMUSA,2283,40615.800;2283,40615.799999854,00000077,-61,64171,-177,9,8,-841*49df0960
%RAWIMUSA,2283,40615.810;2283,40615.809999854,00000077,-61,64171,-176,-18,-8,941*8134a70e
%RAWIMUSA,2283,40615.820;2283,40615.819999854,00000077,-60,64170,-174,-18,0,960*3e485781
%RAWIMUSA,2283,40615.830;2283,40615.829999854,00000077,-58,64172,-173,18,8,-557*807651b7
%RAWIMUSA,2283,40615.840;2283,40615.839999854,00000077,-57,64173,-173,18,17,-941*ebb9d520
%RAWIMUSA,2283,40615.850;2283,40615.849999854,00000077,-65,64170,-182,-9,-9,73*9e8c4d20
%RAWIMUSA,2283,40615.860;2283,40615.859999854,00000077,-63,64172,-178,-18,0,960*01541d8e
%RAWIMUSA,2283,40615.870;2283,40615.869999854,00000077,-57,64171,-165,0,9,411*2429c473
%RAWIMUSA,2283,40615.880;2283,40615.879999854,00000077,-60,64169,-173,18,8,-941*cf2abb7d
%RAWIMUSA,2283,40615.890;2283,40615.889999854,00000077,-61,64171,-184,0,8,-896*c46a0d11
%RAWIMUSA,2283,40615.900;2283,40615.899999854,00000077,-58,64169,-184,-18,-8,960*f44c0697
%RAWIMUSA,2283,40615.910;2283,40615.909999854,00000077,-60,64170,-170,-8,0,941*dbd71570
%RAWIMUSA,2283,40615.920;2283,40615.919999854,00000077,-60,64171,-174,18,8,-502*6f7b4f4e
%RAWIMUSA,2283,40615.930;2283,40615.929999854,00000077,-56,64171,-178,18,17,-932*287f2f90
%RAWIMUSA,2283,40615.940;2283,40615.939999854,00000077,-58,64171,-179,-18,-9,18*f7fa0477
%RAWIMUSA,2283,40615.950;2283,40615.949999854,00000077,-60,64170,-172,-18,0,960*d831c603
%RAWIMUSA,2283,40615.960;2283,40615.959999854,00000077,-63,64169,-176,0,0,475*ec2dbeec
%RAWIMUSA,2283,40615.970;2283,40615.969999854,00000077,-58,64169,-178,18,17,-950*4349c4b9
%RAWIMUSA,2283,40615.980;2283,40615.979999854,00000077,-56,64170,-177,9,0,-941*f05e8a4e
%RAWIMUSA,2283,40615.990;2283,40615.989999854,00000077,-63,64170,-173,-18,-8,951*477f0f26
%RAWIMUSA,2283,40616.000;2283,40615.999999854,00000077,-60,64170,-175,-8,0,960*c61ddc0d
%RAWIMUSA,2283,40616.010;2283,40616.009999854,00000077,-60,64170,-180,18,8,-447*46e142bf
%RAWIMUSA,2283,40616.020;2283,40616.019999854,00000077,-58,64170,-178,18,8,-941*286de792
%RAWIMUSA,2283,40616.030;2283,40616.029999854,00000077,-65,64172,-174,-18,0,-18*5d2ce969
%RAWIMUSA,2283,40616.040;2283,40616.039999854,00000077,-61,64171,-174,-18,-8,951*7735b9ec
%RAWIMUSA,2283,40616.050;2283,40616.049999854,00000077,-59,64170,-182,9,9,521*735302dc
%RAWIMUSA,2283,40616.060;2283,40616.059999854,00000077,-58,64169,-176,9,8,-941*e2608fb2
%RAWIMUSA,2283,40616.070;2283,40616.069999854,00000077,-63,64172,-173,0,0,-941*1e81687f
%RAWIMUSA,2283,40616.080;2283,40616.079999854,00000077,-61,64173,-174,-18,0,905*7785d5b1
%RAWIMUSA,2283,40616.090;2283,40616.089999854,00000077,-59,64171,-178,-8,0,951*9a922d99
%RAWIMUSA,2283,40616.100;2283,40616.099999854,00000077,-54,64172,-180,18,8,-402*05cc91c4
%RAWIMUSA,2283,40616.110;2283,40616.109999854,00000077,-70,64172,-174,18,8,-941*7410aef5
%RAWIMUSA,2283,40616.120;2283,40616.119999854,00000077,-62,64174,-175,-18,-9,-82*cc93da97
%RAWIMUSA,2283,40616.130;2283,40616.129999854,00000077,-54,64169,-177,-18,0,951*7335bd0f
%RAWIMUSA,2283,40616.140;2283,40616.139999854,00000077,-56,64170,-178,9,9,576*a5460139
%RAWIMUSA,2283,40616.150;2283,40616.149999854,00000077,-62,64171,-176,18,17,-941*1301b997
%RAWIMUSA,2283,40616.160;2283,40616.159999854,00000077,-65,64170,-176,0,-9,-941*fa9f7e69
%RAWIMUSA,2283,40616.170;2283,40616.169999854,00000077,-55,64174,-175,-18,0,841*219ae289
%RAWIMUSA,2283,40616.180;2283,40616.179999854,00000077,-58,64171,-177,-8,0,951*88c8d57f
%RAWIMUSA,2283,40616.190;2283,40616.189999854,00000077,-67,64173,-177,18,8,-347*95090a85
%RAWIMUSA,2283,40616.200;2283,40616.199999854,00000077,-62,64171,-172,18,8,-941*6f0f8198
%RAWIMUSA,2283,40616.210;2283,40616.209999854,00000077,-53,64168,-180,-18,0,-127*a7dc6dc6
%RAWIMUSA,2283,40616.220;2283,40616.219999854,00000077,-54,64172,-179,-18,-8,941*0d268153
%RAWIMUSA,2283,40616.230;2283,40616.229999854,00000077,-67,64172,-166,9,18,631*5eb29d1c
%RAWIMUSA,2283,40616.240;2283,40616.239999854,00000077,-64,64169,-172,18,8,-941*d24de6a3
%RAWIMUSA,2283,40616.250;2283,40616.249999854,00000077,-52,64169,-183,0,0,-960*86557ce4
%RAWIMUSA,2283,40616.260;2283,40616.259999854,00000077,-58,64170,-178,-18,-8,795*cd54cdb0
%RAWIMUSA,2283,40616.270;2283,40616.269999854,00000077,-68,64169,-171,-8,9,960*c9e5dca9
%RAWIMUSA,2283,40616.280;2283,40616.279999854,00000077,-61,64169,-177,18,8,-301*cfe03e38
%RAWIMUSA,2283,40616.290;2283,40616.289999854,00000077,-54,64173,-181,9,0,-932*90f4c834
%RAWIMUSA,2283,40616.300;2283,40616.299999854,00000077,-66,64171,-174,-18,0,-191*f57c6ea3
%RAWIMUSA,2283,40616.310;2283,40616.309999854,00000077,-63,64170,-168,-8,0,951*cabd7391
%RAWIMUSA,2283,40616.320;2283,40616.319999854,00000077,-56,64172,-177,9,9,676*e0523c1e
%RAWIMUSA,2283,40616.330;2283,40616.329999854,00000077,-55,64173,-180,18,8,-950*63c8afec
%RAWIMUSA,2283,40616.340;2283,40616.339999854,00000077,-63,64170,-176,-9,0,-941*3a49a402
%RAWIMUSA,2283,40616.350;2283,40616.349999854,00000077,-63,64171,-173,-8,-8,740*0f3583dd
%RAWIMUSA,2283,40616.360;2283,40616.359999854,00000077,-55,64171,-178,-8,9,969*fb2bc33d
%RAWIMUSA,2283,40616.370;2283,40616.369999854,00000077,-57,64172,-177,18,8,-246*cfac5671
%RAWIMUSA,2283,40616.380;2283,40616.379999854,00000077,-65,64171,-174,18,0,-950*1876a535
%RAWIMUSA,2283,40616.390;2283,40616.389999854,00000077,-63,64170,-174,-18,0,-237*e468aa10
%RAWIMUSA,2283,40616.400;2283,40616.399999854,00000077,-53,64171,-176,-18,0,951*0f051b83
%RAWIMUSA,2283,40616.410;2283,40616.409999854,00000077,-57,64170,-175,9,9,740*e57fb244
%RAWIMUSA,2283,40616.420;2283,40616.419999854,00000077,-66,64169,-173,18,8,-950*b5890481
%RAWIMUSA,2283,40616.430;2283,40616.429999854,00000077,-59,64171,-179,0,0,-932*ddeea148
%RAWIMUSA,2283,40616.440;2283,40616.439999854,00000077,-53,64171,-179,-18,-8,695*2a77fee6
%RAWIMUSA,2283,40616.450;2283,40616.449999854,00000077,-57,64173,-178,0,9,960*9deef50c
%RAWIMUSA,2283,40616.460;2283,40616.459999854,00000077,-68,64172,-172,9,18,-191*79975931
%RAWIMUSA,2283,40616.470;2283,40616.469999854,00000077,-59,64171,-174,18,0,-941*eb78ee35
%RAWIMUSA,2283,40616.480;2283,40616.479999854,00000077,-54,64171,-178,-18,-9,-283*c5c1fec7
%RAWIMUSA,2283,40616.490;2283,40616.489999854,00000077,-62,64170,-181,-18,9,960*b8fa5f33
%RAWIMUSA,2283,40616.500;2283,40616.499999854,00000077,-62,64170,-172,18,9,777*2e4e7384
%RAWIMUSA,2283,40616.510;2283,40616.509999854,00000077,-57,64172,-173,18,8,-941*e237b37f
%RAWIMUSA,2283,40616.520;2283,40616.519999854,00000077,-58,64170,-178,-9,0,-941*78e7c8cc
%RAWIMUSA,2283,40616.530;2283,40616.529999854,00000077,-59,64172,-180,-18,-8,640*c08cb31b
%RAWIMUSA,2283,40616.540;2283,40616.539999854,00000077,-64,64171,-171,-8,9,951*812ba8cd
%RAWIMUSA,2283,40616.550;2283,40616.549999854,00000077,-56,64171,-174,18,18,-137*28fe0f21
%RAWIMUSA,2283,40616.560;2283,40616.559999854,00000077,-53,64171,-178,9,-9,-941*9965f4b8
%RAWIMUSA,2283,40616.570;2283,40616.569999854,00000077,-67,64169,-178,-18,0,-338*ecd35483
%RAWIMUSA,2283,40616.580;2283,40616.579999854,00000077,-64,64172,-173,-18,0,960*a7e8e9a2
%RAWIMUSA,2283,40616.590;2283,40616.589999854,00000077,-58,64170,-175,18,18,832*402c492d
%RAWIMUSA,2283,40616.600;2283,40616.599999854,00000077,-53,64169,-179,18,0,-941*025668e0
%RAWIMUSA,2283,40616.610;2283,40616.609999854,00000077,-65,64171,-179,-9,0,-932*dbdd50e7
%RAWIMUSA,2283,40616.620;2283,40616.619999854,00000077,-66,64173,-170,-8,0,585*c386e070
%RAWIMUSA,2283,40616.630;2283,40616.629999854,00000077,-55,64170,-173,0,9,951*5c3a900e
%RAWIMUSA,2283,40616.640;2283,40616.639999854,00000077,-56,64170,-182,9,9,-91*76af184e
%RAWIMUSA,2283,40616.650;2283,40616.649999854,00000077,-64,64170,-173,18,-10,-941*132b7b1e
%RAWIMUSA,2283,40616.660;2283,40616.659999853,00000077,-58,64175,-170,-18,0,-383*d042ff6c
%RAWIMUSA,2283,40616.670;2283,40616.669999853,00000077,-57,64167,-184,-18,9,951*2510aead
%RAWIMUSA,2283,40616.680;2283,40616.679999853,00000077,-57,64172,-177,18,9,887*cb3eddc4
%RAWIMUSA,2283,40616.690;2283,40616.689999853,00000077,-66,64171,-170,18,8,-941*ea29fde5
%RAWIMUSA,2283,40616.700;2283,40616.699999853,00000077,-61,64171,-173,-9,-9,-941*04e024a6
%RAWIMUSA,2283,40616.710;2283,40616.709999853,00000077,-50,64171,-180,-18,0,530*2f2d4f1b
%RAWIMUSA,2283,40616.720;2283,40616.719999853,00000077,-63,64171,-181,0,9,960*c03f0c27
%RAWIMUSA,2283,40616.730;2283,40616.729999853,00000077,-68,64171,-170,18,18,-36*880c7be8
%RAWIMUSA,2283,40616.740;2283,40616.739999853,00000077,-57,64171,-170,9,-9,-941*26c5abb8
%RAWIMUSA,2283,40616.750;2283,40616.749999853,00000077,-47,64171,-184,-18,0,-429*b452448a
%RAWIMUSA,2283,40616.760;2283,40616.759999853,00000077,-58,64170,-179,-18,0,951*1a8095a3
%RAWIMUSA,2283,40616.770;2283,40616.769999853,00000077,-72,64172,-169,18,19,941*31f8c937
%RAWIMUSA,2283,40616.780;2283,40616.779999853,00000077,-58,64171,-169,18,0,-941*966ec56c
%RAWIMUSA,2283,40616.790;2283,40616.789999853,00000077,-49,64173,-184,-9,0,-941*f9113522
%RAWIMUSA,2283,40616.800;2283,40616.799999853,00000077,-63,64170,-180,-18,0,484*8f0401cc
%RAWIMUSA,2283,40616.810;2283,40616.809999853,00000077,-67,64172,-171,0,9,951*f21c3d3f
%RAWIMUSA,2283,40616.820;2283,40616.819999853,00000077,-58,64169,-171,27,9,18*fc0a289a
%RAWIMUSA,2283,40616.830;2283,40616.829999853,00000077,-53,64170,-181,0,0,-950*25c440cd
%RAWIMUSA,2283,40616.840;2283,40616.839999853,00000077,-65,64172,-177,-18,-9,-484*baefd1fa
%RAWIMUSA,2283,40616.850;2283,40616.849999853,00000077,-68,64170,-173,-8,9,951*e24152d2
%RAWIMUSA,2283,40616.860;2283,40616.859999853,00000077,-53,64171,-177,18,9,941*c962be68
%RAWIMUSA,2283,40616.870;2283,40616.869999853,00000077,-53,64172,-178,18,8,-905*8a56e7ab
%RAWIMUSA,2283,40616.880;2283,40616.879999853,00000077,-69,64168,-175,-9,-9,-950*63f56211
%RAWIMUSA,2283,40616.890;2283,40616.889999853,00000077,-62,64172,-175,-18,0,438*d1ce58ad
%RAWIMUSA,2283,40616.900;2283,40616.899999853,00000077,-56,64172,-176,0,19,960*71acab84
%RAWIMUSA,2283,40616.910;2283,40616.909999853,00000077,-53,64171,-177,18,9,64*8d4bb913
%RAWIMUSA,2283,40616.920;2283,40616.919999853,00000077,-67,64171,-177,0,-9,-941*5d190fa8
%RAWIMUSA,2283,40616.930;2283,40616.929999853,00000077,-65,64172,-174,-9,0,-548*7b98cc19
%RAWIMUSA,2283,40616.940;2283,40616.939999853,00000077,-54,64170,-176,-18,9,960*3edfbb5f
%RAWIMUSA,2283,40616.950;2283,40616.949999853,00000077,-57,64170,-177,18,19,960*76af8a65
%RAWIMUSA,2283,40616.960;2283,40616.959999853,00000077,-66,64174,-177,18,0,-850*ba9afc9b
%RAWIMUSA,2283,40616.970;2283,40616.969999853,00000077,-61,64171,-171,-18,-9,-941*1d9414f0
%RAWIMUSA,2283,40616.980;2283,40616.979999853,00000077,-50,64171,-179,-18,0,374*0f979c3c
%RAWIMUSA,2283,40616.990;2283,40616.989999853,00000077,-57,64170,-180,9,19,951*2360fc54
%RAWIMUSA,2283,40617.000;2283,40616.999999853,00000077,-71,64170,-169,18,0,109*77679436
%RAWIMUSA,2283,40617.010;2283,40617.009999853,00000077,-64,64167,-172,0,0,-941*e93c21e5
%RAWIMUSA,2283,40617.020;2283,40617.019999853,00000077,-50,64169,-181,-18,0,-594*f0e89bd7
%RAWIMUSA,2283,40617.030;2283,40617.029999853,00000077,-60,64171,-179,-8,9,951*b65f8b76
%RAWIMUSA,2283,40617.040;2283,40617.039999853,00000077,-71,64166,-173,18,9,951*8f0ead8a
%RAWIMUSA,2283,40617.050;2283,40617.049999853,00000077,-57,64169,-174,18,0,-786*1938b491
%RAWIMUSA,2283,40617.060;2283,40617.059999853,00000077,-44,64170,-181,-18,-9,-950*efd7f00e
%RAWIMUSA,2283,40617.070;2283,40617.069999853,00000077,-64,64174,-177,-18,9,320*5ffb2e25
%RAWIMUSA,2283,40617.080;2283,40617.079999853,00000077,-75,64174,-166,9,9,960*c28d86b0
%RAWIMUSA,2283,40617.090;2283,40617.089999853,00000077,-54,64167,-177,18,9,173*071e2336
%RAWIMUSA,2283,40617.100;2283,40617.099999853,00000077,-44,64169,-183,0,0,-950*f869a321
%RAWIMUSA,2283,40617.110;2283,40617.109999853,00000077,-67,64172,-175,-18,-9,-639*bed4f238
%RAWIMUSA,2283,40617.120;2283,40617.119999853,00000077,-77,64173,-163,-8,19,951*8ba9cf89
%RAWIMUSA,2283,40617.130;2283,40617.129999853,00000077,-51,64171,-171,18,9,960*cd87f4e7
%RAWIMUSA,2283,40617.140;2283,40617.139999853,00000077,-44,64171,-187,18,0,-749*5ccab5e0
%RAWIMUSA,2283,40617.150;2283,40617.149999853,00000077,-70,64170,-178,-18,-9,-950*9a84f6ae
%RAWIMUSA,2283,40617.160;2283,40617.159999853,00000077,-69,64174,-166,-18,9,292*d6671ee5
%RAWIMUSA,2283,40617.170;2283,40617.169999853,00000077,-51,64171,-176,9,9,951*204f9c12
%RAWIMUSA,2283,40617.180;2283,40617.179999853,00000077,-47,64171,-184,9,0,219*059b2402
%RAWIMUSA,2283,40617.190;2283,40617.189999853,00000077,-70,64172,-172,0,0,-941*09413aba
%RAWIMUSA,2283,40617.200;2283,40617.199999853,00000077,-69,64170,-167,-18,0,-685*fc6b2e52
%RAWIMUSA,2283,40617.210;2283,40617.209999853,00000077,-48,64169,-179,-8,9,960*1815de3b
%RAWIMUSA,2283,40617.220;2283,40617.219999853,00000077,-52,64173,-183,18,9,951*3a20d991
%RAWIMUSA,2283,40617.230;2283,40617.229999853,00000077,-69,64169,-171,18,0,-713*4cb01bc6
%RAWIMUSA,2283,40617.240;2283,40617.239999853,00000077,-70,64172,-167,-18,-9,-941*4f69ef23
%RAWIMUSA,2283,40617.250;2283,40617.249999853,00000077,-48,64173,-181,-18,9,237*051472db
%RAWIMUSA,2283,40617.260;2283,40617.259999853,00000077,-52,64171,-184,9,9,951*9d522290
%RAWIMUSA,2283,40617.270;2283,40617.269999853,00000077,-70,64174,-172,18,9,274*c7b25d4d
%RAWIMUSA,2283,40617.280;2283,40617.279999853,00000077,-66,64171,-171,0,0,-941*c6c20166
%RAWIMUSA,2283,40617.290;2283,40617.289999853,00000077,-55,64171,-178,-18,-9,-758*124bc541
%RAWIMUSA,2283,40617.300;2283,40617.299999853,00000077,-54,64169,-185,-8,19,960*15882e13
%RAWIMUSA,2283,40617.310;2283,40617.309999853,00000077,-69,64170,-172,18,9,951*47c8f897
%RAWIMUSA,2283,40617.320;2283,40617.319999853,00000077,-60,64170,-170,18,-9,-649*7e8ad115
%RAWIMUSA,2283,40617.330;2283,40617.329999853,00000077,-53,64170,-182,-18,0,-941*f5f663ab
%RAWIMUSA,2283,40617.340;2283,40617.339999853,00000077,-56,64174,-181,-18,9,164*8a24be58
%RAWIMUSA,2283,40617.350;2283,40617.349999853,00000077,-68,64170,-174,9,9,960*bdb51de2
%RAWIMUSA,2283,40617.360;2283,40617.359999853,00000077,-66,64171,-168,18,0,320*f20b072c
%RAWIMUSA,2283,40617.370;2283,40617.369999853,00000077,-53,64171,-178,0,0,-932*b503e402
%RAWIMUSA,2283,40617.380;2283,40617.379999853,00000077,-58,64171,-184,-18,0,-795*37a3adf5
%RAWIMUSA,2283,40617.390;2283,40617.389999853,00000077,-69,64173,-172,-8,9,951*bc71b43e
%RAWIMUSA,2283,40617.400;2283,40617.399999853,00000077,-60,64170,-169,18,9,951*5720760e
%RAWIMUSA,2283,40617.410;2283,40617.409999853,00000077,-55,64169,-182,18,0,-612*c6a9880f
%RAWIMUSA,2283,40617.420;2283,40617.419999853,00000077,-55,64175,-186,-18,-9,-932*4222c972
%RAWIMUSA,2283,40617.430;2283,40617.429999853,00000077,-66,64171,-168,-18,18,118*5ec58035
%RAWIMUSA,2283,40617.440;2283,40617.439999853,00000077,-62,64172,-167,18,9,960*d8bdf35f
%RAWIMUSA,2283,40617.450;2283,40617.449999853,00000077,-54,64171,-181,9,0,374*88e1cd20
%RAWIMUSA,2283,40617.460;2283,40617.459999853,00000077,-63,64172,-187,0,-9,-960*a96ec49f
%RAWIMUSA,2283,40617.470;2283,40617.469999853,00000077,-63,64169,-170,-18,8,-841*21c80857
%RAWIMUSA,2283,40617.480;2283,40617.479999853,00000077,-59,64170,-167,0,9,951*52f206a2
%RAWIMUSA,2283,40617.490;2283,40617.489999853,00000077,-57,64168,-183,9,9,960*e9720e9a
%RAWIMUSA,2283,40617.500;2283,40617.499999853,00000077,-59,64170,-184,9,0,-548*f71ddfe2
%RAWIMUSA,2283,40617.510;2283,40617.509999853,00000077,-65,64173,-166,-18,-9,-950*f2c5c03c
%RAWIMUSA,2283,40617.520;2283,40617.519999853,00000077,-58,64172,-172,-9,9,73*003e7ef3
%RAWIMUSA,2283,40617.530;2283,40617.529999853,00000077,-55,64173,-181,9,19,960*90e257cd
%RAWIMUSA,2283,40617.540;2283,40617.539999853,00000077,-61,64173,-182,18,0,420*763028ba
%RAWIMUSA,2283,40617.550;2283,40617.549999853,00000077,-64,64169,-169,-9,-9,-941*60439341
%RAWIMUSA,2283,40617.560;2283,40617.559999853,00000077,-61,64171,-169,-18,8,-896*6e7e0336
%RAWIMUSA,2283,40617.570;2283,40617.569999853,00000077,-54,64171,-181,0,9,941*72c40f81
%RAWIMUSA,2283,40617.580;2283,40617.579999853,00000077,-60,64169,-184,18,9,960*c0779c20
%RAWIMUSA,2283,40617.590;2283,40617.589999853,00000077,-66,64172,-167,9,0,-502*af1d6922
%RAWIMUSA,2283,40617.600;2283,40617.599999853,00000077,-56,64172,-166,-18,-9,-941*53290563
%RAWIMUSA,2283,40617.610;2283,40617.609999853,00000077,-57,64170,-181,-18,18,27*3710b5c4
%RAWIMUSA,2283,40617.620;2283,40617.619999853,00000077,-60,64173,-188,18,9,941*8db9eff1
%RAWIMUSA,2283,40617.630;2283,40617.629999853,00000077,-63,64169,-170,18,0,484*9824db73
%RAWIMUSA,2283,40617.640;2283,40617.639999853,00000077,-58,64173,-165,-18,-9,-941*fc6b6b27
%RAWIMUSA,2283,40617.650;2283,40617.649999853,00000077,-50,64173,-182,-9,8,-941*eb6d7dcf
%RAWIMUSA,2283,40617.660;2283,40617.659999853,00000077,-64,64171,-187,0,9,951*ae9245ea
%RAWIMUSA,2283,40617.670;2283,40617.669999853,00000077,-69,64170,-169,18,0,960*4d4dda12
%RAWIMUSA,2283,40617.680;2283,40617.679999853,00000077,-57,64171,-163,9,0,-438*0fcfd6b5
%RAWIMUSA,2283,40617.690;2283,40617.689999853,00000077,-52,64171,-185,-18,0,-941*7d305fbd
%RAWIMUSA,2283,40617.700;2283,40617.699999853,00000077,-64,64170,-190,-18,9,-36*58bc3f51
%RAWIMUSA,2283,40617.710;2283,40617.709999853,00000077,-65,64170,-169,18,9,960*9e59e2d3
%RAWIMUSA,2283,40617.720;2283,40617.719999853,00000077,-55,64171,-164,18,0,539*252d6ce7
%RAWIMUSA,2283,40617.730;2283,40617.729999853,00000077,-54,64169,-180,-9,-9,-950*9b3c61c9
%RAWIMUSA,2283,40617.740;2283,40617.739999853,00000077,-72,64174,-186,-18,8,-950*fb29f434
%RAWIMUSA,2283,40617.750;2283,40617.749999853,00000077,-64,64171,-172,0,9,896*1adf2fb1
%RAWIMUSA,2283,40617.760;2283,40617.759999853,00000077,-48,64170,-163,28,0,960*2225f5d9
%RAWIMUSA,2283,40617.770;2283,40617.769999853,00000077,-61,64171,-182,0,0,-383*fedf1050
%RAWIMUSA,2283,40617.780;2283,40617.779999853,00000077,-65,64170,-184,-18,0,-950*732da17b
%RAWIMUSA,2283,40617.790;2283,40617.789999853,00000077,-63,64169,-170,-9,9,-82*aaf4ff8b
%RAWIMUSA,2283,40617.800;2283,40617.799999853,00000077,-51,64170,-171,18,19,960*e8aa0c60
%RAWIMUSA,2283,40617.810;2283,40617.809999853,00000077,-57,64173,-177,18,-8,594*70b3fb35
%RAWIMUSA,2283,40617.820;2283,40617.819999853,00000077,-68,64169,-188,-18,0,-941*8f8adeb5
%RAWIMUSA,2283,40617.830;2283,40617.829999853,00000077,-60,64172,-174,-18,8,-941*9831312f
%RAWIMUSA,2283,40617.840;2283,40617.839999853,00000077,-52,64172,-168,9,9,850*8fd19b64
%RAWIMUSA,2283,40617.850;2283,40617.849999853,00000077,-60,64172,-177,18,0,951*03be31c9
%RAWIMUSA,2283,40617.860;2283,40617.859999853,00000077,-69,64172,-182,0,-9,-338*68e5501c
%RAWIMUSA,2283,40617.870;2283,40617.869999853,00000077,-56,64169,-181,-18,8,-932*29f5c87e
%RAWIMUSA,2283,40617.880;2283,40617.879999853,00000077,-56,64171,-167,-18,9,-146*eb93e08a
%RAWIMUSA,2283,40617.890;2283,40617.889999853,00000077,-65,64170,-174,18,9,951*6104dde1
%RAWIMUSA,2283,40617.900;2283,40617.899999853,00000077,-64,64170,-184,18,-8,640*b7da4b69
%RAWIMUSA,2283,40617.910;2283,40617.909999853,00000077,-58,64169,-176,-9,0,-941*cb72318d
%RAWIMUSA,2283,40617.920;2283,40617.919999853,00000077,-52,64173,-167,-27,8,-941*202d8cbc
%RAWIMUSA,2283,40617.930;2283,40617.929999853,00000077,-64,64170,-176,9,9,777*a540480e
%RAWIMUSA,2283,40617.940;2283,40617.939999853,00000077,-62,64172,-183,18,0,960*70b0bba4
%RAWIMUSA,2283,40617.950;2283,40617.949999853,00000077,-56,64167,-176,0,-9,-283*0ddeea99
%RAWIMUSA,2283,40617.960;2283,40617.959999853,00000077,-59,64171,-167,-18,0,-941*b9e02fc4
%RAWIMUSA,2283,40617.970;2283,40617.969999853,00000077,-59,64171,-171,-9,18,-182*9a64ea9b
%RAWIMUSA,2283,40617.980;2283,40617.979999853,00000077,-64,64170,-182,18,9,960*4099995e
%RAWIMUSA,2283,40617.990;2283,40617.989999853,00000077,-54,64173,-176,9,-8,685*646abbe5
%RAWIMUSA,2283,40618.000;2283,40617.999999853,00000077,-56,64171,-170,-9,0,-941*242400e4
%RAWIMUSA,2283,40618.010;2283,40618.009999853,00000077,-64,64173,-170,-18,8,-941*6feee02f
%RAWIMUSA,2283,40618.020;2283,40618.019999853,00000077,-61,64173,-181,9,9,740*a1eceaec
%RAWIMUSA,2283,40618.030;2283,40618.029999853,00000077,-57,64171,-178,18,0,969*6f0f0657
%RAWIMUSA,2283,40618.040;2283,40618.039999853,00000077,-55,64171,-172,0,0,-237*840c2d81
%RAWIMUSA,2283,40618.050;2283,40618.049999853,00000077,-65,64170,-175,-18,0,-950*8ab84075
%RAWIMUSA,2283,40618.060;2283,40618.059999853,00000077,-63,64173,-177,-9,8,-237*901eaf32
%RAWIMUSA,2283,40618.070;2283,40618.069999853,00000077,-53,64172,-180,18,0,951*a9ba060c
%RAWIMUSA,2283,40618.080;2283,40618.079999853,00000077,-60,64170,-173,18,0,740*0b438e1a
%RAWIMUSA,2283,40618.090;2283,40618.089999853,00000077,-64,64171,-174,-18,0,-941*3a2002ba
%RAWIMUSA,2283,40618.100;2283,40618.099999853,00000077,-64,64170,-181,-18,8,-941*b1356373
%RAWIMUSA,2283,40618.110;2283,40618.109999853,00000077,-56,64172,-174,9,9,676*e26b69e8
%RAWIMUSA,2283,40618.120;2283,40618.119999853,00000077,-55,64173,-172,18,0,960*0afc6c29
%RAWIMUSA,2283,40618.130;2283,40618.129999853,00000077,-67,64166,-179,0,-9,-201*031c457b
%RAWIMUSA,2283,40618.140;2283,40618.139999853,00000077,-60,64172,-181,-18,17,-941*9c3b55ba
%RAWIMUSA,2283,40618.150;2283,40618.149999853,00000077,-54,64169,-171,-9,8,-292*1715044c
%RAWIMUSA,2283,40618.160;2283,40618.159999853,00000077,-58,64171,-171,18,0,941*c445bba6
%RAWIMUSA,2283,40618.170;2283,40618.169999853,00000077,-64,64169,-178,9,0,795*d1643194
%RAWIMUSA,2283,40618.180;2283,40618.179999853,00000077,-62,64169,-184,-18,0,-950*c56114e6
%RAWIMUSA,2283,40618.190;2283,40618.189999853,00000077,-54,64171,-171,-18,8,-941*55aa637c
%RAWIMUSA,2283,40618.200;2283,40618.199999853,00000077,-62,64171,-169,18,9,631*f81afe06
%RAWIMUSA,2283,40618.210;2283,40618.209999853,00000077,-66,64172,-178,18,-8,960*e969972f
%RAWIMUSA,2283,40618.220;2283,40618.219999853,00000077,-56,64171,-184,-9,0,-127*a6dd1292
%RAWIMUSA,2283,40618.230;2283,40618.229999853,00000077,-55,64170,-172,-18,8,-950*e05feee9
%RAWIMUSA,2283,40618.240;2283,40618.239999853,00000077,-62,64170,-167,0,8,-338*9fb6976b
%RAWIMUSA,2283,40618.250;2283,40618.249999853,00000077,-65,64173,-181,9,9,960*76128678
%RAWIMUSA,2283,40618.260;2283,40618.259999853,00000077,-58,64171,-182,18,-8,832*7c6efc62
%RAWIMUSA,2283,40618.270;2283,40618.269999853,00000077,-57,64170,-171,-18,0,-950*a157883d
%RAWIMUSA,2283,40618.280;2283,40618.279999853,00000077,-62,64171,-173,-18,8,-941*d828142c
%RAWIMUSA,2283,40618.290;2283,40618.289999853,00000077,-61,64172,-180,18,18,585*1bcd9249
%RAWIMUSA,2283,40618.300;2283,40618.299999853,00000077,-62,64171,-180,18,-8,951*f2b2c012
%RAWIMUSA,2283,40618.310;2283,40618.309999853,00000077,-57,64170,-170,-9,0,-82*7b8eb043
%RAWIMUSA,2283,40618.320;2283,40618.319999853,00000077,-59,64168,-168,-18,8,-932*a69a2b60
%RAWIMUSA,2283,40618.330;2283,40618.329999853,00000077,-64,64172,-181,0,8,-393*f237f471
%RAWIMUSA,2283,40618.340;2283,40618.339999853,00000077,-59,64171,-181,18,9,951*52f37a30
%RAWIMUSA,2283,40618.350;2283,40618.349999853,00000077,-57,64170,-171,9,-8,896*c6045a38
%RAWIMUSA,2283,40618.360;2283,40618.359999853,00000077,-59,64172,-168,-18,0,-960*339db07c
%RAWIMUSA,2283,40618.370;2283,40618.369999853,00000077,-61,64170,-179,-18,17,-941*ff8aa6fa
%RAWIMUSA,2283,40618.380;2283,40618.379999853,00000077,-56,64170,-181,9,9,539*6d2a0b60
%RAWIMUSA,2283,40618.390;2283,40618.389999853,00000077,-59,64172,-168,18,-8,941*5c9bf6d6
%RAWIMUSA,2283,40618.400;2283,40618.399999853,00000077,-62,64174,-170,0,0,-36*098a6fff
%RAWIMUSA,2283,40618.410;2283,40618.409999853,00000077,-61,64169,-181,-18,8,-941*438bab87
%RAWIMUSA,2283,40618.420;2283,40618.419999853,00000077,-57,64173,-184,-9,8,-447*a66da341
%RAWIMUSA,2283,40618.430;2283,40618.429999853,00000077,-61,64171,-172,18,0,951*1940b502
%RAWIMUSA,2283,40618.440;2283,40618.439999853,00000077,-64,64172,-171,9,-8,951*6d8d33d5
%RAWIMUSA,2283,40618.450;2283,40618.449999853,00000077,-63,64171,-176,-18,8,-941*c3e4580b
%RAWIMUSA,2283,40618.460;2283,40618.459999853,00000077,-56,64169,-181,-18,8,-941*c22599ef
%RAWIMUSA,2283,40618.470;2283,40618.469999853,00000077,-55,64171,-177,18,9,475*8493815e
%RAWIMUSA,2283,40618.480;2283,40618.479999853,00000077,-65,64172,-177,18,0,960*947b07b7
%RAWIMUSA,2283,40618.490;2283,40618.489999853,00000077,-65,64174,-170,-9,-9,18*b8e61a63
%RAWIMUSA,2283,40618.500;2283,40618.499999853,00000077,-56,64171,-175,-18,8,-941*718cccb6
%RAWIMUSA,2283,40618.510;2283,40618.509999853,00000077,-58,64170,-183,0,17,-502*74599f54
%RAWIMUSA,2283,40618.520;2283,40618.519999853,00000077,-66,64170,-178,18,0,960*c51be9d1
%RAWIMUSA,2283,40618.530;2283,40618.529999853,00000077,-62,64171,-166,9,-8,960*f4da4688
%RAWIMUSA,2283,40618.540;2283,40618.539999853,00000077,-51,64170,-176,-18,8,-905*95621c34
%RAWIMUSA,2283,40618.550;2283,40618.549999853,00000077,-58,64170,-184,-18,8,-960*a71e6456
%RAWIMUSA,2283,40618.560;2283,40618.559999852,00000077,-67,64171,-177,18,0,429*433354b5
%RAWIMUSA,2283,40618.570;2283,40618.569999852,00000077,-58,64171,-166,18,0,960*f3a688a3
%RAWIMUSA,2283,40618.580;2283,40618.579999852,00000077,-51,64171,-172,-18,0,73*d654ba33
%RAWIMUSA,2283,40618.590;2283,40618.589999852,00000077,-59,64172,-186,-9,8,-950*923d7b55
%RAWIMUSA,2283,40618.600;2283,40618.599999852,00000077,-66,64173,-179,0,8,-548*cfac8252
%RAWIMUSA,2283,40618.610;2283,40618.609999852,00000077,-62,64171,-166,18,0,960*4ab0d1c0
%RAWIMUSA,2283,40618.620;2283,40618.619999852,00000077,-53,64167,-173,9,-8,951*6efd5278
%RAWIMUSA,2283,40618.630;2283,40618.629999852,00000077,-61,64172,-185,-18,8,-850*7d9a0480
%RAWIMUSA,2283,40618.640;2283,40618.639999852,00000077,-64,64170,-177,-18,17,-941*43c1aa5a
%RAWIMUSA,2283,40618.650;2283,40618.649999852,00000077,-58,64171,-166,18,0,375*b6f035c9
%RAWIMUSA,2283,40618.660;2283,40618.659999852,00000077,-57,64170,-174,18,-8,960*fecb2db7
%RAWIMUSA,2283,40618.670;2283,40618.669999852,00000077,-62,64169,-185,-9,0,128*2b4b2e7a
%RAWIMUSA,2283,40618.680;2283,40618.679999852,00000077,-65,64173,-178,-18,17,-950*4b6d15fa
%RAWIMUSA,2283,40618.690;2283,40618.689999852,00000077,-61,64170,-165,0,8,-603*bc6d6555
%RAWIMUSA,2283,40618.700;2283,40618.699999852,00000077,-55,64170,-174,18,-8,960*294c2b30
%RAWIMUSA,2283,40618.710;2283,40618.709999852,00000077,-62,64173,-182,9,0,951*04f6804a
%RAWIMUSA,2283,40618.720;2283,40618.719999852,00000077,-66,64173,-177,-18,8,-804*fd430596
%RAWIMUSA,2283,40618.730;2283,40618.729999852,00000077,-61,64168,-168,-18,8,-941*e8173615
%RAWIMUSA,2283,40618.740;2283,40618.739999852,00000077,-58,64170,-176,18,0,320*926b8dd2
%RAWIMUSA,2283,40618.750;2283,40618.749999852,00000077,-63,64170,-183,18,0,960*01b53e24
%RAWIMUSA,2283,40618.760;2283,40618.759999852,00000077,-63,64172,-176,-18,0,182*450f75ad
%RAWIMUSA,2283,40618.770;2283,40618.769999852,00000077,-58,64169,-170,-9,17,-950*9ac66492
%RAWIMUSA,2283,40618.780;2283,40618.779999852,00000077,-59,64172,-176,0,8,-658*b4f61909
%RAWIMUSA,2283,40618.790;2283,40618.789999852,00000077,-63,64169,-184,18,-8,951*62ed4265
%RAWIMUSA,2283,40618.800;2283,40618.799999852,00000077,-62,64171,-175,0,-8,960*2b7570c8
%RAWIMUSA,2283,40618.810;2283,40618.809999852,00000077,-60,64172,-162,-18,17,-758*fc3c1f8f
%RAWIMUSA,2283,40618.820;2283,40618.819999852,00000077,-57,64169,-181,-9,8,-941*d3fe7122
%RAWIMUSA,2283,40618.830;2283,40618.829999852,00000077,-62,64171,-185,18,0,274*3ee207f8
%RAWIMUSA,2283,40618.840;2283,40618.839999852,00000077,-62,64173,-167,18,0,960*6a38bc6f
%RAWIMUSA,2283,40618.850;2283,40618.849999852,00000077,-60,64172,-164,-18,0,228*608d4594
%RAWIMUSA,2283,40618.860;2283,40618.859999852,00000077,-57,64171,-186,-18,8,-950*7fb3a0df
%RAWIMUSA,2283,40618.870;2283,40618.869999852,00000077,-61,64172,-188,0,8,-703*cca9412f
%RAWIMUSA,2283,40618.880;2283,40618.879999852,00000077,-61,64172,-167,18,0,951*78b719d3
%RAWIMUSA,2283,40618.890;2283,40618.889999852,00000077,-60,64170,-164,0,-8,969*e0251d76
%RAWIMUSA,2283,40618.900;2283,40618.899999852,00000077,-59,64172,-185,-9,8,-694*c979cccd
%RAWIMUSA,2283,40618.910;2283,40618.909999852,00000077,-61,64172,-186,-18,17,-950*1b3b4645
%RAWIMUSA,2283,40618.920;2283,40618.919999852,00000077,-63,64172,-163,18,0,210*f955243e
%RAWIMUSA,2283,40618.930;2283,40618.929999852,00000077,-55,64169,-166,18,-8,960*ad49f8a0
%RAWIMUSA,2283,40618.940;2283,40618.939999852,00000077,-55,64170,-185,-8,9,283*e911857f
%RAWIMUSA,2283,40618.950;2283,40618.949999852,00000077,-62,64171,-190,-18,8,-950*5517e508
%RAWIMUSA,2283,40618.960;2283,40618.959999852,00000077,-65,64168,-159,9,0,-758*6d97c95e
%RAWIMUSA,2283,40618.970;2283,40618.969999852,00000077,-58,64172,-168,18,0,960*bb012515
%RAWIMUSA,2283,40618.980;2283,40618.979999852,00000077,-54,64171,-188,0,0,951*980d4959
%RAWIMUSA,2283,40618.990;2283,40618.989999852,00000077,-61,64172,-186,-18,8,-630*4631358f
%RAWIMUSA,2283,40619.000;2283,40618.999999852,00000077,-70,64170,-161,-9,17,-950*312919da
%RAWIMUSA,2283,40619.010;2283,40619.009999852,00000077,-49,64171,-166,18,-9,192*dfe9c92d
%RAWIMUSA,2283,40619.020;2283,40619.019999852,00000077,-71,64168,-190,18,0,941*8b0e057d
%RAWIMUSA,2283,40619.030;2283,40619.029999852,00000077,-58,64172,-184,-18,0,347*a556cfaa
%RAWIMUSA,2283,40619.040;2283,40619.039999852,00000077,-45,64175,-162,-18,17,-950*2bcae0ab
%RAWIMUSA,2283,40619.050;2283,40619.049999852,00000077,-83,64164,-169,9,8,-804*e7536a95
%RAWIMUSA,2283,40619.060;2283,40619.059999852,00000077,-26,64177,-190,18,-8,960*7ef43883
%RAWIMUSA,2283,40619.070;2283,40619.069999852,00000077,-94,64163,-185,0,0,941*ac63e09b
%RAWIMUSA,2283,40619.080;2283,40619.079999852,00000077,-36,64175,-164,-18,8,-585*592f526c
%RAWIMUSA,2283,40619.090;2283,40619.089999852,00000077,-82,64165,-166,-9,8,-960*6211f194
%RAWIMUSA,2283,40619.100;2283,40619.099999852,00000077,-35,64178,-187,18,0,146*d6e36a33
%RAWIMUSA,2283,40619.110;2283,40619.109999852,00000077,-89,64169,-184,18,0,932*a28b8536
%RAWIMUSA,2283,40619.120;2283,40619.119999852,00000077,-43,64178,-167,-18,9,393*a8e8d957
%RAWIMUSA,2283,40619.130;2283,40619.129999852,00000077,-76,64164,-165,-18,8,-969*7afc1514
%RAWIMUSA,2283,40619.140;2283,40619.139999852,00000077,-38,64176,-187,9,0,-831*9532c82d
%RAWIMUSA,2283,40619.150;2283,40619.149999852,00000077,-86,64163,-182,18,-8,923*7bf245b2
%RAWIMUSA,2283,40619.160;2283,40619.159999852,00000077,-43,64177,-163,0,9,987*9d89dd37
%RAWIMUSA,2283,40619.170;2283,40619.169999852,00000077,-75,64164,-166,-18,8,-575*55639f77
%RAWIMUSA,2283,40619.180;2283,40619.179999852,00000077,-39,64176,-188,0,8,-914*c721eaa0
%RAWIMUSA,2283,40619.190;2283,40619.189999852,00000077,-82,64162,-184,9,0,45*3313dc28
%RAWIMUSA,2283,40619.200;2283,40619.199999852,00000077,-42,64179,-166,18,-8,987*1456eb04
%RAWIMUSA,2283,40619.210;2283,40619.209999852,00000077,-73,64163,-164,-18,9,402*a7a30235
%RAWIMUSA,2283,40619.220;2283,40619.219999852,00000077,-46,64179,-187,-18,8,-914*be7c83b1
%RAWIMUSA,2283,40619.230;2283,40619.229999852,00000077,-80,64167,-181,18,8,-932*61ff016a
%RAWIMUSA,2283,40619.240;2283,40619.239999852,00000077,-51,64176,-163,9,-8,987*8e733f4d
%RAWIMUSA,2283,40619.250;2283,40619.249999852,00000077,-68,64167,-169,0,0,923*9bce9c0a
%RAWIMUSA,2283,40619.260;2283,40619.259999852,00000077,-52,64176,-186,-18,8,-475*7cf4d95c
%RAWIMUSA,2283,40619.270;2283,40619.269999852,00000077,-64,64168,-181,-9,8,-960*c03eb075
%RAWIMUSA,2283,40619.280;2283,40619.279999852,00000077,-63,64169,-166,18,0,27*6a2cb025
%RAWIMUSA,2283,40619.290;2283,40619.289999852,00000077,-50,64171,-175,18,0,941*f1ee24e6
%RAWIMUSA,2283,40619.300;2283,40619.299999852,00000077,-70,64171,-181,-18,9,502*fdb63990
%RAWIMUSA,2283,40619.310;2283,40619.309999852,00000077,-47,64176,-178,-27,8,-960*c5d6b79e
%RAWIMUSA,2283,40619.320;2283,40619.319999852,00000077,-75,64169,-173,18,0,-941*41521856
%RAWIMUSA,2283,40619.330;2283,40619.329999852,00000077,-40,64175,-171,18,-8,941*b6d36994
%RAWIMUSA,2283,40619.340;2283,40619.339999852,00000077,-85,64166,-182,-8,9,960*59b4a821
%RAWIMUSA,2283,40619.350;2283,40619.349999852,00000077,-30,64176,-178,-18,8,-438*2efd3caa
%RAWIMUSA,2283,40619.360;2283,40619.359999852,00000077,-90,64163,-170,0,0,-950*7a57ed8c
%RAWIMUSA,2283,40619.370;2283,40619.369999852,00000077,-33,64177,-169,18,0,-18*361205bd
%RAWIMUSA,2283,40619.380;2283,40619.379999852,00000077,-89,64164,-178,9,0,951*2336910d
%RAWIMUSA,2283,40619.390;2283,40619.389999852,00000077,-21,64178,-184,-8,9,548*eef440f0
%RAWIMUSA,2283,40619.400;2283,40619.399999852,00000077,-91,64167,-178,-18,8,-960*07260a0c
%RAWIMUSA,2283,40619.410;2283,40619.409999852,00000077,-38,64177,-168,9,8,-923*2ff53631
%RAWIMUSA,2283,40619.420;2283,40619.419999852,00000077,-83,64165,-179,18,-8,859*a596682c
%RAWIMUSA,2283,40619.430;2283,40619.429999852,00000077,-34,64177,-181,-8,9,969*e1cbaf91
%RAWIMUSA,2283,40619.440;2283,40619.439999852,00000077,-83,64165,-173,-18,8,-402*83291c3c
%RAWIMUSA,2283,40619.450;2283,40619.449999852,00000077,-50,64173,-171,0,0,-923*5ce56cb2
%RAWIMUSA,2283,40619.460;2283,40619.459999852,00000077,-74,64169,-178,18,0,-118*d5135878
%RAWIMUSA,2283,40619.470;2283,40619.469999852,00000077,-44,64175,-185,9,0,978*e20a5178
%RAWIMUSA,2283,40619.480;2283,40619.479999852,00000077,-67,64169,-176,-18,9,557*7b9c9aa2
%RAWIMUSA,2283,40619.490;2283,40619.489999852,00000077,-60,64173,-170,-18,8,-914*4d9d7802
%RAWIMUSA,2283,40619.500;2283,40619.499999852,00000077,-63,64170,-177,18,0,-960*54c23dfd
%RAWIMUSA,2283,40619.510;2283,40619.509999852,00000077,-52,64171,-183,18,-8,850*164af732
%RAWIMUSA,2283,40619.520;2283,40619.519999852,00000077,-68,64169,-172,-8,9,932*0b774c8f
%RAWIMUSA,2283,40619.530;2283,40619.529999852,00000077,-63,64174,-169,-18,8,-310*67459bac
%RAWIMUSA,2283,40619.540;2283,40619.539999852,00000077,-59,64168,-178,0,8,-969*535de871
%RAWIMUSA,2283,40619.550;2283,40619.549999852,00000077,-47,64173,-184,18,-9,-118*dfb7fcf4
%RAWIMUSA,2283,40619.560;2283,40619.559999852,00000077,-74,64170,-174,9,0,923*ec5f5f1b
%RAWIMUSA,2283,40619.570;2283,40619.569999852,00000077,-52,64173,-168,-18,18,667*f571cbb4
%RAWIMUSA,2283,40619.580;2283,40619.579999852,00000077,-63,64171,-176,-9,8,-969*d35cbf14
%RAWIMUSA,2283,40619.590;2283,40619.589999852,00000077,-51,64173,-183,18,-9,-923*2cd8f735
%RAWIMUSA,2283,40619.600;2283,40619.599999852,00000077,-72,64169,-175,18,0,759*ed0ae322
%RAWIMUSA,2283,40619.610;2283,40619.609999852,00000077,-59,64172,-168,-8,9,978*50306f2a
%RAWIMUSA,2283,40619.620;2283,40619.619999852,00000077,-59,64169,-177,-18,8,-310*5d60ef08
%RAWIMUSA,2283,40619.630;2283,40619.629999852,00000077,-55,64171,-182,0,0,-914*4c0d7901
%RAWIMUSA,2283,40619.640;2283,40619.639999852,00000077,-75,64171,-176,18,-9,-228*dd423f44
%RAWIMUSA,2283,40619.650;2283,40619.649999852,00000077,-44,64175,-169,0,9,978*73f4f13f
%RAWIMUSA,2283,40619.660;2283,40619.659999852,00000077,-72,64165,-181,-8,9,667*973e7d17
%RAWIMUSA,2283,40619.670;2283,40619.669999852,00000077,-45,64177,-181,-18,8,-914*04c1e6c9
%RAWIMUSA,2283,40619.680;2283,40619.679999852,00000077,-82,64167,-171,18,0,-969*a87b6582
%RAWIMUSA,2283,40619.690;2283,40619.689999852,00000077,-37,64176,-167,9,0,768*63846fac
%RAWIMUSA,2283,40619.700;2283,40619.699999852,00000077,-72,64165,-182,-8,9,932*1458e97f
%RAWIMUSA,2283,40619.710;2283,40619.709999852,00000077,-44,64174,-183,-18,8,-210*44b5c81d
%RAWIMUSA,2283,40619.720;2283,40619.719999852,00000077,-93,64162,-175,0,0,-969*e75cc515
%RAWIMUSA,2283,40619.730;2283,40619.729999852,00000077,-20,64179,-165,18,0,-219*0d79c69f
%RAWIMUSA,2283,40619.740;2283,40619.739999852,00000077,-100,64160,-178,9,0,923*ce253b05
%RAWIMUSA,2283,40619.750;2283,40619.749999852,00000077,-22,64181,-186,-18,18,777*7045c542
%RAWIMUSA,2283,40619.760;2283,40619.759999852,00000077,-103,64164,-177,-9,8,-969*e8e0b0ad
%RAWIMUSA,2283,40619.770;2283,40619.769999852,00000077,-14,64179,-163,18,-9,-914*67e790b2
%RAWIMUSA,2283,40619.780;2283,40619.779999852,00000077,-99,64163,-178,18,0,649*afe60faf
%RAWIMUSA,2283,40619.790;2283,40619.789999852,00000077,-25,64179,-186,-18,9,978*dd335f97
%RAWIMUSA,2283,40619.800;2283,40619.799999852,00000077,-97,64164,-173,-18,8,-210*a1932ddd
