%RAWIMUSA,2283,41222.080;2283,41222.079999536,00000077,96,-64251,96,-8,-17,868*e8068ea0
%RAWIMUSA,2283,41222.090;2283,41222.089999536,00000077,-47,-64225,85,9,0,649*953b075d
%RAWIMUSA,2283,41222.100;2283,41222.099999536,00000077,81,-64249,117,18,8,-923*7781c81f
%RAWIMUSA,2283,41222.110;2283,41222.109999536,00000077,29,-64241,122,-9,-10,-1024*36b23aeb
%RAWIMUSA,2283,41222.120;2283,41222.119999536,00000077,-19,-64229,94,-18,-8,932*fca5a8bb
%RAWIMUSA,2283,41222.130;2283,41222.129999536,00000077,104,-64248,90,9,-8,905*63043c50
%RAWIMUSA,2283,41222.140;2283,41222.139999536,00000077,-42,-64230,109,9,8,-329*ae2e3296
%RAWIMUSA,2283,41222.150;2283,41222.149999536,00000077,68,-64241,125,0,0,-896*05f3e1c0
%RAWIMUSA,2283,41222.160;2283,41222.159999536,00000077,66,-64247,98,-18,-9,-246*41a2f232
%RAWIMUSA,2283,41222.170;2283,41222.169999536,00000077,-48,-64227,83,-8,-17,1051*129742b6
%RAWIMUSA,2283,41222.180;2283,41222.179999536,00000077,108,-64250,114,18,0,621*656b66de
%RAWIMUSA,2283,41222.190;2283,41222.189999536,00000077,-6,-64229,124,9,8,-1005*362f2757
%RAWIMUSA,2283,41222.200;2283,41222.199999536,00000077,3,-64236,96,-18,-9,-859*969077bd
%RAWIMUSA,2283,41222.210;2283,41222.209999536,00000077,91,-64248,85,-18,-8,685*bd9f49c3
%RAWIMUSA,2283,41222.220;2283,41222.219999536,00000077,-41,-64226,110,9,0,1005*312c9cb5
%RAWIMUSA,2283,41222.230;2283,41222.229999536,00000077,92,-64245,127,18,0,-265*d29b9fc4
%RAWIMUSA,2283,41222.240;2283,41222.239999536,00000077,18,-64243,99,0,0,-1024*f3d60aba
%RAWIMUSA,2283,41222.250;2283,41222.249999536,00000077,-21,-64229,84,-18,-9,-118*e7ceadd1
%RAWIMUSA,2283,41222.260;2283,41222.259999536,00000077,113,-64251,113,-8,-17,896*44ba731b
%RAWIMUSA,2283,41222.270;2283,41222.269999536,00000077,-33,-64228,120,18,9,722*eb7222ba
%RAWIMUSA,2283,41222.280;2283,41222.279999536,00000077,51,-64241,100,18,8,-896*6f9300e6
%RAWIMUSA,2283,41222.290;2283,41222.289999536,00000077,60,-64245,87,-18,-19,-1042*2f0c4d75
%RAWIMUSA,2283,41222.300;2283,41222.299999536,00000077,-33,-64227,105,-18,-8,804*f6b867fa
%RAWIMUSA,2283,41222.310;2283,41222.309999536,00000077,103,-64251,124,9,0,932*8fa7362c
%RAWIMUSA,2283,41222.320;2283,41222.319999536,00000077,-17,-64229,95,9,0,-246*87706b3a
%RAWIMUSA,2283,41222.330;2283,41222.329999536,00000077,18,-64235,84,0,0,-868*e0cbd0a0
%RAWIMUSA,2283,41222.340;2283,41222.339999536,00000077,93,-64247,112,-9,-9,-356*c14829ed
%RAWIMUSA,2283,41222.350;2283,41222.349999536,00000077,-44,-64225,117,-8,-8,1024*e8bfafc7
%RAWIMUSA,2283,41222.360;2283,41222.359999536,00000077,88,-64248,102,9,9,777*a3f9ed0d
%RAWIMUSA,2283,41222.370;2283,41222.369999536,00000077,10,-64237,79,18,0,-1024*49fe64e9
%RAWIMUSA,2283,41222.380;2283,41222.379999536,00000077,-9,-64230,104,-9,-9,-850*7e742904
%RAWIMUSA,2283,41222.390;2283,41222.389999536,00000077,110,-64252,124,-18,-8,603*ff583b6b
%RAWIMUSA,2283,41222.400;2283,41222.399999536,00000077,-43,-64227,100,9,0,978*6e1cce6d
%RAWIMUSA,2283,41222.410;2283,41222.409999536,00000077,63,-64242,88,18,0,-127*5b6ee64b
%RAWIMUSA,2283,41222.420;2283,41222.419999536,00000077,49,-64241,109,-9,0,-1033*54c524b7
%RAWIMUSA,2283,41222.430;2283,41222.429999536,00000077,-28,-64228,121,-18,-9,-219*319d3a98
%RAWIMUSA,2283,41222.440;2283,41222.439999536,00000077,102,-64251,105,0,-8,905*3303635f
%RAWIMUSA,2283,41222.450;2283,41222.449999536,00000077,-25,-64232,90,18,0,795*9d3ed1df
%RAWIMUSA,2283,41222.460;2283,41222.459999536,00000077,44,-64238,108,9,8,-877*c2dfa6a3
%RAWIMUSA,2283,41222.470;2283,41222.469999536,00000077,73,-64245,121,-18,-19,-1042*7f5447e7
%RAWIMUSA,2283,41222.480;2283,41222.479999536,00000077,-47,-64224,100,-18,0,685*b7248434
%RAWIMUSA,2283,41222.490;2283,41222.489999536,00000077,93,-64250,91,18,0,960*92039fed
%RAWIMUSA,2283,41222.500;2283,41222.499999536,00000077,4,-64232,102,18,0,-173*aa75b290
%RAWIMUSA,2283,41222.510;2283,41222.509999536,00000077,7,-64234,114,-9,-9,-868*98c480ac
%RAWIMUSA,2283,41222.520;2283,41222.519999536,00000077,98,-64252,106,-18,-9,-447*41fa0f45
%RAWIMUSA,2283,41222.530;2283,41222.529999536,00000077,-46,-64226,88,0,-8,1005*d3f0712d
%RAWIMUSA,2283,41222.540;2283,41222.539999536,00000077,80,-64243,108,18,9,887*4a162714
%RAWIMUSA,2283,41222.550;2283,41222.549999536,00000077,33,-64240,119,9,0,-1014*7f5b9a4e
%RAWIMUSA,2283,41222.560;2283,41222.559999536,00000077,-16,-64230,102,-18,-9,-850*8b1150d6
%RAWIMUSA,2283,41222.570;2283,41222.569999536,00000077,101,-64251,97,-18,-18,493*52bbf009
%RAWIMUSA,2283,41222.580;2283,41222.579999536,00000077,-34,-64228,104,18,9,978*8a605500
%RAWIMUSA,2283,41222.590;2283,41222.589999536,00000077,65,-64244,117,18,9,-27*8863abcb
%RAWIMUSA,2283,41222.600;2283,41222.599999536,00000077,46,-64244,106,-9,-10,-1042*32e825c4
%RAWIMUSA,2283,41222.610;2283,41222.609999536,00000077,-41,-64227,89,-18,-9,-319*a56c9801
%RAWIMUSA,2283,41222.620;2283,41222.619999536,00000077,110,-64253,106,0,-8,932*91885b88
%RAWIMUSA,2283,41222.630;2283,41222.629999536,00000077,-16,-64232,116,9,9,905*1be74cc3
%RAWIMUSA,2283,41222.640;2283,41222.639999536,00000077,31,-64239,106,18,0,-877*5ad5dc51
%RAWIMUSA,2283,41222.650;2283,41222.649999536,00000077,72,-64249,92,-18,-10,-1042*92cd5567
%RAWIMUSA,2283,41222.660;2283,41222.659999536,00000077,-39,-64226,98,-18,-8,585*9ecbfeb1
%RAWIMUSA,2283,41222.670;2283,41222.669999536,00000077,100,-64247,119,18,0,960*bf28ff97
%RAWIMUSA,2283,41222.680;2283,41222.679999536,00000077,0,-64236,107,18,9,-82*b577707d
%RAWIMUSA,2283,41222.690;2283,41222.689999536,00000077,-3,-64231,91,-9,-9,-850*126bdf3c
%RAWIMUSA,2283,41222.700;2283,41222.699999536,00000077,113,-64252,106,-18,-18,-548*a7e85946
%RAWIMUSA,2283,41222.710;2283,41222.709999536,00000077,-40,-64226,116,0,0,996*ab6fd71b
%RAWIMUSA,2283,41222.720;2283,41222.719999536,00000077,63,-64245,109,18,9,1005*a971fd06
%RAWIMUSA,2283,41222.730;2283,41222.729999536,00000077,41,-64244,92,9,-10,-1033*f986ed89
%RAWIMUSA,2283,41222.740;2283,41222.739999536,00000077,-20,-64228,101,-18,-9,-868*635c2dbd
%RAWIMUSA,2283,41222.750;2283,41222.749999536,00000077,108,-64249,119,-8,-8,411*d33d918a
%RAWIMUSA,2283,41222.760;2283,41222.759999536,00000077,-27,-64231,106,9,0,951*852eafca
%RAWIMUSA,2283,41222.770;2283,41222.769999536,00000077,35,-64239,95,18,9,109*acfb727c
%RAWIMUSA,2283,41222.780;2283,41222.779999536,00000077,79,-64250,108,0,-10,-1042*7b2478b6
%RAWIMUSA,2283,41222.790;2283,41222.789999536,00000077,-50,-64226,109,-18,-9,-457*1b64f751
%RAWIMUSA,2283,41222.800;2283,41222.799999536,00000077,96,-64248,103,0,0,960*a7731d09
%RAWIMUSA,2283,41222.810;2283,41222.809999536,00000077,10,-64237,102,9,0,905*367573fa
%RAWIMUSA,2283,41222.820;2283,41222.819999536,00000077,-8,-64227,104,9,0,-804*c4b7e51e
%RAWIMUSA,2283,41222.830;2283,41222.829999536,00000077,100,-64250,100,-9,-19,-1033*b4616ecb
%RAWIMUSA,2283,41222.840;2283,41222.839999536,00000077,-35,-64229,109,-18,0,429*8f2f0477
%RAWIMUSA,2283,41222.850;2283,41222.849999536,00000077,74,-64247,118,9,0,1005*c604e74f
%RAWIMUSA,2283,41222.860;2283,41222.859999536,00000077,25,-64241,93,27,0,0*ebfe5f76
%RAWIMUSA,2283,41222.870;2283,41222.869999536,00000077,-16,-64229,91,-18,-9,-859*be206f82
%RAWIMUSA,2283,41222.880;2283,41222.879999536,00000077,104,-64250,114,-18,-9,-630*a2faacd2
%RAWIMUSA,2283,41222.890;2283,41222.889999536,00000077,-25,-64229,118,0,0,969*5b9c9230
%RAWIMUSA,2283,41222.900;2283,41222.899999536,00000077,46,-64241,98,18,0,1024*d644a261
%RAWIMUSA,2283,41222.910;2283,41222.909999536,00000077,59,-64248,89,9,0,-941*fb941a86
%RAWIMUSA,2283,41222.920;2283,41222.919999536,00000077,-35,-64226,114,-18,-9,-877*cefe401a
%RAWIMUSA,2283,41222.930;2283,41222.929999536,00000077,105,-64250,121,-8,-8,338*1bc11e2c
%RAWIMUSA,2283,41222.940;2283,41222.939999536,00000077,-15,-64231,93,18,9,923*314077ab
%RAWIMUSA,2283,41222.950;2283,41222.949999536,00000077,18,-64235,92,18,9,228*7749ab13
%RAWIMUSA,2283,41222.960;2283,41222.959999536,00000077,87,-64249,118,-9,-19,-1042*74690641
%RAWIMUSA,2283,41222.970;2283,41222.969999536,00000077,-44,-64228,116,-18,-9,-566*07e2bb96
%RAWIMUSA,2283,41222.980;2283,41222.979999536,00000077,89,-64247,96,0,0,969*ebd133b7
%RAWIMUSA,2283,41222.990;2283,41222.989999536,00000077,22,-64240,93,18,9,896*368c1e3f
%RAWIMUSA,2283,41223.000;2283,41222.999999536,00000077,-7,-64229,112,9,-9,-694*3c61b373
%RAWIMUSA,2283,41223.010;2283,41223.009999536,00000077,101,-64249,120,-18,-10,-1024*bccaf407
%RAWIMUSA,2283,41223.020;2283,41223.019999536,00000077,-45,-64226,96,-18,-8,329*dd14394a
%RAWIMUSA,2283,41223.030;2283,41223.029999536,00000077,64,-64243,96,18,9,1015*33b7bbe6
%RAWIMUSA,2283,41223.040;2283,41223.039999536,00000077,56,-64242,116,18,0,100*c06bc006
%RAWIMUSA,2283,41223.050;2283,41223.049999536,00000077,-36,-64227,113,-18,-9,-868*e864b9c9
%RAWIMUSA,2283,41223.060;2283,41223.059999536,00000077,108,-64249,97,-18,-9,-713*22a6e240
%RAWIMUSA,2283,41223.070;2283,41223.069999536,00000077,-15,-64230,90,9,0,923*4349de40
%RAWIMUSA,2283,41223.080;2283,41223.079999536,00000077,23,-64236,116,18,9,1060*78da658d
%RAWIMUSA,2283,41223.090;2283,41223.089999536,00000077,84,-64248,115,0,-9,-831*eb0d6616
%RAWIMUSA,2283,41223.100;2283,41223.099999536,00000077,-46,-64228,91,-18,-9,-896*adb931f3
%RAWIMUSA,2283,41223.110;2283,41223.109999536,00000077,93,-64248,95,-8,-9,256*424c9903
%RAWIMUSA,2283,41223.120;2283,41223.119999536,00000077,18,-64233,118,18,9,905*98d84df6
%RAWIMUSA,2283,41223.130;2283,41223.129999536,00000077,-7,-64230,113,18,0,338*41fd28f4
%RAWIMUSA,2283,41223.140;2283,41223.139999536,00000077,103,-64250,96,-18,-10,-1024*5ed01783
%RAWIMUSA,2283,41223.150;2283,41223.149999536,00000077,-46,-64228,91,-18,-9,-703*42eea0b9
%RAWIMUSA,2283,41223.160;2283,41223.159999536,00000077,71,-64246,118,9,0,1015*3ff58f80
%RAWIMUSA,2283,41223.170;2283,41223.169999536,00000077,55,-64244,116,9,0,877*39f3645e
%RAWIMUSA,2283,41223.180;2283,41223.179999536,00000077,-38,-64224,91,0,0,-603*ba1e382a
%RAWIMUSA,2283,41223.190;2283,41223.189999536,00000077,105,-64251,101,-9,-10,-996*eae5b0f6
%RAWIMUSA,2283,41223.200;2283,41223.199999536,00000077,-18,-64227,114,-18,-9,173*e948cea4
%RAWIMUSA,2283,41223.210;2283,41223.209999536,00000077,33,-64240,114,18,9,1042*1461c62f
%RAWIMUSA,2283,41223.220;2283,41223.219999536,00000077,74,-64247,93,18,0,210*7f670d49
%RAWIMUSA,2283,41223.230;2283,41223.229999536,00000077,-44,-64227,96,-18,-9,-886*06587a4d
%RAWIMUSA,2283,41223.240;2283,41223.239999536,00000077,95,-64249,113,-9,-9,-786*41936869
%RAWIMUSA,2283,41223.250;2283,41223.249999536,00000077,2,-64235,113,0,0,923*9f52b8c7
%RAWIMUSA,2283,41223.260;2283,41223.259999536,00000077,5,-64235,97,18,9,1060*2cf8c36b
%RAWIMUSA,2283,41223.270;2283,41223.269999536,00000077,90,-64247,103,0,-19,-731*63585013
%RAWIMUSA,2283,41223.280;2283,41223.279999536,00000077,-44,-64227,108,-18,-9,-905*eb9c54e9
%RAWIMUSA,2283,41223.290;2283,41223.289999536,00000077,91,-64246,111,-9,0,164*6a90fb38
%RAWIMUSA,2283,41223.300;2283,41223.299999536,00000077,15,-64238,94,18,9,887*3bee29ff
%RAWIMUSA,2283,41223.310;2283,41223.309999536,00000077,-8,-64232,101,18,-8,448*36cdba73
%RAWIMUSA,2283,41223.320;2283,41223.319999536,00000077,98,-64248,116,-9,-10,-1042*e7b9057f
%RAWIMUSA,2283,41223.330;2283,41223.329999536,00000077,-38,-64227,105,-18,-9,-795*ae2caead
%RAWIMUSA,2283,41223.340;2283,41223.339999536,00000077,68,-64245,97,9,9,1015*285680dc
%RAWIMUSA,2283,41223.350;2283,41223.349999536,00000077,51,-64245,105,18,0,868*ac605ffa
%RAWIMUSA,2283,41223.360;2283,41223.359999536,00000077,-36,-64226,112,0,-9,-493*c8a7f93a
%RAWIMUSA,2283,41223.370;2283,41223.369999536,00000077,110,-64251,102,-18,-10,-996*15e7f5a3
%RAWIMUSA,2283,41223.380;2283,41223.379999536,00000077,-19,-64229,97,-9,0,91*e4f85f74
%RAWIMUSA,2283,41223.390;2283,41223.389999536,00000077,32,-64239,107,18,9,1033*ca8095f4
%RAWIMUSA,2283,41223.400;2283,41223.399999536,00000077,74,-64246,116,9,-9,310*6d6ce7fd
%RAWIMUSA,2283,41223.410;2283,41223.409999536,00000077,-39,-64221,97,-18,-9,-877*99cea098
%RAWIMUSA,2283,41223.420;2283,41223.419999536,00000077,104,-64248,97,-18,-9,-905*977f3db7
%RAWIMUSA,2283,41223.430;2283,41223.429999536,00000077,-5,-64235,108,18,0,923*0ec08ce0
%RAWIMUSA,2283,41223.440;2283,41223.439999536,00000077,0,-64233,110,9,9,1051*a141b365
%RAWIMUSA,2283,41223.450;2283,41223.449999536,00000077,104,-64252,98,0,-18,-612*dd81c854
%RAWIMUSA,2283,41223.460;2283,41223.459999536,00000077,-47,-64228,98,-18,-9,-905*b02ae36a
%RAWIMUSA,2283,41223.470;2283,41223.469999536,00000077,80,-64246,114,0,9,64*2370c075
%RAWIMUSA,2283,41223.480;2283,41223.479999536,00000077,21,-64240,110,18,0,887*8a42f8d4
%RAWIMUSA,2283,41223.490;2283,41223.489999536,00000077,-14,-64229,99,9,-8,539*aa553f6f
%RAWIMUSA,2283,41223.500;2283,41223.499999536,00000077,108,-64251,100,-18,-10,-1005*97716888
%RAWIMUSA,2283,41223.510;2283,41223.509999536,00000077,-40,-64228,105,-18,0,-923*2076f568
%RAWIMUSA,2283,41223.520;2283,41223.519999536,00000077,58,-64241,108,9,0,1015*37a9372d
%RAWIMUSA,2283,41223.530;2283,41223.529999536,00000077,62,-64247,103,18,0,859*97b06d61
%RAWIMUSA,2283,41223.540;2283,41223.539999536,00000077,-39,-64229,98,-9,-9,-383*49727b29
%RAWIMUSA,2283,41223.550;2283,41223.549999536,00000077,104,-64250,114,-9,-10,-987*dc6ec63b
%RAWIMUSA,2283,41223.560;2283,41223.559999536,00000077,-20,-64232,105,-9,0,-36*fadb1de2
%RAWIMUSA,2283,41223.570;2283,41223.569999536,00000077,32,-64239,98,9,9,1042*2b4d9c71
%RAWIMUSA,2283,41223.580;2283,41223.579999536,00000077,94,-64249,100,18,-8,402*937a0a88
%RAWIMUSA,2283,41223.590;2283,41223.589999536,00000077,-54,-64224,107,-18,-9,-886*9ae2e455
%RAWIMUSA,2283,41223.600;2283,41223.599999536,00000077,91,-64248,111,-18,-9,-941*b73994ae
%RAWIMUSA,2283,41223.610;2283,41223.609999536,00000077,15,-64234,97,18,9,850*4dd209f2
%RAWIMUSA,2283,41223.620;2283,41223.619999536,00000077,-12,-64232,95,18,0,1060*550442b6
%RAWIMUSA,2283,41223.630;2283,41223.629999536,00000077,109,-64251,117,-9,-9,-502*c120d1c8
%RAWIMUSA,2283,41223.640;2283,41223.639999536,00000077,-39,-64227,110,-18,-19,-932*7c8f644c
%RAWIMUSA,2283,41223.650;2283,41223.649999536,00000077,61,-64243,93,-9,9,-9*12c10ad4
%RAWIMUSA,2283,41223.660;2283,41223.659999536,00000077,45,-64243,98,18,0,877*23a293dc
%RAWIMUSA,2283,41223.670;2283,41223.669999536,00000077,-36,-64228,115,9,0,640*26ef941b
%RAWIMUSA,2283,41223.680;2283,41223.679999535,00000077,112,-64251,116,-18,-19,-996*1f30baa1
%RAWIMUSA,2283,41223.690;2283,41223.689999535,00000077,-25,-64229,94,-18,0,-978*fe3c6ce9
%RAWIMUSA,2283,41223.700;2283,41223.699999535,00000077,26,-64238,95,18,9,960*902ed8d2
%RAWIMUSA,2283,41223.710;2283,41223.709999535,00000077,93,-64249,114,18,0,859*96a592d1
%RAWIMUSA,2283,41223.720;2283,41223.719999535,00000077,-46,-64225,106,-9,-18,-310*a2418fcb
%RAWIMUSA,2283,41223.730;2283,41223.729999535,00000077,84,-64249,97,-18,-9,-941*3ee490bf
%RAWIMUSA,2283,41223.740;2283,41223.739999535,00000077,16,-64239,101,0,0,-191*05ee7c46
%RAWIMUSA,2283,41223.750;2283,41223.749999535,00000077,-12,-64229,112,18,9,1060*53f47e1d
%RAWIMUSA,2283,41223.760;2283,41223.759999535,00000077,112,-64250,113,9,-8,539*5894c974
%RAWIMUSA,2283,41223.770;2283,41223.769999535,00000077,-40,-64227,95,-18,-9,-932*98a39335
%RAWIMUSA,2283,41223.780;2283,41223.779999535,00000077,54,-64242,96,-18,0,-905*72821ce1
%RAWIMUSA,2283,41223.790;2283,41223.789999535,00000077,59,-64243,113,18,0,731*6058998f
%RAWIMUSA,2283,41223.800;2283,41223.799999535,00000077,-32,-64227,111,18,0,1051*9e8f8d28
%RAWIMUSA,2283,41223.810;2283,41223.809999535,00000077,99,-64252,103,-9,-18,-356*ee59d8f2
%RAWIMUSA,2283,41223.820;2283,41223.819999535,00000077,-21,-64231,98,-18,0,-969*ae3c674c
%RAWIMUSA,2283,41223.830;2283,41223.829999535,00000077,39,-64236,112,0,0,-82*2e866617
%RAWIMUSA,2283,41223.840;2283,41223.839999535,00000077,74,-64246,111,28,0,868*b2973ce0
%RAWIMUSA,2283,41223.850;2283,41223.849999535,00000077,-49,-64224,98,0,-8,740*002076db
%RAWIMUSA,2283,41223.860;2283,41223.859999535,00000077,95,-64249,101,-18,-9,-969*33a9d3c1
%RAWIMUSA,2283,41223.870;2283,41223.869999535,00000077,4,-64235,111,-9,0,-1014*624d153d
%RAWIMUSA,2283,41223.880;2283,41223.879999535,00000077,11,-64234,111,18,9,877*aef272ee
%RAWIMUSA,2283,41223.890;2283,41223.889999535,00000077,90,-64249,101,18,0,877*ca43d438
%RAWIMUSA,2283,41223.900;2283,41223.899999535,00000077,-40,-64227,96,-18,-18,-237*a955ea74
%RAWIMUSA,2283,41223.910;2283,41223.909999535,00000077,79,-64247,108,-9,-9,-923*9ee8b07b
%RAWIMUSA,2283,41223.920;2283,41223.919999535,00000077,34,-64239,111,0,8,-283*cf498cce
%RAWIMUSA,2283,41223.930;2283,41223.929999535,00000077,-28,-64230,103,18,9,1060*51e79a7f
%RAWIMUSA,2283,41223.940;2283,41223.939999535,00000077,108,-64250,102,0,-17,649*5fe9b4b2
%RAWIMUSA,2283,41223.950;2283,41223.949999535,00000077,-18,-64228,100,-18,-9,-950*17aa5de8
%RAWIMUSA,2283,41223.960;2283,41223.959999535,00000077,44,-64239,109,-9,0,-886*dc21509a
%RAWIMUSA,2283,41223.970;2283,41223.969999535,00000077,55,-64247,107,9,0,631*83112d57
%RAWIMUSA,2283,41223.980;2283,41223.979999535,00000077,-36,-64226,97,18,0,1042*bc9f48fb
%RAWIMUSA,2283,41223.990;2283,41223.989999535,00000077,113,-64251,107,-9,-9,-246*62e3f8b0
%RAWIMUSA,2283,41224.000;2283,41223.999999535,00000077,-10,-64230,106,-18,-9,-978*d103edeb
%RAWIMUSA,2283,41224.010;2283,41224.009999535,00000077,17,-64236,105,0,8,-182*ad8baa83
%RAWIMUSA,2283,41224.020;2283,41224.019999535,00000077,82,-64246,104,18,0,868*98175602
%RAWIMUSA,2283,41224.030;2283,41224.029999535,00000077,-41,-64225,100,0,-8,832*cba93249
%RAWIMUSA,2283,41224.040;2283,41224.039999535,00000077,87,-64248,108,-9,-19,-950*37cfe8c3
%RAWIMUSA,2283,41224.050;2283,41224.049999535,00000077,3,-64236,104,-18,8,-996*e244bcb4
%RAWIMUSA,2283,41224.060;2283,41224.059999535,00000077,6,-64232,102,18,0,759*641645d1
%RAWIMUSA,2283,41224.070;2283,41224.069999535,00000077,93,-64249,106,18,-8,877*30f55318
%RAWIMUSA,2283,41224.080;2283,41224.079999535,00000077,-46,-64226,102,-18,-9,-127*a4208edb
%RAWIMUSA,2283,41224.090;2283,41224.089999535,00000077,80,-64248,108,-18,0,-932*ae8750af
%RAWIMUSA,2283,41224.100;2283,41224.099999535,00000077,22,-64237,99,9,8,-383*227705e4
%RAWIMUSA,2283,41224.110;2283,41224.109999535,00000077,-9,-64229,102,18,0,1060*adb88c43
%RAWIMUSA,2283,41224.120;2283,41224.119999535,00000077,103,-64252,105,0,-8,749*fe3e50de
%RAWIMUSA,2283,41224.130;2283,41224.129999535,00000077,-40,-64230,107,-18,-9,-932*8aada837
%RAWIMUSA,2283,41224.140;2283,41224.139999535,00000077,59,-64243,102,-9,0,-896*ec1c076c
%RAWIMUSA,2283,41224.150;2283,41224.149999535,00000077,52,-64244,103,18,9,530*7b469edd
%RAWIMUSA,2283,41224.160;2283,41224.159999535,00000077,-34,-64228,106,18,-8,1042*621d3da8
%RAWIMUSA,2283,41224.170;2283,41224.169999535,00000077,110,-64250,108,-18,-18,-155*6ee36dc4
%RAWIMUSA,2283,41224.180;2283,41224.179999535,00000077,-21,-64230,98,-18,0,-978*5b75d85d
%RAWIMUSA,2283,41224.190;2283,41224.189999535,00000077,31,-64237,101,18,8,-292*7f5d33c5
%RAWIMUSA,2283,41224.200;2283,41224.199999535,00000077,78,-64247,112,9,-8,877*0b914fb4
%RAWIMUSA,2283,41224.210;2283,41224.209999535,00000077,-47,-64228,106,0,-8,941*c8d93121
%RAWIMUSA,2283,41224.220;2283,41224.219999535,00000077,99,-64249,101,-18,-9,-969*419528b9
%RAWIMUSA,2283,41224.230;2283,41224.229999535,00000077,12,-64235,98,0,8,-1005*d0d0a8fc
%RAWIMUSA,2283,41224.240;2283,41224.239999535,00000077,-4,-64229,104,9,9,667*e0424b6d
%RAWIMUSA,2283,41224.250;2283,41224.249999535,00000077,97,-64249,109,18,-17,877*8ecfdfc3
%RAWIMUSA,2283,41224.260;2283,41224.259999535,00000077,-48,-64225,101,-18,-9,-27*4f8f81e3
%RAWIMUSA,2283,41224.270;2283,41224.269999535,00000077,72,-64244,102,-9,8,-914*182644a0
%RAWIMUSA,2283,41224.280;2283,41224.279999535,00000077,46,-64243,109,9,0,-502*63ac3a9d
%RAWIMUSA,2283,41224.290;2283,41224.289999535,00000077,-29,-64229,106,9,0,1051*b4e63a73
%RAWIMUSA,2283,41224.300;2283,41224.299999535,00000077,107,-64250,104,0,-17,868*21efd276
%RAWIMUSA,2283,41224.310;2283,41224.309999535,00000077,-18,-64231,99,-18,0,-960*a17eacc8
%RAWIMUSA,2283,41224.320;2283,41224.319999535,00000077,32,-64240,106,0,0,-877*9eca8e87
%RAWIMUSA,2283,41224.330;2283,41224.329999535,00000077,68,-64247,107,18,9,411*1b754dc9
%RAWIMUSA,2283,41224.340;2283,41224.339999535,00000077,-39,-64227,101,18,-17,1042*e092ce83
%RAWIMUSA,2283,41224.350;2283,41224.349999535,00000077,95,-64249,105,-18,-9,-18*b31cfc96
%RAWIMUSA,2283,41224.360;2283,41224.359999535,00000077,5,-64233,106,-18,0,-996*aad3562d
%RAWIMUSA,2283,41224.370;2283,41224.369999535,00000077,4,-64235,105,9,8,-374*17546d00
%RAWIMUSA,2283,41224.380;2283,41224.379999535,00000077,97,-64247,108,18,-8,887*11596747
%RAWIMUSA,2283,41224.390;2283,41224.389999535,00000077,-46,-64229,100,0,-8,1005*46cb97aa
%RAWIMUSA,2283,41224.400;2283,41224.399999535,00000077,84,-64248,104,-18,-9,-914*333a6d63
%RAWIMUSA,2283,41224.410;2283,41224.409999535,00000077,33,-64237,104,-9,8,-1033*f948c5b9
%RAWIMUSA,2283,41224.420;2283,41224.419999535,00000077,-18,-64228,104,18,0,557*7be48ba3
%RAWIMUSA,2283,41224.430;2283,41224.429999535,00000077,105,-64252,108,18,-17,905*5571ba9e
%RAWIMUSA,2283,41224.440;2283,41224.439999535,00000077,-39,-64229,98,-18,-9,36*4391d6af
%RAWIMUSA,2283,41224.450;2283,41224.449999535,00000077,60,-64243,106,-18,0,-896*f35d929a
%RAWIMUSA,2283,41224.460;2283,41224.459999535,00000077,65,-64243,109,9,8,-612*13ed6b12
%RAWIMUSA,2283,41224.470;2283,41224.469999535,00000077,-45,-64227,101,18,-8,1042*2472b7be
%RAWIMUSA,2283,41224.480;2283,41224.479999535,00000077,100,-64251,105,-8,-8,923*e1f5f345
%RAWIMUSA,2283,41224.490;2283,41224.489999535,00000077,-6,-64230,103,-18,-9,-914*76ca3948
%RAWIMUSA,2283,41224.500;2283,41224.499999535,00000077,15,-64236,100,0,8,-877*dd0c0150
%RAWIMUSA,2283,41224.510;2283,41224.509999535,00000077,79,-64249,111,18,0,320*519a0229
%RAWIMUSA,2283,41224.520;2283,41224.519999535,00000077,-42,-64226,107,9,-8,1024*e6ba745e
%RAWIMUSA,2283,41224.530;2283,41224.529999535,00000077,98,-64248,96,-18,-9,91*cf20dc46
%RAWIMUSA,2283,41224.540;2283,41224.539999535,00000077,12,-64236,101,-9,0,-1014*5d98554a
%RAWIMUSA,2283,41224.550;2283,41224.549999535,00000077,-14,-64232,108,9,8,-475*32a90301
%RAWIMUSA,2283,41224.560;2283,41224.559999535,00000077,106,-64249,111,18,-8,877*eacba8bd
%RAWIMUSA,2283,41224.570;2283,41224.569999535,00000077,-35,-64228,96,-8,-8,996*b223eb5b
%RAWIMUSA,2283,41224.580;2283,41224.579999535,00000077,69,-64246,102,-18,-9,-795*a8478acd
%RAWIMUSA,2283,41224.590;2283,41224.589999535,00000077,42,-64244,108,0,8,-1042*5952423f
%RAWIMUSA,2283,41224.600;2283,41224.599999535,00000077,-28,-64226,105,18,0,448*689dc53e
%RAWIMUSA,2283,41224.610;2283,41224.609999535,00000077,110,-64250,101,9,-17,914*8818242e
%RAWIMUSA,2283,41224.620;2283,41224.619999535,00000077,-29,-64230,98,-18,-9,128*9bfcfa64
%RAWIMUSA,2283,41224.630;2283,41224.629999535,00000077,37,-64239,112,-18,8,-877*5a8143ca
%RAWIMUSA,2283,41224.640;2283,41224.639999535,00000077,84,-64244,108,18,8,-731*632e2de5
%RAWIMUSA,2283,41224.650;2283,41224.649999535,00000077,-46,-64225,99,9,-8,1033*e7a003ad
%RAWIMUSA,2283,41224.660;2283,41224.659999535,00000077,98,-64247,103,-8,-17,951*6aeac185
%RAWIMUSA,2283,41224.670;2283,41224.669999535,00000077,-2,-64235,103,-18,0,-850*f63b7adb
%RAWIMUSA,2283,41224.680;2283,41224.679999535,00000077,-6,-64232,101,0,8,-850*79bc02a2
%RAWIMUSA,2283,41224.690;2283,41224.689999535,00000077,111,-64250,105,18,0,219*a675ec1f
%RAWIMUSA,2283,41224.700;2283,41224.699999535,00000077,-41,-64226,100,9,-17,996*02eaa3b8
%RAWIMUSA,2283,41224.710;2283,41224.709999535,00000077,62,-64245,109,-18,0,237*19abd794
%RAWIMUSA,2283,41224.720;2283,41224.719999535,00000077,47,-64244,105,-18,0,-1042*ce92243b
%RAWIMUSA,2283,41224.730;2283,41224.729999535,00000077,-28,-64228,100,18,8,-585*17a12b38
%RAWIMUSA,2283,41224.740;2283,41224.739999535,00000077,102,-64247,102,18,-17,914*f7874525
%RAWIMUSA,2283,41224.750;2283,41224.749999535,00000077,-29,-64229,104,-8,-17,951*d293708e
%RAWIMUSA,2283,41224.760;2283,41224.759999535,00000077,47,-64240,107,-18,8,-667*665b4462
%RAWIMUSA,2283,41224.770;2283,41224.769999535,00000077,83,-64246,105,0,0,-1051*a76bbe56
%RAWIMUSA,2283,41224.780;2283,41224.779999535,00000077,-49,-64229,96,18,0,329*db608efb
%RAWIMUSA,2283,41224.790;2283,41224.789999535,00000077,101,-64249,111,9,-17,941*8bf83e9e
%RAWIMUSA,2283,41224.800;2283,41224.799999535,00000077,-8,-64231,108,-18,-9,210*f2621295
%RAWIMUSA,2283,41224.810;2283,41224.809999535,00000077,21,-64234,96,-18,8,-868*1499a4b9
%RAWIMUSA,2283,41224.820;2283,41224.819999535,00000077,93,-64251,105,18,0,-831*85944de4
%RAWIMUSA,2283,41224.830;2283,41224.829999535,00000077,-50,-64224,110,18,-8,1015*25902ad6
%RAWIMUSA,2283,41224.840;2283,41224.839999535,00000077,83,-64249,106,-8,-8,969*0aca3391
%RAWIMUSA,2283,41224.850;2283,41224.849999535,00000077,24,-64239,95,-18,0,-758*784a644c
%RAWIMUSA,2283,41224.860;2283,41224.859999535,00000077,-13,-64230,101,9,8,-859*4487b8dd
%RAWIMUSA,2283,41224.870;2283,41224.869999535,00000077,100,-64253,116,18,-9,128*d3ae7e4d
%RAWIMUSA,2283,41224.880;2283,41224.879999535,00000077,-34,-64229,105,0,-8,978*92854499
%RAWIMUSA,2283,41224.890;2283,41224.889999535,00000077,59,-64239,96,-18,0,356*4d501581
%RAWIMUSA,2283,41224.900;2283,41224.899999535,00000077,60,-64246,103,-9,0,-1042*357ea8d1
%RAWIMUSA,2283,41224.910;2283,41224.909999535,00000077,-49,-64225,115,18,0,-713*c6c390b9
%RAWIMUSA,2283,41224.920;2283,41224.919999535,00000077,104,-64250,108,18,-8,932*3b87b09e
%RAWIMUSA,2283,41224.930;2283,41224.929999535,00000077,-4,-64235,92,-18,-8,914*228acdd9
%RAWIMUSA,2283,41224.940;2283,41224.939999535,00000077,15,-64234,102,-18,0,-539*784ba047
%RAWIMUSA,2283,41224.950;2283,41224.949999535,00000077,89,-64249,117,9,8,-1042*6757a3a6
%RAWIMUSA,2283,41224.960;2283,41224.959999535,00000077,-45,-64225,100,9,-9,192*e52b835e
%RAWIMUSA,2283,41224.970;2283,41224.969999535,00000077,88,-64248,96,9,-8,987*42e9bf87
%RAWIMUSA,2283,41224.980;2283,41224.979999535,00000077,27,-64238,110,-18,0,274*a588c508
%RAWIMUSA,2283,41224.990;2283,41224.989999535,00000077,-24,-64230,114,-9,0,-850*39080636
%RAWIMUSA,2283,41225.000;2283,41224.999999535,00000077,111,-64250,102,18,0,-895*7d7ec24a
%RAWIMUSA,2283,41225.010;2283,41225.009999535,00000077,-25,-64229,91,18,-8,960*148549f4
%RAWIMUSA,2283,41225.020;2283,41225.019999535,00000077,43,-64240,109,-18,-8,1033*c4077626
%RAWIMUSA,2283,41225.030;2283,41225.029999535,00000077,65,-64246,119,-18,0,-676*54abfa66
%RAWIMUSA,2283,41225.040;2283,41225.039999535,00000077,-42,-64227,97,0,8,-868*02f1e7e1
%RAWIMUSA,2283,41225.050;2283,41225.049999535,00000077,110,-64249,94,18,-9,73*88a5a798
%RAWIMUSA,2283,41225.060;2283,41225.059999535,00000077,-10,-64230,104,9,-8,932*e894ba48
%RAWIMUSA,2283,41225.070;2283,41225.069999535,00000077,20,-64236,120,-18,-8,484*d52bbb6e
%RAWIMUSA,2283,41225.080;2283,41225.079999535,00000077,90,-64248,107,-18,8,-1042*bd69f041
%RAWIMUSA,2283,41225.090;2283,41225.089999535,00000077,-48,-64228,87,18,0,-841*370d8788
%RAWIMUSA,2283,41225.100;2283,41225.099999535,00000077,86,-64248,108,18,-17,978*33d4933e
%RAWIMUSA,2283,41225.110;2283,41225.109999535,00000077,19,-64237,118,-18,-8,877*3a8786d2
%RAWIMUSA,2283,41225.120;2283,41225.119999535,00000077,-7,-64230,102,-18,8,-429*bc18b4a8
%RAWIMUSA,2283,41225.130;2283,41225.129999535,00000077,108,-64249,92,9,0,-1033*68bb3f1c
%RAWIMUSA,2283,41225.140;2283,41225.139999535,00000077,-46,-64227,101,18,-9,64*3a72157a
%RAWIMUSA,2283,41225.150;2283,41225.149999535,00000077,64,-64241,119,0,-8,1015*b5c93356
%RAWIMUSA,2283,41225.160;2283,41225.159999535,00000077,51,-64246,107,-18,0,365*492b9e67
%RAWIMUSA,2283,41225.170;2283,41225.169999535,00000077,-37,-64227,90,-9,8,-859*afd904d0
%RAWIMUSA,2283,41225.180;2283,41225.179999535,00000077,107,-64250,104,18,-10,-978*5a5a1f41
%RAWIMUSA,2283,41225.190;2283,41225.189999535,00000077,-14,-64231,117,18,-8,941*13027218
%RAWIMUSA,2283,41225.200;2283,41225.199999535,00000077,30,-64237,109,-18,0,1042*8c0b5dfc
%RAWIMUSA,2283,41225.210;2283,41225.209999535,00000077,83,-64250,94,-18,0,-566*c6fd6286
%RAWIMUSA,2283,41225.220;2283,41225.219999535,00000077,-50,-64226,95,9,8,-896*886cb9aa
%RAWIMUSA,2283,41225.230;2283,41225.229999535,00000077,94,-64249,118,18,-18,0*45cee879
%RAWIMUSA,2283,41225.240;2283,41225.239999535,00000077,23,-64238,112,-8,-8,887*d79ce4c1
%RAWIMUSA,2283,41225.250;2283,41225.249999535,00000077,-10,-64231,92,-18,0,612*ec345060
%RAWIMUSA,2283,41225.260;2283,41225.259999535,00000077,102,-64251,100,0,0,-1033*26027447
%RAWIMUSA,2283,41225.270;2283,41225.269999535,00000077,-46,-64226,109,9,0,-932*25f81be2
%RAWIMUSA,2283,41225.280;2283,41225.279999535,00000077,64,-64241,114,18,-8,969*6f6a1a72
%RAWIMUSA,2283,41225.290;2283,41225.289999535,00000077,54,-64245,99,-18,-8,868*87d681d1
%RAWIMUSA,2283,41225.300;2283,41225.299999535,00000077,-44,-64228,99,-18,0,-338*e7cc1fd5
%RAWIMUSA,2283,41225.310;2283,41225.309999535,00000077,111,-64249,116,9,8,-996*ba341349
%RAWIMUSA,2283,41225.320;2283,41225.319999535,00000077,-16,-64232,108,18,-18,-91*574e3809
%RAWIMUSA,2283,41225.330;2283,41225.329999535,00000077,25,-64240,97,0,-8,1042*9e8ae6b8
%RAWIMUSA,2283,41225.340;2283,41225.339999535,00000077,81,-64250,100,-18,0,475*e5df04dc
%RAWIMUSA,2283,41225.350;2283,41225.349999535,00000077,-42,-64228,107,-9,8,-896*374859cf
%RAWIMUSA,2283,41225.360;2283,41225.359999535,00000077,101,-64249,113,18,-10,-959*174ece38
%RAWIMUSA,2283,41225.370;2283,41225.369999535,00000077,4,-64237,97,9,-8,813*cb26e302
%RAWIMUSA,2283,41225.380;2283,41225.379999535,00000077,-4,-64233,97,-8,0,1060*7292970f
%RAWIMUSA,2283,41225.390;2283,41225.389999535,00000077,104,-64248,115,-18,0,-457*aaaf57fb
%RAWIMUSA,2283,41225.400;2283,41225.399999535,00000077,-47,-64228,106,9,0,-914*214626fd
%RAWIMUSA,2283,41225.410;2283,41225.409999535,00000077,78,-64246,100,18,-9,-91*29cb4cc5
%RAWIMUSA,2283,41225.420;2283,41225.419999535,00000077,29,-64237,99,-8,-8,887*1d57b2e0
%RAWIMUSA,2283,41225.430;2283,41225.429999535,00000077,-13,-64231,108,-18,9,704*0e1510fc
%RAWIMUSA,2283,41225.440;2283,41225.439999535,00000077,107,-64251,113,0,0,-1014*ae46fb96
%RAWIMUSA,2283,41225.450;2283,41225.449999535,00000077,-41,-64226,96,18,-10,-941*f62bc919
%RAWIMUSA,2283,41225.460;2283,41225.459999535,00000077,54,-64241,99,9,-8,877*c6b07993
%RAWIMUSA,2283,41225.470;2283,41225.469999535,00000077,65,-64247,108,-18,0,868*f7192a3c
%RAWIMUSA,2283,41225.480;2283,41225.479999535,00000077,-38,-64224,111,-18,0,-228*a71a888f
%RAWIMUSA,2283,41225.490;2283,41225.489999535,00000077,102,-64250,104,18,0,-978*2c2f373f
%RAWIMUSA,2283,41225.500;2283,41225.499999535,00000077,-19,-64232,98,18,-9,-201*4b9a010a
%RAWIMUSA,2283,41225.510;2283,41225.509999535,00000077,17,-64233,105,-8,-8,1060*68ee9c8e
%RAWIMUSA,2283,41225.520;2283,41225.519999535,00000077,96,-64249,107,-18,0,576*1736ccf7
%RAWIMUSA,2283,41225.530;2283,41225.529999535,00000077,-54,-64226,101,0,0,-905*95374f8e
%RAWIMUSA,2283,41225.540;2283,41225.539999535,00000077,88,-64245,105,18,-9,-932*0c56efb5
%RAWIMUSA,2283,41225.550;2283,41225.549999535,00000077,28,-64238,103,9,-8,685*24f104f3
%RAWIMUSA,2283,41225.560;2283,41225.559999535,00000077,-19,-64230,105,-18,0,1060*88a23b00
%RAWIMUSA,2283,41225.570;2283,41225.569999535,00000077,105,-64254,107,-18,0,-329*9f3718e0
%RAWIMUSA,2283,41225.580;2283,41225.579999535,00000077,-41,-64228,101,18,0,-950*630a1983
%RAWIMUSA,2283,41225.590;2283,41225.589999534,00000077,65,-64243,104,18,-9,-164*e6aa0ca1
%RAWIMUSA,2283,41225.600;2283,41225.599999534,00000077,66,-64243,109,-8,-8,859*92c30a85
%RAWIMUSA,2283,41225.610;2283,41225.609999534,00000077,-43,-64226,103,-18,0,804*f95e2975
%RAWIMUSA,2283,41225.620;2283,41225.619999534,00000077,101,-64249,106,0,8,-978*d2814064
%RAWIMUSA,2283,41225.630;2283,41225.629999534,00000077,-9,-64231,105,18,-10,-987*7ceb4534
%RAWIMUSA,2283,41225.640;2283,41225.639999534,00000077,23,-64236,103,9,-8,795*8265d2ff
%RAWIMUSA,2283,41225.650;2283,41225.649999534,00000077,86,-64247,106,-18,-8,868*e750f7f8
%RAWIMUSA,2283,41225.660;2283,41225.659999534,00000077,-44,-64227,100,-18,9,-146*ae600a70
%RAWIMUSA,2283,41225.670;2283,41225.669999534,00000077,93,-64250,108,18,0,-950*c1f2b38f
%RAWIMUSA,2283,41225.680;2283,41225.679999534,00000077,10,-64236,105,18,-18,-329*18ac114a
%RAWIMUSA,2283,41225.690;2283,41225.689999534,00000077,-8,-64230,102,-8,0,1060*14521c3d
%RAWIMUSA,2283,41225.700;2283,41225.699999534,00000077,105,-64253,105,-18,0,685*26d7793d
%RAWIMUSA,2283,41225.710;2283,41225.709999534,00000077,-39,-64228,106,0,8,-923*edf76ab0
%RAWIMUSA,2283,41225.720;2283,41225.719999534,00000077,71,-64243,106,18,-9,-905*fb043727
%RAWIMUSA,2283,41225.730;2283,41225.729999534,00000077,41,-64242,103,9,-18,576*5911afd6
%RAWIMUSA,2283,41225.740;2283,41225.739999534,00000077,-31,-64229,101,-18,9,1051*bcf1f898
%RAWIMUSA,2283,41225.750;2283,41225.749999534,00000077,108,-64249,109,-18,0,-210*385e96b6
%RAWIMUSA,2283,41225.760;2283,41225.759999534,00000077,-30,-64230,106,18,0,-960*baf16a46
%RAWIMUSA,2283,41225.770;2283,41225.769999534,00000077,46,-64241,98,18,-18,-255*c8c86da6
%RAWIMUSA,2283,41225.780;2283,41225.779999534,00000077,70,-64246,108,-8,0,868*d54bf93e
%RAWIMUSA,2283,41225.790;2283,41225.789999534,00000077,-39,-64226,102,-18,0,905*6ea685c5
%RAWIMUSA,2283,41225.800;2283,41225.799999534,00000077,100,-64249,103,0,0,-969*08feca30
%RAWIMUSA,2283,41225.810;2283,41225.809999534,00000077,-9,-64233,98,18,-10,-996*8c03647e
%RAWIMUSA,2283,41225.820;2283,41225.819999534,00000077,21,-64234,106,9,-8,685*a1820cf1
%RAWIMUSA,2283,41225.830;2283,41225.829999534,00000077,88,-64246,109,-18,0,868*93ac6998
%RAWIMUSA,2283,41225.840;2283,41225.839999534,00000077,-45,-64223,101,-18,9,-45*e4b54e70
%RAWIMUSA,2283,41225.850;2283,41225.849999534,00000077,94,-64249,105,18,-10,-959*ba2683d7
%RAWIMUSA,2283,41225.860;2283,41225.859999534,00000077,4,-64236,103,18,-9,-438*9482c45c
%RAWIMUSA,2283,41225.870;2283,41225.869999534,00000077,-5,-64233,104,-8,0,1060*615832ad
%RAWIMUSA,2283,41225.880;2283,41225.879999534,00000077,104,-64250,107,-18,0,804*798e3b03
%RAWIMUSA,2283,41225.890;2283,41225.889999534,00000077,-43,-64225,102,0,0,-923*8c5d06a0
%RAWIMUSA,2283,41225.900;2283,41225.899999534,00000077,77,-64246,108,18,-9,-914*d63af036
%RAWIMUSA,2283,41225.910;2283,41225.909999534,00000077,33,-64241,110,0,-8,475*26cdb037
%RAWIMUSA,2283,41225.920;2283,41225.919999534,00000077,-31,-64226,96,-18,0,1051*b759f63f
%RAWIMUSA,2283,41225.930;2283,41225.929999534,00000077,109,-64253,104,-9,9,-109*d5490d5e
%RAWIMUSA,2283,41225.940;2283,41225.939999534,00000077,-25,-64227,107,18,-10,-959*a9f3a37e
%RAWIMUSA,2283,41225.950;2283,41225.949999534,00000077,39,-64241,107,9,-9,-356*7fa39f27
%RAWIMUSA,2283,41225.960;2283,41225.959999534,00000077,73,-64249,100,-8,-8,859*462d6f2a
%RAWIMUSA,2283,41225.970;2283,41225.969999534,00000077,-41,-64225,100,-18,9,996*008fe048
%RAWIMUSA,2283,41225.980;2283,41225.979999534,00000077,97,-64247,114,9,0,-960*ad2e6492
%RAWIMUSA,2283,41225.990;2283,41225.989999534,00000077,-2,-64235,107,9,-10,-996*f6a74f25
%RAWIMUSA,2283,41226.000;2283,41225.999999534,00000077,9,-64234,99,9,-8,594*2c2d43bd
%RAWIMUSA,2283,41226.010;2283,41226.009999534,00000077,102,-64249,107,-18,0,877*dcf6d349
%RAWIMUSA,2283,41226.020;2283,41226.019999534,00000077,-48,-64227,103,-18,9,36*7b075aec
%RAWIMUSA,2283,41226.030;2283,41226.029999534,00000077,79,-64248,106,18,-9,-932*ae5ec596
%RAWIMUSA,2283,41226.040;2283,41226.039999534,00000077,28,-64240,104,27,-18,-539*4b63ec15
%RAWIMUSA,2283,41226.050;2283,41226.049999534,00000077,-14,-64229,103,-18,0,1051*645cb4f8
%RAWIMUSA,2283,41226.060;2283,41226.059999534,00000077,108,-64252,110,-27,9,905*5fa57844
%RAWIMUSA,2283,41226.070;2283,41226.069999534,00000077,-36,-64230,104,9,-9,-941*ad7d40ec
%RAWIMUSA,2283,41226.080;2283,41226.079999534,00000077,56,-64239,103,18,-9,-895*d69027dc
%RAWIMUSA,2283,41226.090;2283,41226.089999534,00000077,66,-64246,106,0,-8,375*df454654
%RAWIMUSA,2283,41226.100;2283,41226.099999534,00000077,-38,-64227,105,-18,9,1033*eba1fa49
%RAWIMUSA,2283,41226.110;2283,41226.109999534,00000077,95,-64253,101,-9,0,27*0f380f85
%RAWIMUSA,2283,41226.120;2283,41226.119999534,00000077,-9,-64230,99,18,-10,-987*463a23f1
%RAWIMUSA,2283,41226.130;2283,41226.129999534,00000077,24,-64235,109,18,-9,-438*637e14c9
%RAWIMUSA,2283,41226.140;2283,41226.139999534,00000077,92,-64250,110,-18,0,868*fbb80769
%RAWIMUSA,2283,41226.150;2283,41226.149999534,00000077,-57,-64227,100,-8,9,1015*b7022d8e
%RAWIMUSA,2283,41226.160;2283,41226.159999534,00000077,88,-64250,102,9,-9,-868*7f1ab318
%RAWIMUSA,2283,41226.170;2283,41226.169999534,00000077,28,-64237,106,18,-19,-1024*7a849a4d
%RAWIMUSA,2283,41226.180;2283,41226.179999534,00000077,-17,-64226,105,-8,0,493*c8c10317
%RAWIMUSA,2283,41226.190;2283,41226.189999534,00000077,100,-64249,104,-8,0,877*79d9e8c0
%RAWIMUSA,2283,41226.200;2283,41226.199999534,00000077,-33,-64227,101,-9,0,109*04ea0935
%RAWIMUSA,2283,41226.210;2283,41226.209999534,00000077,62,-64243,108,18,-9,-914*8266bc3b
%RAWIMUSA,2283,41226.220;2283,41226.219999534,00000077,48,-64244,109,9,-9,-658*2855a057
%RAWIMUSA,2283,41226.230;2283,41226.229999534,00000077,-28,-64228,98,-18,9,1051*4289b622
%RAWIMUSA,2283,41226.240;2283,41226.239999534,00000077,110,-64251,105,-18,0,914*c75a6a96
%RAWIMUSA,2283,41226.250;2283,41226.249999534,00000077,-24,-64230,104,9,-9,-841*aa62500a
%RAWIMUSA,2283,41226.260;2283,41226.259999534,00000077,37,-64240,106,18,-9,-895*8c9719e8
%RAWIMUSA,2283,41226.270;2283,41226.269999534,00000077,77,-64246,102,0,0,256*5e85600b
%RAWIMUSA,2283,41226.280;2283,41226.279999534,00000077,-45,-64228,100,-18,0,1042*8015a720
%RAWIMUSA,2283,41226.290;2283,41226.289999534,00000077,94,-64249,107,-9,0,137*ceabffbd
%RAWIMUSA,2283,41226.300;2283,41226.299999534,00000077,2,-64233,102,18,-10,-996*40e779bc
%RAWIMUSA,2283,41226.310;2283,41226.309999534,00000077,12,-64232,103,18,-18,-557*52e0eb27
%RAWIMUSA,2283,41226.320;2283,41226.319999534,00000077,95,-64249,109,-18,9,877*cc506738
%RAWIMUSA,2283,41226.330;2283,41226.329999534,00000077,-51,-64226,101,-18,0,1005*67e8f9dc
%RAWIMUSA,2283,41226.340;2283,41226.339999534,00000077,78,-64246,103,18,-9,-758*cd0d7d01
%RAWIMUSA,2283,41226.350;2283,41226.349999534,00000077,31,-64241,103,18,-10,-1024*152315b3
%RAWIMUSA,2283,41226.360;2283,41226.359999534,00000077,-20,-64229,106,-8,0,393*226d4b63
%RAWIMUSA,2283,41226.370;2283,41226.369999534,00000077,100,-64250,102,-18,0,905*ce925daf
%RAWIMUSA,2283,41226.380;2283,41226.379999534,00000077,-36,-64227,101,0,0,201*7a61c975
%RAWIMUSA,2283,41226.390;2283,41226.389999534,00000077,61,-64240,108,18,-9,-895*a24ebfa2
%RAWIMUSA,2283,41226.400;2283,41226.399999534,00000077,57,-64247,107,9,-19,-786*ce776c8d
%RAWIMUSA,2283,41226.410;2283,41226.409999534,00000077,-49,-64229,98,-18,9,1051*853dc755
%RAWIMUSA,2283,41226.420;2283,41226.419999534,00000077,112,-64250,107,-18,9,941*ee965631
%RAWIMUSA,2283,41226.430;2283,41226.429999534,00000077,-3,-64231,104,18,-9,-767*162efebf
%RAWIMUSA,2283,41226.440;2283,41226.439999534,00000077,14,-64236,103,18,-9,-868*5c184b49
%RAWIMUSA,2283,41226.450;2283,41226.449999534,00000077,88,-64250,105,-9,0,146*7c9a5522
%RAWIMUSA,2283,41226.460;2283,41226.459999534,00000077,-46,-64226,97,-18,0,1005*21b640c4
%RAWIMUSA,2283,41226.470;2283,41226.469999534,00000077,94,-64247,108,0,0,265*410fbb63
%RAWIMUSA,2283,41226.480;2283,41226.479999534,00000077,24,-64240,103,18,-10,-1033*947b7202
%RAWIMUSA,2283,41226.490;2283,41226.489999534,00000077,-19,-64228,102,9,-9,-639*87f4fc51
%RAWIMUSA,2283,41226.500;2283,41226.499999534,00000077,108,-64249,107,-18,0,896*6ffda9df
%RAWIMUSA,2283,41226.510;2283,41226.509999534,00000077,-40,-64228,103,-18,0,969*a9cfcdb1
%RAWIMUSA,2283,41226.520;2283,41226.519999534,00000077,53,-64245,108,9,0,-612*a7ad0fbb
%RAWIMUSA,2283,41226.530;2283,41226.529999534,00000077,61,-64247,105,18,-19,-1051*7862aeb2
%RAWIMUSA,2283,41226.540;2283,41226.539999534,00000077,-40,-64227,101,-8,0,274*7dbf3815
%RAWIMUSA,2283,41226.550;2283,41226.549999534,00000077,106,-64251,109,-18,9,932*1a4d43b7
%RAWIMUSA,2283,41226.560;2283,41226.559999534,00000077,-16,-64231,105,0,-9,274*1c72996f
%RAWIMUSA,2283,41226.570;2283,41226.569999534,00000077,13,-64233,99,9,-9,-859*31af6e72
%RAWIMUSA,2283,41226.580;2283,41226.579999534,00000077,92,-64251,102,18,-9,-886*98d03cb5
%RAWIMUSA,2283,41226.590;2283,41226.589999534,00000077,-50,-64226,111,-18,9,1015*3a3e18bf
%RAWIMUSA,2283,41226.600;2283,41226.599999534,00000077,90,-64250,108,-18,0,978*1e04eaa1
%RAWIMUSA,2283,41226.610;2283,41226.609999534,00000077,27,-64236,96,18,-9,-685*6da77555
%RAWIMUSA,2283,41226.620;2283,41226.619999534,00000077,-18,-64232,98,18,-9,-859*3f790dda
%RAWIMUSA,2283,41226.630;2283,41226.629999534,00000077,105,-64251,112,-9,0,64*6c26e24f
%RAWIMUSA,2283,41226.640;2283,41226.639999534,00000077,-30,-64227,111,-18,0,978*726c79c4
%RAWIMUSA,2283,41226.650;2283,41226.649999534,00000077,63,-64242,100,0,0,411*59aead68
%RAWIMUSA,2283,41226.660;2283,41226.659999534,00000077,51,-64242,100,18,-10,-1033*bdbb99a6
%RAWIMUSA,2283,41226.670;2283,41226.669999534,00000077,-35,-64226,106,0,-9,-749*c4e7151d
%RAWIMUSA,2283,41226.680;2283,41226.679999534,00000077,111,-64249,115,-8,9,914*43e49e51
%RAWIMUSA,2283,41226.690;2283,41226.689999534,00000077,-27,-64232,97,-18,0,951*8c6c65e4
%RAWIMUSA,2283,41226.700;2283,41226.699999534,00000077,28,-64239,97,18,-9,-493*4dbc6fe3
%RAWIMUSA,2283,41226.710;2283,41226.709999534,00000077,82,-64246,107,18,-19,-1042*fd15ccfb
%RAWIMUSA,2283,41226.720;2283,41226.719999534,00000077,-38,-64226,110,-18,9,155*3bf66db7
%RAWIMUSA,2283,41226.730;2283,41226.729999534,00000077,99,-64247,106,-18,0,951*f5bc05e4
%RAWIMUSA,2283,41226.740;2283,41226.739999534,00000077,-7,-64234,96,9,-8,365*a60c2307
%RAWIMUSA,2283,41226.750;2283,41226.749999534,00000077,8,-64234,109,18,-9,-859*8c646d51
%RAWIMUSA,2283,41226.760;2283,41226.759999534,00000077,98,-64252,109,0,0,-978*e530b684
%RAWIMUSA,2283,41226.770;2283,41226.769999534,00000077,-48,-64226,99,-18,0,996*5aa740d9
%RAWIMUSA,2283,41226.780;2283,41226.779999534,00000077,80,-64245,103,-8,0,978*83f46f9c
%RAWIMUSA,2283,41226.790;2283,41226.789999534,00000077,32,-64240,107,9,-9,-585*e59985b8
%RAWIMUSA,2283,41226.800;2283,41226.799999534,00000077,-15,-64232,108,18,-9,-868*b884d143
%RAWIMUSA,2283,41226.810;2283,41226.809999534,00000077,101,-64252,102,-9,0,-27*68bd96df
%RAWIMUSA,2283,41226.820;2283,41226.819999534,00000077,-39,-64230,97,-18,9,960*18e33258
%RAWIMUSA,2283,41226.830;2283,41226.829999534,00000077,61,-64242,107,9,-8,530*fe382b5e
%RAWIMUSA,2283,41226.840;2283,41226.839999534,00000077,71,-64244,110,18,-10,-1042*597b630a
%RAWIMUSA,2283,41226.850;2283,41226.849999534,00000077,-44,-64227,101,0,0,-868*790bccb6
%RAWIMUSA,2283,41226.860;2283,41226.859999534,00000077,99,-64249,105,-18,0,941*50d5e55d
%RAWIMUSA,2283,41226.870;2283,41226.869999534,00000077,-6,-64231,104,-8,0,914*46c632cd
%RAWIMUSA,2283,41226.880;2283,41226.879999534,00000077,16,-64234,109,18,-9,-374*d79d2a02
%RAWIMUSA,2283,41226.890;2283,41226.889999534,00000077,94,-64247,105,18,-10,-1042*a5a39b9c
%RAWIMUSA,2283,41226.900;2283,41226.899999534,00000077,-46,-64226,100,-18,9,36*1cc5c278
%RAWIMUSA,2283,41226.910;2283,41226.909999534,00000077,83,-64250,108,-18,0,987*1d3e32c1
%RAWIMUSA,2283,41226.920;2283,41226.919999534,00000077,22,-64239,106,9,-8,439*675f3709
%RAWIMUSA,2283,41226.930;2283,41226.929999534,00000077,-18,-64232,101,9,-9,-850*d5fbfb75
%RAWIMUSA,2283,41226.940;2283,41226.939999534,00000077,104,-64255,103,9,-10,-1024*4126e293
%RAWIMUSA,2283,41226.950;2283,41226.949999534,00000077,-36,-64228,100,-18,9,923*6fe659fe
%RAWIMUSA,2283,41226.960;2283,41226.959999534,00000077,60,-64243,111,-18,0,1024*8286dc6c
%RAWIMUSA,2283,41226.970;2283,41226.969999534,00000077,53,-64243,106,18,-18,-502*82423c08
%RAWIMUSA,2283,41226.980;2283,41226.979999534,00000077,-36,-64228,98,18,-9,-868*47ed2937
%RAWIMUSA,2283,41226.990;2283,41226.989999534,00000077,109,-64250,103,-9,9,-118*5c4794f4
%RAWIMUSA,2283,41227.000;2283,41226.999999534,00000077,-23,-64230,105,-18,0,951*839ce5b5
%RAWIMUSA,2283,41227.010;2283,41227.009999534,00000077,42,-64239,108,0,-8,640*d1f783c1
%RAWIMUSA,2283,41227.020;2283,41227.019999534,00000077,76,-64248,100,27,-10,-1051*8d79c0a1
%RAWIMUSA,2283,41227.030;2283,41227.029999534,00000077,-52,-64226,98,0,0,-896*51d0bcc6
%RAWIMUSA,2283,41227.040;2283,41227.039999534,00000077,100,-64251,111,-18,0,859*1ea63832
%RAWIMUSA,2283,41227.050;2283,41227.049999534,00000077,7,-64236,107,-8,0,914*93673bc1
%RAWIMUSA,2283,41227.060;2283,41227.059999534,00000077,1,-64231,103,18,-9,-255*94370c56
%RAWIMUSA,2283,41227.070;2283,41227.069999534,00000077,107,-64252,104,18,-10,-1042*af53a72d
%RAWIMUSA,2283,41227.080;2283,41227.079999534,00000077,-47,-64228,102,-18,0,-91*c084da27
%RAWIMUSA,2283,41227.090;2283,41227.089999534,00000077,69,-64245,109,-18,9,996*afd9b15b
%RAWIMUSA,2283,41227.100;2283,41227.099999534,00000077,46,-64242,103,9,-18,521*332debd1
%RAWIMUSA,2283,41227.110;2283,41227.109999534,00000077,-30,-64229,100,18,-9,-850*37f53e92
%RAWIMUSA,2283,41227.120;2283,41227.119999534,00000077,101,-64250,109,0,0,-1014*f128ca56
%RAWIMUSA,2283,41227.130;2283,41227.129999534,00000077,-22,-64229,105,-18,0,804*e4733eda
%RAWIMUSA,2283,41227.140;2283,41227.139999534,00000077,41,-64238,103,-8,0,1033*9f72f874
%RAWIMUSA,2283,41227.150;2283,41227.149999534,00000077,76,-64248,103,18,-18,-411*bc6d8ecf
%RAWIMUSA,2283,41227.160;2283,41227.159999534,00000077,-52,-64227,104,18,-9,-886*ba1eaa69
%RAWIMUSA,2283,41227.170;2283,41227.169999534,00000077,97,-64248,105,-18,9,-182*9b9c2cbf
%RAWIMUSA,2283,41227.180;2283,41227.179999534,00000077,6,-64234,103,-18,0,914*35150cd1
%RAWIMUSA,2283,41227.190;2283,41227.189999534,00000077,1,-64232,101,9,-8,749*968ece90
%RAWIMUSA,2283,41227.200;2283,41227.199999534,00000077,97,-64250,107,18,-19,-1033*9b397cd9
%RAWIMUSA,2283,41227.210;2283,41227.209999534,00000077,-36,-64226,106,0,8,-905*05a90aee
%RAWIMUSA,2283,41227.220;2283,41227.219999534,00000077,80,-64245,106,-18,0,786*c6834502
%RAWIMUSA,2283,41227.230;2283,41227.229999534,00000077,19,-64241,99,0,0,896*6d5c2e6f
%RAWIMUSA,2283,41227.240;2283,41227.239999534,00000077,-14,-64228,107,18,-9,-173*26be4981
%RAWIMUSA,2283,41227.250;2283,41227.249999534,00000077,109,-64251,111,9,-10,-1014*f9899371
%RAWIMUSA,2283,41227.260;2283,41227.259999534,00000077,-35,-64227,101,-18,0,-219*85c7c0ac
%RAWIMUSA,2283,41227.270;2283,41227.269999534,00000077,52,-64242,104,-18,0,1024*ed5da685
%RAWIMUSA,2283,41227.280;2283,41227.279999534,00000077,58,-64243,106,18,-8,621*5483f26b
%RAWIMUSA,2283,41227.290;2283,41227.289999534,00000077,-30,-64226,108,18,-9,-868*31ee7952
%RAWIMUSA,2283,41227.300;2283,41227.299999534,00000077,102,-64249,103,-9,0,-978*5cbd92be
%RAWIMUSA,2283,41227.310;2283,41227.309999534,00000077,-14,-64232,94,-18,9,676*4d0fc76d
%RAWIMUSA,2283,41227.320;2283,41227.319999534,00000077,25,-64238,108,0,-8,1051*b441af6a
%RAWIMUSA,2283,41227.330;2283,41227.329999534,00000077,86,-64246,113,18,-9,-310*f06b66ea
%RAWIMUSA,2283,41227.340;2283,41227.339999534,00000077,-43,-64229,101,9,0,-886*cb0e8964
%RAWIMUSA,2283,41227.350;2283,41227.349999534,00000077,84,-64249,100,-18,0,-265*ccc7981d
%RAWIMUSA,2283,41227.360;2283,41227.359999534,00000077,17,-64237,101,-18,0,887*e1f4aeac
%RAWIMUSA,2283,41227.370;2283,41227.369999534,00000077,-8,-64228,108,9,-8,877*cfb7013f
%RAWIMUSA,2283,41227.380;2283,41227.379999534,00000077,106,-64250,109,18,-10,-1024*5bd4b5a3
%RAWIMUSA,2283,41227.390;2283,41227.389999534,00000077,-39,-64230,96,0,0,-941*29a275b3
%RAWIMUSA,2283,41227.400;2283,41227.399999534,00000077,58,-64245,107,-18,9,704*ea8aefe2
%RAWIMUSA,2283,41227.410;2283,41227.409999534,00000077,59,-64245,105,0,-8,868*8aa2bff3
%RAWIMUSA,2283,41227.420;2283,41227.419999534,00000077,-37,-64223,99,9,-9,-63*4b794fd2
%RAWIMUSA,2283,41227.430;2283,41227.429999534,00000077,108,-64250,109,18,0,-987*1e00c26a
%RAWIMUSA,2283,41227.440;2283,41227.439999534,00000077,-17,-64228,107,-18,0,-356*a9120b64
%RAWIMUSA,2283,41227.450;2283,41227.449999534,00000077,21,-64238,98,-27,0,1051*345bc11a
%RAWIMUSA,2283,41227.460;2283,41227.459999534,00000077,85,-64250,107,18,-17,740*3fe9e76c
%RAWIMUSA,2283,41227.470;2283,41227.469999534,00000077,-44,-64226,109,18,0,-895*9dd44d13
%RAWIMUSA,2283,41227.480;2283,41227.479999534,00000077,89,-64248,104,-9,0,-932*e2a8ab14
%RAWIMUSA,2283,41227.490;2283,41227.489999533,00000077,18,-64238,99,-18,0,539*43debc76
%RAWIMUSA,2283,41227.500;2283,41227.499999533,00000077,-6,-64228,106,0,-8,1060*3112f55c
%RAWIMUSA,2283,41227.510;2283,41227.509999533,00000077,107,-64251,109,18,-9,-173*7664f370
%RAWIMUSA,2283,41227.520;2283,41227.519999533,00000077,-46,-64229,101,9,0,-932*39507a69
%RAWIMUSA,2283,41227.530;2283,41227.529999533,00000077,62,-64244,104,-18,8,-329*c5001daf
%RAWIMUSA,2283,41227.540;2283,41227.539999533,00000077,55,-64245,107,-8,-8,868*f1324c02
%RAWIMUSA,2283,41227.550;2283,41227.549999533,00000077,-24,-64226,105,9,-8,969*266bfa35
%RAWIMUSA,2283,41227.560;2283,41227.559999533,00000077,99,-64247,102,18,-10,-996*a381abf8
%RAWIMUSA,2283,41227.570;2283,41227.569999533,00000077,-25,-64230,100,-9,8,-969*7b95bdd9
%RAWIMUSA,2283,41227.580;2283,41227.579999533,00000077,39,-64238,108,-8,0,621*df76ea42
%RAWIMUSA,2283,41227.590;2283,41227.589999533,00000077,75,-64247,106,0,-8,859*01ca09d4
%RAWIMUSA,2283,41227.600;2283,41227.599999533,00000077,-44,-64227,102,18,-9,18*dce03a6e
%RAWIMUSA,2283,41227.610;2283,41227.609999533,00000077,98,-64248,103,0,0,-960*675ade62
%RAWIMUSA,2283,41227.620;2283,41227.619999533,00000077,11,-64235,103,-18,0,-493*a44ee122
%RAWIMUSA,2283,41227.630;2283,41227.629999533,00000077,-1,-64235,102,-8,0,1051*5d774d9e
%RAWIMUSA,2283,41227.640;2283,41227.639999533,00000077,94,-64252,106,9,-17,850*7fc4df3b
%RAWIMUSA,2283,41227.650;2283,41227.649999533,00000077,-38,-64226,104,18,0,-914*cbb0c92d
%RAWIMUSA,2283,41227.660;2283,41227.659999533,00000077,79,-64246,106,-9,8,-923*5ea89f0c
%RAWIMUSA,2283,41227.670;2283,41227.669999533,00000077,36,-64239,103,-18,0,420*f0da29ea
%RAWIMUSA,2283,41227.680;2283,41227.679999533,00000077,-25,-64228,104,0,-8,1051*6ca02983
%RAWIMUSA,2283,41227.690;2283,41227.689999533,00000077,106,-64252,111,18,-9,-54*b8547b71
%RAWIMUSA,2283,41227.700;2283,41227.699999533,00000077,-35,-64226,100,9,0,-950*39a94bb1
%RAWIMUSA,2283,41227.710;2283,41227.709999533,00000077,45,-64241,103,-18,8,-420*ab2e8a33
%RAWIMUSA,2283,41227.720;2283,41227.719999533,00000077,75,-64249,112,-18,-8,859*0f96c9f4
%RAWIMUSA,2283,41227.730;2283,41227.729999533,00000077,-47,-64225,101,18,-8,1042*73766e29
%RAWIMUSA,2283,41227.740;2283,41227.739999533,00000077,101,-64252,96,18,-10,-950*c69b4d5d
%RAWIMUSA,2283,41227.750;2283,41227.749999533,00000077,-6,-64231,103,-9,8,-987*f3791423
%RAWIMUSA,2283,41227.760;2283,41227.759999533,00000077,19,-64233,114,-18,0,530*4bd16f30
%RAWIMUSA,2283,41227.770;2283,41227.769999533,00000077,82,-64250,106,0,-17,868*d6120f00
%RAWIMUSA,2283,41227.780;2283,41227.779999533,00000077,-45,-64230,95,18,0,100*11c78457
%RAWIMUSA,2283,41227.790;2283,41227.789999533,00000077,96,-64246,109,0,0,-941*6980d9c7
%RAWIMUSA,2283,41227.800;2283,41227.799999533,00000077,10,-64235,104,-18,0,-603*b876baaa
%RAWIMUSA,2283,41227.810;2283,41227.809999533,00000077,-14,-64231,99,-8,0,1051*821a3f4e
%RAWIMUSA,2283,41227.820;2283,41227.819999533,00000077,102,-64251,108,18,-17,896*af6498c6
%RAWIMUSA,2283,41227.830;2283,41227.829999533,00000077,-35,-64229,102,18,0,-850*86505d97
%RAWIMUSA,2283,41227.840;2283,41227.839999533,00000077,72,-64246,103,-18,8,-914*515b7296
%RAWIMUSA,2283,41227.850;2283,41227.849999533,00000077,38,-64241,104,-18,0,310*d1716dd9
%RAWIMUSA,2283,41227.860;2283,41227.859999533,00000077,-24,-64228,105,9,-8,1051*5b52890d
%RAWIMUSA,2283,41227.870;2283,41227.869999533,00000077,112,-64250,105,18,-9,64*653d0109
%RAWIMUSA,2283,41227.880;2283,41227.879999533,00000077,-28,-64231,101,0,0,-969*d3c6ae84
%RAWIMUSA,2283,41227.890;2283,41227.889999533,00000077,32,-64239,102,-18,8,-511*fa07012c
%RAWIMUSA,2283,41227.900;2283,41227.899999533,00000077,80,-64247,107,-8,-17,859*2bfabcff
%RAWIMUSA,2283,41227.910;2283,41227.909999533,00000077,-35,-64228,105,18,0,1033*689c8e62
%RAWIMUSA,2283,41227.920;2283,41227.919999533,00000077,96,-64250,109,18,-9,-841*c22bb680
%RAWIMUSA,2283,41227.930;2283,41227.929999533,00000077,-8,-64233,101,-18,8,-1005*5e57fcba
%RAWIMUSA,2283,41227.940;2283,41227.939999533,00000077,6,-64236,107,-18,0,420*db3c2b78
%RAWIMUSA,2283,41227.950;2283,41227.949999533,00000077,103,-64252,110,9,-17,877*a561390a
%RAWIMUSA,2283,41227.960;2283,41227.959999533,00000077,-48,-64225,95,18,0,210*2f3a4aaa
%RAWIMUSA,2283,41227.970;2283,41227.969999533,00000077,80,-64248,105,0,0,-941*e011dac2
%RAWIMUSA,2283,41227.980;2283,41227.979999533,00000077,23,-64237,111,-18,0,-703*bfb2f8dc
%RAWIMUSA,2283,41227.990;2283,41227.989999533,00000077,-4,-64230,101,-8,0,1051*1be86a6e
%RAWIMUSA,2283,41228.000;2283,41227.999999533,00000077,99,-64253,97,18,-17,896*348404b4
%RAWIMUSA,2283,41228.010;2283,41228.009999533,00000077,-47,-64226,103,18,0,-749*dfb2f2bb
%RAWIMUSA,2283,41228.020;2283,41228.019999533,00000077,66,-64244,111,-18,8,-914*fb12b14c
%RAWIMUSA,2283,41228.030;2283,41228.029999533,00000077,53,-64242,107,-18,-9,201*5f0bd925
%RAWIMUSA,2283,41228.040;2283,41228.039999533,00000077,-33,-64226,93,9,-8,1060*c55d8347
%RAWIMUSA,2283,41228.050;2283,41228.049999533,00000077,97,-64248,105,18,-9,164*b5c4ff7a
%RAWIMUSA,2283,41228.060;2283,41228.059999533,00000077,-26,-64229,109,0,8,-960*0f493bea
%RAWIMUSA,2283,41228.070;2283,41228.069999533,00000077,48,-64239,108,-9,8,-621*999afb26
%RAWIMUSA,2283,41228.080;2283,41228.079999533,00000077,82,-64247,104,-8,-17,868*4c64e783
%RAWIMUSA,2283,41228.090;2283,41228.089999533,00000077,-53,-64226,97,18,-8,1033*bb0aad67
%RAWIMUSA,2283,41228.100;2283,41228.099999533,00000077,101,-64247,108,18,0,-731*1b619267
%RAWIMUSA,2283,41228.110;2283,41228.109999533,00000077,0,-64234,106,-18,0,-1005*1186f508
%RAWIMUSA,2283,41228.120;2283,41228.119999533,00000077,17,-64238,103,-18,0,320*d7010b56
%RAWIMUSA,2283,41228.130;2283,41228.129999533,00000077,83,-64247,99,9,-17,877*71df0081
%RAWIMUSA,2283,41228.140;2283,41228.139999533,00000077,-46,-64228,101,18,0,301*9a212f27
%RAWIMUSA,2283,41228.150;2283,41228.149999533,00000077,100,-64246,111,0,8,-932*94c60b5e
%RAWIMUSA,2283,41228.160;2283,41228.159999533,00000077,8,-64237,105,-18,0,-804*7fed2bde
%RAWIMUSA,2283,41228.170;2283,41228.169999533,00000077,-20,-64232,99,-8,-8,1051*5eb8bde8
%RAWIMUSA,2283,41228.180;2283,41228.179999533,00000077,107,-64250,106,18,-17,887*d1dc8613
%RAWIMUSA,2283,41228.190;2283,41228.189999533,00000077,-37,-64227,106,18,8,-649*4d2fab1a
%RAWIMUSA,2283,41228.200;2283,41228.199999533,00000077,65,-64243,107,-18,0,-905*2ab9f679
%RAWIMUSA,2283,41228.210;2283,41228.209999533,00000077,38,-64244,101,-18,0,100*e8b3c744
%RAWIMUSA,2283,41228.220;2283,41228.219999533,00000077,-25,-64229,105,9,-8,1060*6e1d7099
%RAWIMUSA,2283,41228.230;2283,41228.229999533,00000077,111,-64251,112,18,-9,265*ef9e8175
%RAWIMUSA,2283,41228.240;2283,41228.239999533,00000077,-30,-64232,101,0,8,-960*85d71fe3
%RAWIMUSA,2283,41228.250;2283,41228.249999533,00000077,37,-64242,100,-18,0,-722*a1d25506
%RAWIMUSA,2283,41228.260;2283,41228.259999533,00000077,74,-64245,107,-8,-17,868*a686ea96
%RAWIMUSA,2283,41228.270;2283,41228.269999533,00000077,-37,-64225,107,18,-8,1033*29fbe6f5
%RAWIMUSA,2283,41228.280;2283,41228.279999533,00000077,98,-64251,107,9,8,-639*b9c432ae
%RAWIMUSA,2283,41228.290;2283,41228.289999533,00000077,-8,-64233,101,-9,0,-996*bce4b625
%RAWIMUSA,2283,41228.300;2283,41228.299999533,00000077,14,-64231,106,-18,-9,228*d090b50f
%RAWIMUSA,2283,41228.310;2283,41228.309999533,00000077,101,-64247,105,9,0,868*6f5b27b6
%RAWIMUSA,2283,41228.320;2283,41228.319999533,00000077,-44,-64228,101,27,-8,411*cebdac90
%RAWIMUSA,2283,41228.330;2283,41228.329999533,00000077,84,-64249,104,-9,8,-932*711c1d62
%RAWIMUSA,2283,41228.340;2283,41228.339999533,00000077,19,-64239,102,-18,0,-914*0f0803c4
%RAWIMUSA,2283,41228.350;2283,41228.349999533,00000077,-10,-64229,106,-8,-8,1060*3bdf2629
%RAWIMUSA,2283,41228.360;2283,41228.359999533,00000077,105,-64251,102,18,-17,896*a99f3963
%RAWIMUSA,2283,41228.370;2283,41228.369999533,00000077,-39,-64225,102,18,8,-548*1f6e35bf
%RAWIMUSA,2283,41228.380;2283,41228.379999533,00000077,62,-64244,104,-18,8,-905*426e952b
%RAWIMUSA,2283,41228.390;2283,41228.389999533,00000077,54,-64242,110,-18,-9,-9*8df00358
%RAWIMUSA,2283,41228.400;2283,41228.399999533,00000077,-41,-64231,106,9,-8,1051*6161880e
%RAWIMUSA,2283,41228.410;2283,41228.409999533,00000077,104,-64248,106,18,-8,375*6d16eb91
%RAWIMUSA,2283,41228.420;2283,41228.419999533,00000077,-19,-64229,96,-9,8,-969*cfc409e8
%RAWIMUSA,2283,41228.430;2283,41228.429999533,00000077,34,-64242,110,-18,0,-822*0e8e1e4d
%RAWIMUSA,2283,41228.440;2283,41228.439999533,00000077,78,-64245,114,0,-8,868*5a81594a
%RAWIMUSA,2283,41228.450;2283,41228.449999533,00000077,-42,-64222,98,18,-8,1033*bff9cbbd
%RAWIMUSA,2283,41228.460;2283,41228.459999533,00000077,92,-64251,100,9,8,-521*5da9316f
%RAWIMUSA,2283,41228.470;2283,41228.469999533,00000077,3,-64232,105,-9,0,-996*6bd432b1
%RAWIMUSA,2283,41228.480;2283,41228.479999533,00000077,15,-64233,103,-27,-9,109*29bd661e
%RAWIMUSA,2283,41228.490;2283,41228.489999533,00000077,91,-64249,112,18,-17,887*6d0ff155
%RAWIMUSA,2283,41228.500;2283,41228.499999533,00000077,-45,-64227,102,18,0,521*10b29c57
%RAWIMUSA,2283,41228.510;2283,41228.509999533,00000077,83,-64245,99,-9,8,-932*cfe16d9d
%RAWIMUSA,2283,41228.520;2283,41228.519999533,00000077,24,-64240,102,-9,-10,-1024*2a7509c3
%RAWIMUSA,2283,41228.530;2283,41228.529999533,00000077,-17,-64228,106,0,-8,1060*bbad3c99
%RAWIMUSA,2283,41228.540;2283,41228.539999533,00000077,105,-64249,109,18,-8,896*140cda45
%RAWIMUSA,2283,41228.550;2283,41228.549999533,00000077,-32,-64226,99,0,8,-447*ac817931
%RAWIMUSA,2283,41228.560;2283,41228.559999533,00000077,61,-64243,106,-9,0,-905*0c2205b5
%RAWIMUSA,2283,41228.570;2283,41228.569999533,00000077,49,-64246,107,-18,-9,-118*158225b0
%RAWIMUSA,2283,41228.580;2283,41228.579999533,00000077,-38,-64227,105,18,-8,1051*cce55e8b
%RAWIMUSA,2283,41228.590;2283,41228.589999533,00000077,110,-64252,105,18,9,484*14b57f26
%RAWIMUSA,2283,41228.600;2283,41228.599999533,00000077,-17,-64228,99,-18,0,-969*d1e6328e
%RAWIMUSA,2283,41228.610;2283,41228.609999533,00000077,31,-64237,105,-9,-9,-877*f6edc438
%RAWIMUSA,2283,41228.620;2283,41228.619999533,00000077,80,-64247,106,0,-8,813*26ea4461
%RAWIMUSA,2283,41228.630;2283,41228.629999533,00000077,-53,-64226,103,18,0,1033*2cd9b631
%RAWIMUSA,2283,41228.640;2283,41228.639999533,00000077,96,-64249,105,0,0,-411*db229c61
%RAWIMUSA,2283,41228.650;2283,41228.649999533,00000077,5,-64235,105,-18,0,-1014*072516d9
%RAWIMUSA,2283,41228.660;2283,41228.659999533,00000077,1,-64228,103,-18,-9,18*bf6a90a4
%RAWIMUSA,2283,41228.670;2283,41228.669999533,00000077,105,-64249,110,18,-17,877*9375ee6d
%RAWIMUSA,2283,41228.680;2283,41228.679999533,00000077,-48,-64227,99,18,9,612*189707ed
%RAWIMUSA,2283,41228.690;2283,41228.689999533,00000077,75,-64248,104,-9,8,-914*b173ba0d
%RAWIMUSA,2283,41228.700;2283,41228.699999533,00000077,44,-64241,103,-18,-10,-1042*35953a22
%RAWIMUSA,2283,41228.710;2283,41228.709999533,00000077,-29,-64227,103,0,-17,960*0d460ce8
%RAWIMUSA,2283,41228.720;2283,41228.719999533,00000077,106,-64250,106,18,0,923*3995e0bc
%RAWIMUSA,2283,41228.730;2283,41228.729999533,00000077,-21,-64230,101,9,8,-383*73a8333c
%RAWIMUSA,2283,41228.740;2283,41228.739999533,00000077,33,-64236,108,-18,0,-868*2fa78524
%RAWIMUSA,2283,41228.750;2283,41228.749999533,00000077,82,-64248,108,-9,-18,-228*df0a56ad
%RAWIMUSA,2283,41228.760;2283,41228.759999533,00000077,-47,-64226,102,18,-8,1024*38816f82
%RAWIMUSA,2283,41228.770;2283,41228.769999533,00000077,91,-64249,107,18,9,640*68145853
%RAWIMUSA,2283,41228.780;2283,41228.779999533,00000077,17,-64236,105,-18,0,-1014*076b7417
%RAWIMUSA,2283,41228.790;2283,41228.789999533,00000077,0,-64230,104,-18,-9,-850*935629a8
%RAWIMUSA,2283,41228.800;2283,41228.799999533,00000077,100,-64251,107,9,-8,731*63e63ee7
%RAWIMUSA,2283,41228.810;2283,41228.809999533,00000077,-48,-64227,98,9,0,996*4b7cb1c3
%RAWIMUSA,2283,41228.820;2283,41228.819999533,00000077,71,-64246,106,9,0,-265*4f87d7e7
%RAWIMUSA,2283,41228.830;2283,41228.829999533,00000077,48,-64244,106,-18,0,-1042*a7b41f6d
%RAWIMUSA,2283,41228.840;2283,41228.839999533,00000077,-42,-64226,104,-9,-9,-82*92e1a434
%RAWIMUSA,2283,41228.850;2283,41228.849999533,00000077,111,-64253,109,18,-8,923*15219f81
