%RAWIMUSA,2283,41876.930;2283,41876.929999193,00000077,-64217,-178,-518,18,8,-941*b5ba50d8
%RAWIMUSA,2283,41876.940;2283,41876.939999193,00000077,-64198,11,-513,-18,8,-914*8143d97e
%RAWIMUSA,2283,41876.950;2283,41876.949999193,00000077,-64214,-143,-530,-18,-8,402*0b73cbfa
%RAWIMUSA,2283,41876.960;2283,41876.959999193,00000077,-64212,-85,-534,0,-8,887*67e2ddd1
%RAWIMUSA,2283,41876.970;2283,41876.969999193,00000077,-64201,-16,-520,9,9,228*77c63ecc
%RAWIMUSA,2283,41876.980;2283,41876.979999193,00000077,-64223,-185,-508,0,0,-1033*510aa065
%RAWIMUSA,2283,41876.990;2283,41876.989999193,00000077,-64201,12,-532,-18,8,-585*e02a24ea
%RAWIMUSA,2283,41877.000;2283,41876.999999193,00000077,-64216,-136,-533,-18,-8,1005*3bbfea75
%RAWIMUSA,2283,41877.010;2283,41877.009999193,00000077,-64211,-102,-517,18,-8,877*7535321b
%RAWIMUSA,2283,41877.020;2283,41877.019999193,00000077,-64203,-12,-515,9,8,-713*192097bd
%RAWIMUSA,2283,41877.030;2283,41877.029999193,00000077,-64216,-178,-528,-18,8,-1033*b61b5f5b
%RAWIMUSA,2283,41877.040;2283,41877.039999193,00000077,-64202,9,-535,-18,-8,347*da0fb226
%RAWIMUSA,2283,41877.050;2283,41877.049999193,00000077,-64215,-132,-518,0,0,1005*a640cbda
%RAWIMUSA,2283,41877.060;2283,41877.059999193,00000077,-64211,-104,-512,18,0,82*5265ebfb
%RAWIMUSA,2283,41877.070;2283,41877.069999193,00000077,-64202,0,-531,-9,8,-850*12306415
%RAWIMUSA,2283,41877.080;2283,41877.079999193,00000077,-64221,-184,-532,-18,-9,-731*4fd8d193
%RAWIMUSA,2283,41877.090;2283,41877.089999193,00000077,-64202,2,-517,-18,0,969*96fe69ba
%RAWIMUSA,2283,41877.100;2283,41877.099999193,00000077,-64213,-126,-511,18,0,1015*44d26b7f
%RAWIMUSA,2283,41877.110;2283,41877.109999193,00000077,-64212,-93,-529,18,8,-841*fac3443b
%RAWIMUSA,2283,41877.120;2283,41877.119999193,00000077,-64206,-10,-535,-27,0,-841*a8772258
%RAWIMUSA,2283,41877.130;2283,41877.129999193,00000077,-64217,-190,-517,-18,-9,201*f7d24902
%RAWIMUSA,2283,41877.140;2283,41877.139999193,00000077,-64202,14,-514,9,-8,987*bdcfbab0
%RAWIMUSA,2283,41877.150;2283,41877.149999193,00000077,-64215,-115,-523,9,18,274*40454577
%RAWIMUSA,2283,41877.160;2283,41877.159999193,00000077,-64215,-106,-536,0,0,-1051*eb8d54f5
%RAWIMUSA,2283,41877.170;2283,41877.169999193,00000077,-64200,-13,-528,-18,0,-612*8171bfb7
%RAWIMUSA,2283,41877.180;2283,41877.179999193,00000077,-64219,-180,-512,-18,-8,896*10b10bad
%RAWIMUSA,2283,41877.190;2283,41877.189999193,00000077,-64202,7,-525,18,0,969*380d6ce9
%RAWIMUSA,2283,41877.200;2283,41877.199999193,00000077,-64213,-117,-528,9,8,-639*57582b8e
%RAWIMUSA,2283,41877.210;2283,41877.209999193,00000077,-64214,-116,-528,-18,0,-1051*357a60d6
%RAWIMUSA,2283,41877.220;2283,41877.219999193,00000077,-64200,6,-518,-27,-8,329*16d0875a
%RAWIMUSA,2283,41877.230;2283,41877.229999193,00000077,-64220,-187,-521,9,0,905*a3bd51a1
%RAWIMUSA,2283,41877.240;2283,41877.239999193,00000077,-64203,-10,-527,9,0,265*bf0525fd
%RAWIMUSA,2283,41877.250;2283,41877.249999193,00000077,-64212,-111,-528,0,17,-886*d6c4d9eb
%RAWIMUSA,2283,41877.260;2283,41877.259999193,00000077,-64213,-117,-517,-18,-9,-850*0da4668a
%RAWIMUSA,2283,41877.270;2283,41877.269999193,00000077,-64200,10,-523,-8,-8,1060*e4cdc100
%RAWIMUSA,2283,41877.280;2283,41877.279999193,00000077,-64221,-193,-527,9,0,914*6deb854e
%RAWIMUSA,2283,41877.290;2283,41877.289999193,00000077,-64202,-16,-526,18,8,-667*1068c6a3
%RAWIMUSA,2283,41877.300;2283,41877.299999193,00000077,-64213,-92,-521,-27,0,-886*34e56c5a
%RAWIMUSA,2283,41877.310;2283,41877.309999193,00000077,-64216,-122,-517,-18,-9,82*5d4c5244
%RAWIMUSA,2283,41877.320;2283,41877.319999193,00000077,-64201,-1,-523,9,0,1051*6bc5e261
%RAWIMUSA,2283,41877.330;2283,41877.329999193,00000077,-64218,-175,-531,9,9,283*72ba3625
%RAWIMUSA,2283,41877.340;2283,41877.339999193,00000077,-64206,-10,-519,0,8,-969*f3d4eb9d
%RAWIMUSA,2283,41877.350;2283,41877.349999193,00000077,-64206,-102,-513,-27,0,-749*df70c6b6
%RAWIMUSA,2283,41877.360;2283,41877.359999193,00000077,-64215,-124,-526,-8,-17,859*b97e3393
%RAWIMUSA,2283,41877.370;2283,41877.369999193,00000077,-64199,4,-535,18,9,1051*c5f8eee1
%RAWIMUSA,2283,41877.380;2283,41877.379999193,00000077,-64220,-178,-520,9,0,-649*2e9194ae
%RAWIMUSA,2283,41877.390;2283,41877.389999193,00000077,-64204,-9,-514,-27,8,-960*3631908b
%RAWIMUSA,2283,41877.400;2283,41877.399999193,00000077,-64208,-106,-525,-18,-9,182*e459718f
%RAWIMUSA,2283,41877.410;2283,41877.409999193,00000077,-64216,-123,-532,9,-8,859*5d40ad74
%RAWIMUSA,2283,41877.420;2283,41877.419999193,00000077,-64200,21,-521,18,9,475*7ef48852
%RAWIMUSA,2283,41877.430;2283,41877.429999193,00000077,-64219,-185,-516,-9,8,-978*1bebb67f
%RAWIMUSA,2283,41877.440;2283,41877.439999193,00000077,-64202,-19,-524,-18,-9,-886*e84aa983
%RAWIMUSA,2283,41877.450;2283,41877.449999193,00000077,-64209,-87,-528,-8,0,1033*7490519b
%RAWIMUSA,2283,41877.460;2283,41877.459999193,00000077,-64219,-140,-521,18,-8,859*d7b035c6
%RAWIMUSA,2283,41877.470;2283,41877.469999193,00000077,-64200,17,-518,9,17,-475*167412e3
%RAWIMUSA,2283,41877.480;2283,41877.479999193,00000077,-64221,-180,-522,-18,0,-969*ecbbd849
%RAWIMUSA,2283,41877.490;2283,41877.489999193,00000077,-64203,-31,-529,-18,-9,27*56b0b27e
%RAWIMUSA,2283,41877.500;2283,41877.499999193,00000077,-64210,-71,-523,0,-8,1042*741ff3d9
%RAWIMUSA,2283,41877.510;2283,41877.509999193,00000077,-64216,-159,-517,18,9,329*cfcb475a
%RAWIMUSA,2283,41877.520;2283,41877.519999193,00000077,-64199,13,-526,-9,8,-868*404f72bd
%RAWIMUSA,2283,41877.530;2283,41877.529999193,00000077,-64220,-172,-526,-27,-9,-932*f2ad98e8
%RAWIMUSA,2283,41877.540;2283,41877.539999193,00000077,-64207,-33,-523,0,-17,923*4387507c
%RAWIMUSA,2283,41877.550;2283,41877.549999193,00000077,-64206,-68,-518,9,19,1042*e3a6774e
%RAWIMUSA,2283,41877.560;2283,41877.559999193,00000077,-64217,-155,-523,9,0,-585*0351d661
%RAWIMUSA,2283,41877.570;2283,41877.569999193,00000077,-64199,12,-532,-18,8,-886*8f7a0bd3
%RAWIMUSA,2283,41877.580;2283,41877.579999193,00000077,-64222,-168,-521,-18,-18,-9*ac406398
%RAWIMUSA,2283,41877.590;2283,41877.589999193,00000077,-64204,-32,-518,9,0,923*7155e50e
%RAWIMUSA,2283,41877.600;2283,41877.599999193,00000077,-64209,-74,-523,18,9,576*b199a08e
%RAWIMUSA,2283,41877.610;2283,41877.609999193,00000077,-64218,-155,-532,-18,8,-1051*69a73b02
%RAWIMUSA,2283,41877.620;2283,41877.619999193,00000077,-64201,20,-524,-18,-19,-877*2a901720
%RAWIMUSA,2283,41877.630;2283,41877.629999193,00000077,-64221,-178,-516,-8,0,923*914b6827
%RAWIMUSA,2283,41877.640;2283,41877.639999193,00000077,-64204,-35,-522,18,0,914*83e2f8e8
%RAWIMUSA,2283,41877.650;2283,41877.649999193,00000077,-64206,-59,-530,0,8,-356*b088b55e
%RAWIMUSA,2283,41877.660;2283,41877.659999193,00000077,-64219,-152,-521,-18,0,-1051*f15d0e0f
%RAWIMUSA,2283,41877.670;2283,41877.669999193,00000077,-64200,15,-516,-18,-9,36*3f5be154
%RAWIMUSA,2283,41877.680;2283,41877.679999193,00000077,-64221,-179,-520,18,0,960*0ef258eb
%RAWIMUSA,2283,41877.690;2283,41877.689999193,00000077,-64203,-38,-534,9,9,484*d00a670c
%RAWIMUSA,2283,41877.700;2283,41877.699999193,00000077,-64209,-42,-523,-9,0,-859*56064b05
%RAWIMUSA,2283,41877.710;2283,41877.709999193,00000077,-64216,-174,-514,-27,-10,-1051*5988515a
%RAWIMUSA,2283,41877.720;2283,41877.719999193,00000077,-64200,20,-524,0,-8,951*a46612bf
%RAWIMUSA,2283,41877.730;2283,41877.729999193,00000077,-64217,-159,-532,18,9,969*e073c7bd
%RAWIMUSA,2283,41877.740;2283,41877.739999193,00000077,-64205,-66,-523,0,0,-457*1e0c3d21
%RAWIMUSA,2283,41877.750;2283,41877.749999193,00000077,-64206,-32,-521,-18,8,-841*40008155
%RAWIMUSA,2283,41877.760;2283,41877.759999193,00000077,-64220,-176,-518,-18,-18,-182*91b713ba
%RAWIMUSA,2283,41877.770;2283,41877.769999193,00000077,-64204,16,-530,9,9,996*9318e61a
%RAWIMUSA,2283,41877.780;2283,41877.779999193,00000077,-64217,-148,-526,9,0,612*236b60f5
%RAWIMUSA,2283,41877.790;2283,41877.789999193,00000077,-64208,-80,-520,-9,0,-1024*f54edcad
%RAWIMUSA,2283,41877.800;2283,41877.799999193,00000077,-64206,-25,-518,-18,-9,-850*58d348ca
%RAWIMUSA,2283,41877.810;2283,41877.809999193,00000077,-64219,-177,-528,0,0,759*1ce2b602
%RAWIMUSA,2283,41877.820;2283,41877.819999193,00000077,-64200,15,-529,9,0,987*88e256ff
%RAWIMUSA,2283,41877.830;2283,41877.829999193,00000077,-64214,-135,-519,0,18,-310*2d2bb222
%RAWIMUSA,2283,41877.840;2283,41877.839999193,00000077,-64211,-100,-517,-18,-19,-1024*62cc400c
%RAWIMUSA,2283,41877.850;2283,41877.849999193,00000077,-64202,-9,-529,-18,0,-36*9e9d0abb
%RAWIMUSA,2283,41877.860;2283,41877.859999193,00000077,-64218,-176,-525,18,0,887*c8203cc9
%RAWIMUSA,2283,41877.870;2283,41877.869999193,00000077,-64201,8,-521,9,9,658*e5f12850
%RAWIMUSA,2283,41877.880;2283,41877.879999193,00000077,-64214,-131,-517,-18,8,-905*25453357
%RAWIMUSA,2283,41877.890;2283,41877.889999193,00000077,-64211,-102,-527,-18,-10,-1042*fa400b19
%RAWIMUSA,2283,41877.900;2283,41877.899999193,00000077,-64204,-1,-531,9,-8,887*43309a70
%RAWIMUSA,2283,41877.910;2283,41877.909999193,00000077,-64220,-188,-519,9,9,887*5f4e7483
%RAWIMUSA,2283,41877.920;2283,41877.919999193,00000077,-64204,5,-522,9,8,-265*ac90763d
%RAWIMUSA,2283,41877.930;2283,41877.929999193,00000077,-64215,-120,-529,-27,0,-905*24e9921f
%RAWIMUSA,2283,41877.940;2283,41877.939999193,00000077,-64212,-96,-525,-9,-18,-274*6a32947e
%RAWIMUSA,2283,41877.950;2283,41877.949999193,00000077,-64199,-13,-519,9,9,1051*7a85c116
%RAWIMUSA,2283,41877.960;2283,41877.959999193,00000077,-64219,-187,-515,18,9,621*54d2e20b
%RAWIMUSA,2283,41877.970;2283,41877.969999193,00000077,-64198,8,-533,-18,0,-923*80d7d0dc
%RAWIMUSA,2283,41877.980;2283,41877.979999193,00000077,-64216,-120,-528,-27,-9,-923*eb570e7a
%RAWIMUSA,2283,41877.990;2283,41877.989999193,00000077,-64207,-99,-517,9,-8,658*f299a79a
%RAWIMUSA,2283,41878.000;2283,41877.999999193,00000077,-64203,-20,-519,18,19,1060*d9b6ad13
%RAWIMUSA,2283,41878.010;2283,41878.009999193,00000077,-64214,-177,-529,-9,0,-319*1255a229
%RAWIMUSA,2283,41878.020;2283,41878.019999193,00000077,-64204,11,-531,-18,-9,-914*81c141ef
%RAWIMUSA,2283,41878.030;2283,41878.029999193,00000077,-64212,-141,-518,-18,0,-219*06788cd5
%RAWIMUSA,2283,41878.040;2283,41878.039999193,00000077,-64209,-85,-513,9,0,896*3724406a
%RAWIMUSA,2283,41878.050;2283,41878.049999193,00000077,-64202,-32,-528,18,9,832*99e2b857
%RAWIMUSA,2283,41878.060;2283,41878.059999193,00000077,-64220,-163,-525,-18,-10,-1033*28dd4e24
%RAWIMUSA,2283,41878.070;2283,41878.069999193,00000077,-64199,4,-526,-18,0,-914*68442e9a
%RAWIMUSA,2283,41878.080;2283,41878.079999193,00000077,-64218,-150,-517,0,0,704*6a7085bf
%RAWIMUSA,2283,41878.090;2283,41878.089999193,00000077,-64209,-69,-526,18,0,887*50ecd069
%RAWIMUSA,2283,41878.100;2283,41878.099999193,00000077,-64205,-31,-526,-9,9,-91*5911a3e8
%RAWIMUSA,2283,41878.110;2283,41878.109999193,00000077,-64218,-178,-525,-18,-10,-1042*c01dc1a3
%RAWIMUSA,2283,41878.120;2283,41878.119999193,00000077,-64199,6,-520,-18,-9,-255*b8a08ae2
%RAWIMUSA,2283,41878.130;2283,41878.129999193,00000077,-64214,-143,-529,18,9,987*88f95d41
%RAWIMUSA,2283,41878.140;2283,41878.139999193,00000077,-64211,-70,-527,18,9,722*04186c5b
%RAWIMUSA,2283,41878.150;2283,41878.149999193,00000077,-64205,-30,-519,-27,0,-850*a6f7281c
%RAWIMUSA,2283,41878.160;2283,41878.159999193,00000077,-64221,-183,-518,-18,-10,-1051*3366d048
%RAWIMUSA,2283,41878.170;2283,41878.169999193,00000077,-64201,15,-528,0,0,658*8801c050
%RAWIMUSA,2283,41878.180;2283,41878.179999193,00000077,-64220,-143,-527,18,9,996*a9104827
%RAWIMUSA,2283,41878.190;2283,41878.189999193,00000077,-64209,-78,-522,0,0,-219*4e2eb7df
%RAWIMUSA,2283,41878.200;2283,41878.199999193,00000077,-64202,-15,-520,-27,-9,-850*cb94d7eb
%RAWIMUSA,2283,41878.210;2283,41878.209999193,00000077,-64216,-185,-527,-9,-9,-411*e4f36144
%RAWIMUSA,2283,41878.220;2283,41878.219999193,00000077,-64203,16,-527,9,9,978*cbc1b75c
%RAWIMUSA,2283,41878.230;2283,41878.229999193,00000077,-64212,-135,-516,18,9,896*1142fcca
%RAWIMUSA,2283,41878.240;2283,41878.239999193,00000077,-64213,-100,-521,-18,-10,-1042*28d124cd
%RAWIMUSA,2283,41878.250;2283,41878.249999193,00000077,-64202,-2,-531,-27,0,-850*3d73e7d1
%RAWIMUSA,2283,41878.260;2283,41878.259999193,00000077,-64219,-184,-522,9,0,503*e5eb8197
%RAWIMUSA,2283,41878.270;2283,41878.269999193,00000077,-64197,5,-523,18,9,978*f372ce9c
%RAWIMUSA,2283,41878.280;2283,41878.279999193,00000077,-64212,-130,-523,-9,0,-36*59b0660c
%RAWIMUSA,2283,41878.290;2283,41878.289999193,00000077,-64213,-104,-526,-27,-10,-1042*487028b3
%RAWIMUSA,2283,41878.300;2283,41878.299999193,00000077,-64204,-1,-525,-9,-9,-301*1644a5b6
%RAWIMUSA,2283,41878.310;2283,41878.309999193,00000077,-64219,-189,-522,18,18,887*9e9ac8d3
%RAWIMUSA,2283,41878.320;2283,41878.319999193,00000077,-64203,2,-521,9,0,923*f034f6fe
%RAWIMUSA,2283,41878.330;2283,41878.329999193,00000077,-64213,-124,-526,-18,0,-905*a58ceeb3
%RAWIMUSA,2283,41878.340;2283,41878.339999193,00000077,-64212,-100,-523,-18,-10,-1033*1df7a185
%RAWIMUSA,2283,41878.350;2283,41878.349999193,00000077,-64202,-12,-524,9,0,631*c1ab1fee
%RAWIMUSA,2283,41878.360;2283,41878.359999193,00000077,-64221,-177,-522,18,9,887*b093c5f4
%RAWIMUSA,2283,41878.370;2283,41878.369999193,00000077,-64200,2,-525,-9,0,-9*f9da173a
%RAWIMUSA,2283,41878.380;2283,41878.379999193,00000077,-64217,-135,-522,-27,-9,-914*e6572b73
%RAWIMUSA,2283,41878.390;2283,41878.389999193,00000077,-64210,-87,-523,0,0,-530*95a6e0ae
%RAWIMUSA,2283,41878.400;2283,41878.399999193,00000077,-64207,-22,-521,9,0,1051*08c9cfdc
%RAWIMUSA,2283,41878.410;2283,41878.409999193,00000077,-64216,-180,-522,9,9,859*0850c1e2
%RAWIMUSA,2283,41878.420;2283,41878.419999192,00000077,-64201,15,-527,-18,-9,-914*c437a535
%RAWIMUSA,2283,41878.430;2283,41878.429999192,00000077,-64214,-138,-525,-18,0,-923*9542c7a2
%RAWIMUSA,2283,41878.440;2283,41878.439999192,00000077,-64211,-91,-521,9,0,393*4162b3fb
%RAWIMUSA,2283,41878.450;2283,41878.449999192,00000077,-64202,-16,-524,9,9,1060*f2b98990
%RAWIMUSA,2283,41878.460;2283,41878.459999192,00000077,-64221,-176,-520,-9,0,-54*3d99afc1
%RAWIMUSA,2283,41878.470;2283,41878.469999192,00000077,-64198,12,-531,-18,-9,-923*0ec91bd5
%RAWIMUSA,2283,41878.480;2283,41878.479999192,00000077,-64216,-134,-523,0,-9,-466*c16230ac
%RAWIMUSA,2283,41878.490;2283,41878.489999192,00000077,-64208,-91,-524,9,9,877*f5e7e39b
%RAWIMUSA,2283,41878.500;2283,41878.499999192,00000077,-64203,-20,-526,9,9,1051*07a7e7e5
%RAWIMUSA,2283,41878.510;2283,41878.509999192,00000077,-64221,-179,-522,-18,-10,-987*ecbbcd13
%RAWIMUSA,2283,41878.520;2283,41878.519999192,00000077,-64202,10,-525,-18,-9,-923*e78393d9
%RAWIMUSA,2283,41878.530;2283,41878.529999192,00000077,-64213,-132,-526,9,9,466*8c398dc4
%RAWIMUSA,2283,41878.540;2283,41878.539999192,00000077,-64210,-87,-527,9,9,877*bd2bde43
%RAWIMUSA,2283,41878.550;2283,41878.549999192,00000077,-64201,-23,-523,-9,0,182*4c882b95
%RAWIMUSA,2283,41878.560;2283,41878.559999192,00000077,-64220,-185,-515,-18,-19,-1033*2aafb65f
%RAWIMUSA,2283,41878.570;2283,41878.569999192,00000077,-64201,11,-525,0,8,-521*7b470579
%RAWIMUSA,2283,41878.580;2283,41878.579999192,00000077,-64216,-131,-526,9,9,996*e577d220
%RAWIMUSA,2283,41878.590;2283,41878.589999192,00000077,-64208,-83,-530,9,0,877*abdff217
%RAWIMUSA,2283,41878.600;2283,41878.599999192,00000077,-64205,-25,-522,-27,-9,-758*ed5bb214
%RAWIMUSA,2283,41878.610;2283,41878.609999192,00000077,-64216,-177,-515,-18,-10,-1024*84b765e1
%RAWIMUSA,2283,41878.620;2283,41878.619999192,00000077,-64202,3,-523,9,9,393*2ac43b91
%RAWIMUSA,2283,41878.630;2283,41878.629999192,00000077,-64213,-136,-534,18,9,996*7b928aa6
%RAWIMUSA,2283,41878.640;2283,41878.639999192,00000077,-64210,-81,-524,-18,-9,54*de2c3e0e
%RAWIMUSA,2283,41878.650;2283,41878.649999192,00000077,-64204,-23,-519,-18,0,-841*4e0d084e
%RAWIMUSA,2283,41878.660;2283,41878.659999192,00000077,-64217,-187,-515,0,-9,-685*8f5fa71c
%RAWIMUSA,2283,41878.670;2283,41878.669999192,00000077,-64198,17,-534,9,9,987*7f53977f
%RAWIMUSA,2283,41878.680;2283,41878.679999192,00000077,-64215,-139,-527,9,9,1005*bb498b19
%RAWIMUSA,2283,41878.690;2283,41878.689999192,00000077,-64211,-89,-516,-18,-9,-886*934fe71d
%RAWIMUSA,2283,41878.700;2283,41878.699999192,00000077,-64205,-9,-520,-27,0,-841*04c441df
%RAWIMUSA,2283,41878.710;2283,41878.709999192,00000077,-64219,-184,-527,18,0,237*20034eb8
%RAWIMUSA,2283,41878.720;2283,41878.719999192,00000077,-64203,4,-530,18,9,987*ace257ba
%RAWIMUSA,2283,41878.730;2283,41878.729999192,00000077,-64213,-130,-522,-18,-9,219*0c471fe9
%RAWIMUSA,2283,41878.740;2283,41878.739999192,00000077,-64211,-92,-518,-27,-10,-1033*df8a085a
%RAWIMUSA,2283,41878.750;2283,41878.749999192,00000077,-64201,-4,-528,0,8,-575*1e0246b0
%RAWIMUSA,2283,41878.760;2283,41878.759999192,00000077,-64220,-183,-524,18,0,887*92fdca45
%RAWIMUSA,2283,41878.770;2283,41878.769999192,00000077,-64200,7,-521,0,9,978*b3da974b
%RAWIMUSA,2283,41878.780;2283,41878.779999192,00000077,-64216,-129,-520,-18,-9,-694*a4889f26
%RAWIMUSA,2283,41878.790;2283,41878.789999192,00000077,-64213,-102,-528,-18,-10,-1051*ac9a73e1
%RAWIMUSA,2283,41878.800;2283,41878.799999192,00000077,-64205,0,-525,9,9,374*6a108599
%RAWIMUSA,2283,41878.810;2283,41878.809999192,00000077,-64219,-189,-520,18,9,887*b85d4942
%RAWIMUSA,2283,41878.820;2283,41878.819999192,00000077,-64200,0,-524,-18,-9,256*8923956f
%RAWIMUSA,2283,41878.830;2283,41878.829999192,00000077,-64211,-119,-527,-18,-9,-896*51d856bf
%RAWIMUSA,2283,41878.840;2283,41878.839999192,00000077,-64213,-101,-525,0,0,-804*ac2683e5
%RAWIMUSA,2283,41878.850;2283,41878.849999192,00000077,-64202,-11,-521,18,19,1051*286e7cb8
%RAWIMUSA,2283,41878.860;2283,41878.859999192,00000077,-64221,-184,-524,0,0,887*d89d1e9b
%RAWIMUSA,2283,41878.870;2283,41878.869999192,00000077,-64199,8,-528,-27,-9,-685*69a11726
%RAWIMUSA,2283,41878.880;2283,41878.879999192,00000077,-64216,-125,-520,-18,0,-896*7045b930
%RAWIMUSA,2283,41878.890;2283,41878.889999192,00000077,-64211,-115,-520,18,9,128*b62e3d1e
%RAWIMUSA,2283,41878.900;2283,41878.899999192,00000077,-64202,2,-523,9,0,1051*09274e3a
%RAWIMUSA,2283,41878.910;2283,41878.909999192,00000077,-64217,-188,-530,-18,0,228*a095f885
%RAWIMUSA,2283,41878.920;2283,41878.919999192,00000077,-64205,1,-525,-18,-19,-960*429bb470
%RAWIMUSA,2283,41878.930;2283,41878.929999192,00000077,-64212,-113,-518,0,17,-703*3ed0866c
%RAWIMUSA,2283,41878.940;2283,41878.939999192,00000077,-64215,-127,-522,9,0,868*217a417e
%RAWIMUSA,2283,41878.950;2283,41878.949999192,00000077,-64201,14,-532,0,9,1060*d8c68461
%RAWIMUSA,2283,41878.960;2283,41878.959999192,00000077,-64219,-188,-523,-18,-18,-703*06901826
%RAWIMUSA,2283,41878.970;2283,41878.969999192,00000077,-64202,-8,-518,-18,0,-950*2e0275a7
%RAWIMUSA,2283,41878.980;2283,41878.979999192,00000077,-64214,-97,-518,18,9,219*bc7d723f
%RAWIMUSA,2283,41878.990;2283,41878.989999192,00000077,-64213,-123,-529,18,9,868*a31ec340
%RAWIMUSA,2283,41879.000;2283,41878.999999192,00000077,-64202,4,-528,-18,-8,429*e323b9d4
%RAWIMUSA,2283,41879.010;2283,41879.009999192,00000077,-64219,-188,-519,-27,0,-1005*afda9fd5
%RAWIMUSA,2283,41879.020;2283,41879.019999192,00000077,-64203,2,-514,9,0,-813*84e4ea62
%RAWIMUSA,2283,41879.030;2283,41879.029999192,00000077,-64213,-104,-527,9,9,1015*c555f14c
%RAWIMUSA,2283,41879.040;2283,41879.039999192,00000077,-64214,-124,-532,0,-8,877*ea7dcacf
%RAWIMUSA,2283,41879.050;2283,41879.049999192,00000077,-64200,0,-526,-18,0,-502*b1438cd1
%RAWIMUSA,2283,41879.060;2283,41879.059999192,00000077,-64224,-181,-505,-18,0,-1014*38fb1d9b
%RAWIMUSA,2283,41879.070;2283,41879.069999192,00000077,-64199,3,-530,18,9,128*c2234af0
%RAWIMUSA,2283,41879.080;2283,41879.079999192,00000077,-64215,-116,-536,9,0,1015*2a14e417
%RAWIMUSA,2283,41879.090;2283,41879.089999192,00000077,-64213,-108,-521,-18,-9,292*651cdc3d
%RAWIMUSA,2283,41879.100;2283,41879.099999192,00000077,-64198,6,-511,-27,-9,-850*489dd017
%RAWIMUSA,2283,41879.110;2283,41879.109999192,00000077,-64217,-192,-524,9,8,-923*dbcf4282
%RAWIMUSA,2283,41879.120;2283,41879.119999192,00000077,-64203,-3,-536,18,9,960*26961506
%RAWIMUSA,2283,41879.130;2283,41879.129999192,00000077,-64214,-107,-523,-8,0,1024*e1c8de97
%RAWIMUSA,2283,41879.140;2283,41879.139999192,00000077,-64212,-107,-508,-18,-18,-639*be4f1b71
%RAWIMUSA,2283,41879.150;2283,41879.149999192,00000077,-64199,-16,-527,-18,8,-859*95d9d5dd
%RAWIMUSA,2283,41879.160;2283,41879.159999192,00000077,-64221,-189,-535,18,9,0*4499cd8e
%RAWIMUSA,2283,41879.170;2283,41879.169999192,00000077,-64202,8,-528,9,0,969*183a0b0a
%RAWIMUSA,2283,41879.180;2283,41879.179999192,00000077,-64215,-119,-510,-18,-8,493*1fad62c8
%RAWIMUSA,2283,41879.190;2283,41879.189999192,00000077,-64211,-114,-520,-18,0,-1042*97ef6d17
%RAWIMUSA,2283,41879.200;2283,41879.199999192,00000077,-64202,2,-538,9,8,-813*4008aad3
%RAWIMUSA,2283,41879.210;2283,41879.209999192,00000077,-64217,-192,-527,9,9,905*32926f92
%RAWIMUSA,2283,41879.220;2283,41879.219999192,00000077,-64203,-9,-512,0,-8,951*f4f7ad77
%RAWIMUSA,2283,41879.230;2283,41879.229999192,00000077,-64213,-103,-520,-27,-9,-429*62fe1a35
%RAWIMUSA,2283,41879.240;2283,41879.239999192,00000077,-64216,-125,-531,-9,0,-1051*5d3ba781
%RAWIMUSA,2283,41879.250;2283,41879.249999192,00000077,-64201,5,-530,18,9,100*90fae12a
%RAWIMUSA,2283,41879.260;2283,41879.259999192,00000077,-64220,-181,-513,9,0,905*aa4c7df7
%RAWIMUSA,2283,41879.270;2283,41879.269999192,00000077,-64201,-5,-523,-18,-8,493*41a7ef7a
%RAWIMUSA,2283,41879.280;2283,41879.279999192,00000077,-64216,-107,-534,-27,0,-886*ffa6219e
%RAWIMUSA,2283,41879.290;2283,41879.289999192,00000077,-64217,-121,-523,9,0,-1051*89338061
%RAWIMUSA,2283,41879.300;2283,41879.299999192,00000077,-64200,10,-516,18,19,1042*df0e5de6
%RAWIMUSA,2283,41879.310;2283,41879.309999192,00000077,-64216,-185,-527,-8,-8,923*99c8f15c
%RAWIMUSA,2283,41879.320;2283,41879.319999192,00000077,-64202,-8,-528,-18,-9,-457*770f8c95
%RAWIMUSA,2283,41879.330;2283,41879.329999192,00000077,-64210,-102,-524,-9,0,-868*c7746f11
%RAWIMUSA,2283,41879.340;2283,41879.339999192,00000077,-64220,-128,-516,9,0,-146*d070510c
%RAWIMUSA,2283,41879.350;2283,41879.349999192,00000077,-64197,23,-528,9,9,1051*a7ae553d
%RAWIMUSA,2283,41879.360;2283,41879.359999192,00000077,-64221,-187,-526,-18,-8,512*cb228c54
%RAWIMUSA,2283,41879.370;2283,41879.369999192,00000077,-64201,-19,-526,-18,0,-978*c9615402
%RAWIMUSA,2283,41879.380;2283,41879.379999192,00000077,-64211,-83,-519,9,8,-868*a83440ef
%RAWIMUSA,2283,41879.390;2283,41879.389999192,00000077,-64214,-141,-524,18,9,795*4cb85a88
%RAWIMUSA,2283,41879.400;2283,41879.399999192,00000077,-64201,7,-524,-8,-8,1033*f6dfb641
%RAWIMUSA,2283,41879.410;2283,41879.409999192,00000077,-64216,-178,-521,-27,-9,-402*9c9e163d
%RAWIMUSA,2283,41879.420;2283,41879.419999192,00000077,-64204,-23,-525,0,0,-978*ca2bc796
%RAWIMUSA,2283,41879.430;2283,41879.429999192,00000077,-64208,-86,-524,9,9,-18*471976b5
%RAWIMUSA,2283,41879.440;2283,41879.439999192,00000077,-64216,-146,-517,9,0,868*a11c7d54
%RAWIMUSA,2283,41879.450;2283,41879.449999192,00000077,-64199,14,-525,-18,-8,676*a3002145
%RAWIMUSA,2283,41879.460;2283,41879.459999192,00000077,-64221,-180,-527,-27,0,-969*ddbb4214
%RAWIMUSA,2283,41879.470;2283,41879.469999192,00000077,-64204,-20,-531,18,8,-987*28399b4f
%RAWIMUSA,2283,41879.480;2283,41879.479999192,00000077,-64210,-81,-514,9,0,923*972cded2
%RAWIMUSA,2283,41879.490;2283,41879.489999192,00000077,-64214,-149,-518,-8,-8,868*ea378b66
%RAWIMUSA,2283,41879.500;2283,41879.499999192,00000077,-64198,18,-531,-18,-9,-255*3af7143a
%RAWIMUSA,2283,41879.510;2283,41879.509999192,00000077,-64218,-179,-531,-9,8,-978*ac93a34a
%RAWIMUSA,2283,41879.520;2283,41879.519999192,00000077,-64208,-26,-519,18,0,-182*9b885b6d
%RAWIMUSA,2283,41879.530;2283,41879.529999192,00000077,-64207,-74,-519,0,9,1051*5f45ed85
%RAWIMUSA,2283,41879.540;2283,41879.539999192,00000077,-64216,-145,-528,-18,-8,557*d0b691ec
%RAWIMUSA,2283,41879.550;2283,41879.549999192,00000077,-64198,14,-531,-18,0,-868*3d3ab344
%RAWIMUSA,2283,41879.560;2283,41879.559999192,00000077,-64222,-177,-518,18,8,-978*226a2737
%RAWIMUSA,2283,41879.570;2283,41879.569999192,00000077,-64202,-25,-520,9,0,749*dcb46d2f
%RAWIMUSA,2283,41879.580;2283,41879.579999192,00000077,-64208,-77,-525,-18,0,1042*2abaf549
%RAWIMUSA,2283,41879.590;2283,41879.589999192,00000077,-64215,-146,-530,-18,-9,-374*483e8c03
%RAWIMUSA,2283,41879.600;2283,41879.599999192,00000077,-64201,15,-524,0,0,-877*8c9b1ed8
%RAWIMUSA,2283,41879.610;2283,41879.609999192,00000077,-64219,-177,-518,9,8,-219*860c24ce
%RAWIMUSA,2283,41879.620;2283,41879.619999192,00000077,-64206,-29,-524,0,-8,914*e0838950
%RAWIMUSA,2283,41879.630;2283,41879.629999192,00000077,-64206,-65,-527,-18,0,786*17755dd4
%RAWIMUSA,2283,41879.640;2283,41879.639999192,00000077,-64221,-154,-521,-18,-10,-1051*634827da
%RAWIMUSA,2283,41879.650;2283,41879.649999192,00000077,-64198,23,-522,9,17,-877*45bac152
%RAWIMUSA,2283,41879.660;2283,41879.659999192,00000077,-64222,-173,-524,18,0,722*16606bf4
%RAWIMUSA,2283,41879.670;2283,41879.669999192,00000077,-64206,-51,-527,-8,-8,914*e52d638a
%RAWIMUSA,2283,41879.680;2283,41879.679999192,00000077,-64204,-47,-525,-27,-9,-137*b3619bbc
%RAWIMUSA,2283,41879.690;2283,41879.689999192,00000077,-64214,-164,-522,0,8,-1042*5bcb2211
%RAWIMUSA,2283,41879.700;2283,41879.699999192,00000077,-64201,19,-528,9,8,-201*ab6a21c7
%RAWIMUSA,2283,41879.710;2283,41879.709999192,00000077,-64215,-171,-524,9,0,969*86c2fd1c
%RAWIMUSA,2283,41879.720;2283,41879.719999192,00000077,-64211,-63,-519,-18,-17,695*4fce38f1
%RAWIMUSA,2283,41879.730;2283,41879.729999192,00000077,-64205,-33,-519,-27,8,-859*c3b5eebb
%RAWIMUSA,2283,41879.740;2283,41879.739999192,00000077,-64218,-168,-527,18,0,-1042*1dd84ab2
%RAWIMUSA,2283,41879.750;2283,41879.749999192,00000077,-64198,8,-531,18,0,731*79081d3b
%RAWIMUSA,2283,41879.760;2283,41879.759999192,00000077,-64217,-156,-518,-18,-8,960*4f8600ae
%RAWIMUSA,2283,41879.770;2283,41879.769999192,00000077,-64208,-59,-517,-18,0,-237*d86f8374
%RAWIMUSA,2283,41879.780;2283,41879.779999192,00000077,-64208,-42,-525,0,8,-859*fa21f505
%RAWIMUSA,2283,41879.790;2283,41879.789999192,00000077,-64220,-171,-531,18,8,-402*46216e9f
%RAWIMUSA,2283,41879.800;2283,41879.799999192,00000077,-64203,22,-523,0,-17,1024*f9dda9ba
%RAWIMUSA,2283,41879.810;2283,41879.809999192,00000077,-64219,-156,-513,-27,0,813*4b376c53
%RAWIMUSA,2283,41879.820;2283,41879.819999192,00000077,-64208,-67,-523,-9,0,-1024*06c8dc68
%RAWIMUSA,2283,41879.830;2283,41879.829999192,00000077,-64205,-39,-533,9,8,-841*c1746b2f
%RAWIMUSA,2283,41879.840;2283,41879.839999192,00000077,-64220,-171,-519,18,0,539*6f753ff2
%RAWIMUSA,2283,41879.850;2283,41879.849999192,00000077,-64202,22,-518,-18,-8,1015*15d2e1d0
%RAWIMUSA,2283,41879.860;2283,41879.859999192,00000077,-64218,-152,-522,-18,0,-127*cf5e69d7
%RAWIMUSA,2283,41879.870;2283,41879.869999192,00000077,-64206,-67,-534,0,8,-1014*39eb4b44
%RAWIMUSA,2283,41879.880;2283,41879.879999192,00000077,-64205,-41,-526,9,8,-255*63a743ce
%RAWIMUSA,2283,41879.890;2283,41879.889999192,00000077,-64218,-162,-517,9,-8,868*8ca52ba7
%RAWIMUSA,2283,41879.900;2283,41879.899999192,00000077,-64202,13,-523,-27,-8,905*46a05863
%RAWIMUSA,2283,41879.910;2283,41879.909999192,00000077,-64216,-159,-531,-9,8,-950*1525725a
%RAWIMUSA,2283,41879.920;2283,41879.919999192,00000077,-64207,-60,-523,9,0,-1005*157fe4dd
%RAWIMUSA,2283,41879.930;2283,41879.929999192,00000077,-64205,-42,-521,18,9,667*3392b5fe
%RAWIMUSA,2283,41879.940;2283,41879.939999192,00000077,-64218,-169,-525,-18,-17,868*c95a24e2
%RAWIMUSA,2283,41879.950;2283,41879.949999192,00000077,-64199,14,-531,-18,0,-9*41af38f4
%RAWIMUSA,2283,41879.960;2283,41879.959999192,00000077,-64220,-158,-523,0,8,-941*1dc4eb61
%RAWIMUSA,2283,41879.970;2283,41879.969999192,00000077,-64208,-61,-513,18,0,-484*0c8d5ce5
%RAWIMUSA,2283,41879.980;2283,41879.979999192,00000077,-64207,-41,-523,-8,0,1069*372c6646
%RAWIMUSA,2283,41879.990;2283,41879.989999192,00000077,-64210,-174,-536,-18,-8,823*377a05b5
%RAWIMUSA,2283,41880.000;2283,41879.999999192,00000077,-64209,9,-525,-9,8,-914*35b03158
%RAWIMUSA,2283,41880.010;2283,41880.009999192,00000077,-64215,-151,-509,18,8,-941*39f7740d
%RAWIMUSA,2283,41880.020;2283,41880.019999192,00000077,-64206,-60,-526,9,-8,466*57a5621b
%RAWIMUSA,2283,41880.030;2283,41880.029999192,00000077,-64205,-45,-541,-18,-8,1060*07ded8c4
%RAWIMUSA,2283,41880.040;2283,41880.039999192,00000077,-64220,-171,-519,-27,-9,-118*294bf50a
%RAWIMUSA,2283,41880.050;2283,41880.049999192,00000077,-64197,10,-504,9,17,-896*3635ee23
%RAWIMUSA,2283,41880.060;2283,41880.059999192,00000077,-64217,-153,-525,18,0,-447*f6472e3c
%RAWIMUSA,2283,41880.070;2283,41880.069999192,00000077,-64207,-53,-547,-8,-8,896*b1d46dfe
%RAWIMUSA,2283,41880.080;2283,41880.079999192,00000077,-64207,-47,-513,-18,-8,1060*ecd4dcb3
%RAWIMUSA,2283,41880.090;2283,41880.089999192,00000077,-64218,-174,-504,-9,8,-1033*7aea10f0
%RAWIMUSA,2283,41880.100;2283,41880.099999192,00000077,-64199,21,-528,18,8,-905*35f5516b
%RAWIMUSA,2283,41880.110;2283,41880.109999192,00000077,-64214,-156,-544,9,0,493*59a86fdd
%RAWIMUSA,2283,41880.120;2283,41880.119999192,00000077,-64211,-61,-521,-18,-17,896*426a8dbc
%RAWIMUSA,2283,41880.130;2283,41880.129999192,00000077,-64203,-38,-508,-27,9,118*c48abff1
%RAWIMUSA,2283,41880.140;2283,41880.139999192,00000077,-64220,-168,-525,9,8,-1033*24929511
%RAWIMUSA,2283,41880.150;2283,41880.149999192,00000077,-64200,15,-541,9,0,-466*039fe59b
%RAWIMUSA,2283,41880.160;2283,41880.159999192,00000077,-64217,-158,-520,0,-8,978*181203a8
%RAWIMUSA,2283,41880.170;2283,41880.169999192,00000077,-64207,-71,-510,-27,-8,887*a7da202e
%RAWIMUSA,2283,41880.180;2283,41880.179999192,00000077,-64203,-24,-525,-9,17,-795*457498fa
%RAWIMUSA,2283,41880.190;2283,41880.189999192,00000077,-64218,-179,-534,9,0,-1042*5f93aae5
%RAWIMUSA,2283,41880.200;2283,41880.199999192,00000077,-64200,13,-524,9,-8,466*2c801f80
%RAWIMUSA,2283,41880.210;2283,41880.209999192,00000077,-64215,-149,-508,-18,0,987*d8501786
%RAWIMUSA,2283,41880.220;2283,41880.219999192,00000077,-64212,-86,-523,-18,0,0*c30ac21f
%RAWIMUSA,2283,41880.230;2283,41880.229999192,00000077,-64200,-12,-535,9,17,-850*d50cffba
%RAWIMUSA,2283,41880.240;2283,41880.239999192,00000077,-64221,-186,-521,9,-9,-639*74f3f40f
%RAWIMUSA,2283,41880.250;2283,41880.249999192,00000077,-64201,8,-512,0,0,978*5c593fa2
%RAWIMUSA,2283,41880.260;2283,41880.259999192,00000077,-64215,-134,-525,-27,0,996*87e14aad
%RAWIMUSA,2283,41880.270;2283,41880.269999192,00000077,-64211,-89,-537,-9,8,-932*f05d7b17
%RAWIMUSA,2283,41880.280;2283,41880.279999192,00000077,-64205,-22,-523,18,0,-841*8cfaee1d
%RAWIMUSA,2283,41880.290;2283,41880.289999192,00000077,-64218,-180,-514,9,-9,283*0875ad0a
%RAWIMUSA,2283,41880.300;2283,41880.299999192,00000077,-64201,12,-523,-27,-8,978*811a1664
%RAWIMUSA,2283,41880.310;2283,41880.309999192,00000077,-64214,-140,-535,-18,9,173*cc4848ed
%RAWIMUSA,2283,41880.320;2283,41880.319999192,00000077,-64212,-99,-522,9,0,-1042*5f1527c4
%RAWIMUSA,2283,41880.330;2283,41880.329999191,00000077,-64202,-5,-515,18,8,-502*fd004315
%RAWIMUSA,2283,41880.340;2283,41880.339999191,00000077,-64221,-186,-522,-8,-8,877*4d4eff16
%RAWIMUSA,2283,41880.350;2283,41880.349999191,00000077,-64203,6,-536,-27,-8,969*c400b748
%RAWIMUSA,2283,41880.360;2283,41880.359999191,00000077,-64212,-113,-524,0,8,-740*8331aa98
%RAWIMUSA,2283,41880.370;2283,41880.369999191,00000077,-64215,-116,-515,9,8,-1033*56f1427b
%RAWIMUSA,2283,41880.380;2283,41880.379999191,00000077,-64203,0,-519,9,-8,411*ee63c69d
%RAWIMUSA,2283,41880.390;2283,41880.389999191,00000077,-64219,-184,-529,-18,-8,887*d5b63205
%RAWIMUSA,2283,41880.400;2283,41880.399999191,00000077,-64203,5,-528,-18,9,182*4af441bc
%RAWIMUSA,2283,41880.410;2283,41880.409999191,00000077,-64212,-115,-517,9,8,-886*3e9fa011
%RAWIMUSA,2283,41880.420;2283,41880.419999191,00000077,-64212,-110,-520,18,-9,-767*799e85f5
%RAWIMUSA,2283,41880.430;2283,41880.429999191,00000077,-64199,0,-533,-18,0,1051*455677c7
%RAWIMUSA,2283,41880.440;2283,41880.439999191,00000077,-64220,-188,-525,-18,-8,896*6953b085
%RAWIMUSA,2283,41880.450;2283,41880.449999191,00000077,-64200,-4,-520,0,8,-740*89d267cb
%RAWIMUSA,2283,41880.460;2283,41880.459999191,00000077,-64214,-104,-518,9,8,-877*03b20387
%RAWIMUSA,2283,41880.470;2283,41880.469999191,00000077,-64214,-125,-530,9,-9,164*39c5a76c
%RAWIMUSA,2283,41880.480;2283,41880.479999191,00000077,-64201,6,-527,-18,-8,1051*a13004a3
%RAWIMUSA,2283,41880.490;2283,41880.489999191,00000077,-64219,-189,-519,-27,9,182*abf95809
%RAWIMUSA,2283,41880.500;2283,41880.499999191,00000077,-64203,-9,-525,18,0,-969*ad29ef91
%RAWIMUSA,2283,41880.510;2283,41880.509999191,00000077,-64211,-100,-528,9,0,-649*fd933f24
%RAWIMUSA,2283,41880.520;2283,41880.519999191,00000077,-64215,-124,-520,-8,-8,868*56ee83ae
%RAWIMUSA,2283,41880.530;2283,41880.529999191,00000077,-64200,0,-520,-18,0,1042*3f7917eb
%RAWIMUSA,2283,41880.540;2283,41880.539999191,00000077,-64219,-184,-521,-9,8,-749*96ce34e1
%RAWIMUSA,2283,41880.550;2283,41880.549999191,00000077,-64202,-10,-528,18,8,-950*26b0cf2e
%RAWIMUSA,2283,41880.560;2283,41880.559999191,00000077,-64213,-104,-522,9,-18,283*251acb4b
%RAWIMUSA,2283,41880.570;2283,41880.569999191,00000077,-64210,-118,-518,-27,0,859*70e22de5
%RAWIMUSA,2283,41880.580;2283,41880.579999191,00000077,-64200,2,-527,-18,9,365*79ff531d
%RAWIMUSA,2283,41880.590;2283,41880.589999191,00000077,-64220,-187,-528,18,0,-987*73425f20
%RAWIMUSA,2283,41880.600;2283,41880.599999191,00000077,-64208,-13,-525,9,-9,-777*cf68a6d6
%RAWIMUSA,2283,41880.610;2283,41880.609999191,00000077,-64209,-96,-520,-8,0,1015*4ec0e157
%RAWIMUSA,2283,41880.620;2283,41880.619999191,00000077,-64219,-127,-527,-27,0,868*d5ed88cf
%RAWIMUSA,2283,41880.630;2283,41880.629999191,00000077,-64200,9,-527,0,8,-557*e62210a3
%RAWIMUSA,2283,41880.640;2283,41880.639999191,00000077,-64218,-179,-519,9,0,-996*60fb7e32
%RAWIMUSA,2283,41880.650;2283,41880.649999191,00000077,-64202,-15,-526,9,-9,146*dd1f2b1e
%RAWIMUSA,2283,41880.660;2283,41880.659999191,00000077,-64210,-99,-521,-27,-8,1024*99368844
%RAWIMUSA,2283,41880.670;2283,41880.669999191,00000077,-64214,-130,-522,-18,9,246*1a2ffb9a
%RAWIMUSA,2283,41880.680;2283,41880.679999191,00000077,-64201,17,-526,18,8,-868*95f61c18
%RAWIMUSA,2283,41880.690;2283,41880.689999191,00000077,-64216,-183,-526,18,-9,-859*7907e3db
%RAWIMUSA,2283,41880.700;2283,41880.699999191,00000077,-64202,-17,-521,-18,-8,941*cd01964e
%RAWIMUSA,2283,41880.710;2283,41880.709999191,00000077,-64211,-94,-523,-18,9,1024*e5b05dff
%RAWIMUSA,2283,41880.720;2283,41880.719999191,00000077,-64220,-136,-525,0,0,-685*b9f8e855
%RAWIMUSA,2283,41880.730;2283,41880.729999191,00000077,-64198,12,-529,9,8,-859*450f2265
%RAWIMUSA,2283,41880.740;2283,41880.739999191,00000077,-64223,-184,-518,0,-18,64*db1ec6ba
%RAWIMUSA,2283,41880.750;2283,41880.749999191,00000077,-64200,-14,-526,-18,0,951*d837da6b
%RAWIMUSA,2283,41880.760;2283,41880.759999191,00000077,-64211,-96,-526,-8,9,457*34b9ff78
%RAWIMUSA,2283,41880.770;2283,41880.769999191,00000077,-64216,-135,-524,9,8,-1042*202ad281
%RAWIMUSA,2283,41880.780;2283,41880.779999191,00000077,-64202,11,-524,18,-9,-795*c60b068d
%RAWIMUSA,2283,41880.790;2283,41880.789999191,00000077,-64221,-182,-517,-18,-8,923*1d8c39f4
%RAWIMUSA,2283,41880.800;2283,41880.799999191,00000077,-64206,-15,-526,-18,0,932*6bb3bd5c
%RAWIMUSA,2283,41880.810;2283,41880.809999191,00000077,-64209,-94,-523,0,17,-447*46d44d96
%RAWIMUSA,2283,41880.820;2283,41880.819999191,00000077,-64218,-151,-522,18,-10,-1051*cf233b2e
%RAWIMUSA,2283,41880.830;2283,41880.829999191,00000077,-64192,19,-529,0,0,137*748a9874
%RAWIMUSA,2283,41880.840;2283,41880.839999191,00000077,-64223,-182,-521,-18,-8,932*85745097
%RAWIMUSA,2283,41880.850;2283,41880.849999191,00000077,-64204,-27,-520,-18,9,411*006670c2
%RAWIMUSA,2283,41880.860;2283,41880.859999191,00000077,-64209,-78,-528,9,8,-850*b02bf65f
%RAWIMUSA,2283,41880.870;2283,41880.869999191,00000077,-64217,-149,-525,18,-10,-1024*dcef83a5
%RAWIMUSA,2283,41880.880;2283,41880.879999191,00000077,-64199,14,-524,-18,-8,1024*dfb79062
%RAWIMUSA,2283,41880.890;2283,41880.889999191,00000077,-64218,-173,-517,-18,9,932*43ec21c6
%RAWIMUSA,2283,41880.900;2283,41880.899999191,00000077,-64208,-28,-529,0,8,-521*24542101
%RAWIMUSA,2283,41880.910;2283,41880.909999191,00000077,-64208,-71,-531,18,0,-868*c776fb3e
%RAWIMUSA,2283,41880.920;2283,41880.919999191,00000077,-64215,-142,-522,0,-18,-100*af5efe23
%RAWIMUSA,2283,41880.930;2283,41880.929999191,00000077,-64201,13,-518,-27,9,1042*5c5a027a
%RAWIMUSA,2283,41880.940;2283,41880.939999191,00000077,-64220,-184,-516,-8,9,466*e0a681dc
%RAWIMUSA,2283,41880.950;2283,41880.949999191,00000077,-64201,-20,-534,9,0,-987*94a1cd9b
%RAWIMUSA,2283,41880.960;2283,41880.959999191,00000077,-64212,-68,-528,18,0,-859*46af0f52
%RAWIMUSA,2283,41880.970;2283,41880.969999191,00000077,-64217,-154,-517,-18,-8,813*2bf7b387
%RAWIMUSA,2283,41880.980;2283,41880.979999191,00000077,-64200,20,-517,-27,9,1033*ae3ccb42
%RAWIMUSA,2283,41880.990;2283,41880.989999191,00000077,-64218,-180,-530,9,8,-447*62fe74b9
%RAWIMUSA,2283,41881.000;2283,41880.999999191,00000077,-64204,-35,-527,9,-19,-996*b574b142
%RAWIMUSA,2283,41881.010;2283,41881.009999191,00000077,-64207,-59,-521,0,0,36*542b8934
%RAWIMUSA,2283,41881.020;2283,41881.019999191,00000077,-64220,-156,-520,-18,0,877*7391373a
%RAWIMUSA,2283,41881.030;2283,41881.029999191,00000077,-64198,16,-531,-18,9,612*de60905f
%RAWIMUSA,2283,41881.040;2283,41881.039999191,00000077,-64222,-171,-523,18,0,-969*8f08e9b3
%RAWIMUSA,2283,41881.050;2283,41881.049999191,00000077,-64203,-40,-521,9,0,-996*f0092336
%RAWIMUSA,2283,41881.060;2283,41881.059999191,00000077,-64211,-65,-522,-18,-8,969*e8425961
%RAWIMUSA,2283,41881.070;2283,41881.069999191,00000077,-64216,-151,-529,-18,9,877*f6a58667
%RAWIMUSA,2283,41881.080;2283,41881.079999191,00000077,-64201,19,-526,9,8,-319*66e2d9c8
%RAWIMUSA,2283,41881.090;2283,41881.089999191,00000077,-64217,-181,-518,9,0,-969*eaf6759a
%RAWIMUSA,2283,41881.100;2283,41881.099999191,00000077,-64206,-43,-524,0,-18,-137*c85c5269
%RAWIMUSA,2283,41881.110;2283,41881.109999191,00000077,-64207,-62,-529,-27,9,1060*4ffbd352
%RAWIMUSA,2283,41881.120;2283,41881.119999191,00000077,-64216,-150,-523,-8,0,503*56f6b5f0
%RAWIMUSA,2283,41881.130;2283,41881.129999191,00000077,-64198,13,-520,18,8,-877*91b97404
%RAWIMUSA,2283,41881.140;2283,41881.139999191,00000077,-64218,-169,-519,9,-10,-960*5b9e8f7b
%RAWIMUSA,2283,41881.150;2283,41881.149999191,00000077,-64204,-43,-529,-18,-8,777*adbf63ff
%RAWIMUSA,2283,41881.160;2283,41881.159999191,00000077,-64208,-53,-528,-27,9,1051*ee5ca31b
%RAWIMUSA,2283,41881.170;2283,41881.169999191,00000077,-64217,-161,-520,9,8,-429*c19f905d
%RAWIMUSA,2283,41881.180;2283,41881.179999191,00000077,-64201,21,-518,18,-9,-886*e287cd2b
%RAWIMUSA,2283,41881.190;2283,41881.189999191,00000077,-64218,-162,-526,-9,0,-155*742b7cea
%RAWIMUSA,2283,41881.200;2283,41881.199999191,00000077,-64207,-52,-533,-27,0,905*77b767ef
%RAWIMUSA,2283,41881.210;2283,41881.209999191,00000077,-64207,-46,-518,-8,9,740*9780d9df
%RAWIMUSA,2283,41881.220;2283,41881.219999191,00000077,-64219,-167,-511,18,0,-1042*4ac006ea
%RAWIMUSA,2283,41881.230;2283,41881.229999191,00000077,-64195,26,-538,9,-9,-895*e6c5cd41
%RAWIMUSA,2283,41881.240;2283,41881.239999191,00000077,-64220,-165,-525,-27,-8,777*01ad04ba
%RAWIMUSA,2283,41881.250;2283,41881.249999191,00000077,-64200,-70,-514,-18,9,896*2d42830e
%RAWIMUSA,2283,41881.260;2283,41881.259999191,00000077,-64203,-18,-524,9,8,-155*e7633412
%RAWIMUSA,2283,41881.270;2283,41881.269999191,00000077,-64220,-179,-532,9,0,-1042*b3fa96d0
%RAWIMUSA,2283,41881.280;2283,41881.279999191,00000077,-64202,5,-524,-9,-18,-164*c59d25b3
%RAWIMUSA,2283,41881.290;2283,41881.289999191,00000077,-64212,-135,-518,-18,19,987*2e23f002
%RAWIMUSA,2283,41881.300;2283,41881.299999191,00000077,-64211,-75,-525,-8,0,631*f5c91909
%RAWIMUSA,2283,41881.310;2283,41881.309999191,00000077,-64201,-29,-530,18,0,-841*c06d2b3e
%RAWIMUSA,2283,41881.320;2283,41881.319999191,00000077,-64218,-192,-516,9,-10,-1033*46892fa8
%RAWIMUSA,2283,41881.330;2283,41881.329999191,00000077,-64198,12,-521,-27,0,759*0022f8cf
%RAWIMUSA,2283,41881.340;2283,41881.339999191,00000077,-64214,-131,-526,-18,9,996*4c798f47
%RAWIMUSA,2283,41881.350;2283,41881.349999191,00000077,-64211,-89,-528,18,0,-310*7d8b1441
%RAWIMUSA,2283,41881.360;2283,41881.359999191,00000077,-64205,-20,-519,9,0,-841*00c21f17
%RAWIMUSA,2283,41881.370;2283,41881.369999191,00000077,-64219,-187,-516,-9,-9,-338*5b885d03
%RAWIMUSA,2283,41881.380;2283,41881.379999191,00000077,-64201,12,-528,-18,0,978*b503448d
%RAWIMUSA,2283,41881.390;2283,41881.389999191,00000077,-64212,-127,-531,-8,18,813*74ad44f0
%RAWIMUSA,2283,41881.400;2283,41881.399999191,00000077,-64215,-111,-521,18,-19,-1033*a562cfd8
%RAWIMUSA,2283,41881.410;2283,41881.409999191,00000077,-64201,7,-521,0,0,-850*07598a65
%RAWIMUSA,2283,41881.420;2283,41881.419999191,00000077,-64219,-182,-520,-18,0,612*64871c49
%RAWIMUSA,2283,41881.430;2283,41881.429999191,00000077,-64201,-7,-530,-18,0,960*fe7eeaef
%RAWIMUSA,2283,41881.440;2283,41881.439999191,00000077,-64213,-115,-521,9,9,-91*c8c09e11
%RAWIMUSA,2283,41881.450;2283,41881.449999191,00000077,-64214,-115,-521,18,-10,-1060*e5fddd4c
%RAWIMUSA,2283,41881.460;2283,41881.459999191,00000077,-64203,21,-522,-9,-9,-219*5c5d183b
%RAWIMUSA,2283,41881.470;2283,41881.469999191,00000077,-64220,-195,-525,-27,9,914*bae2eebc
%RAWIMUSA,2283,41881.480;2283,41881.479999191,00000077,-64202,-13,-528,0,0,795*68c6e368
%RAWIMUSA,2283,41881.490;2283,41881.489999191,00000077,-64211,-92,-521,18,0,-886*a5f6a3ff
%RAWIMUSA,2283,41881.500;2283,41881.499999191,00000077,-64214,-130,-518,0,-10,-1060*2fe81b9c
%RAWIMUSA,2283,41881.510;2283,41881.509999191,00000077,-64201,9,-528,-18,9,704*3e764c13
%RAWIMUSA,2283,41881.520;2283,41881.519999191,00000077,-64217,-186,-527,-18,0,932*1a6dca81
%RAWIMUSA,2283,41881.530;2283,41881.529999191,00000077,-64202,-9,-523,9,0,-137*17e04939
%RAWIMUSA,2283,41881.540;2283,41881.539999191,00000077,-64212,-93,-513,9,-9,-886*17c90960
%RAWIMUSA,2283,41881.550;2283,41881.549999191,00000077,-64217,-139,-526,-9,0,-457*a0ba1c29
%RAWIMUSA,2283,41881.560;2283,41881.559999191,00000077,-64200,12,-528,-18,9,1033*cd4d274d
%RAWIMUSA,2283,41881.570;2283,41881.569999191,00000077,-64219,-178,-521,-8,9,832*5d166f4c
%RAWIMUSA,2283,41881.580;2283,41881.579999191,00000077,-64202,-13,-517,18,-19,-978*74b830c3
%RAWIMUSA,2283,41881.590;2283,41881.589999191,00000077,-64209,-97,-524,0,0,-868*fa471525
%RAWIMUSA,2283,41881.600;2283,41881.599999191,00000077,-64219,-147,-529,-18,0,466*0ecbec9b
%RAWIMUSA,2283,41881.610;2283,41881.609999191,00000077,-64198,17,-527,-18,9,1051*870d265b
%RAWIMUSA,2283,41881.620;2283,41881.619999191,00000077,-64222,-176,-516,18,0,-118*160822f5
%RAWIMUSA,2283,41881.630;2283,41881.629999191,00000077,-64202,-22,-519,18,-10,-969*a9355a82
%RAWIMUSA,2283,41881.640;2283,41881.639999191,00000077,-64214,-100,-529,-18,0,-329*33ddf12a
%RAWIMUSA,2283,41881.650;2283,41881.649999191,00000077,-64216,-129,-528,-18,0,850*efcc841e
%RAWIMUSA,2283,41881.660;2283,41881.659999191,00000077,-64200,13,-517,-8,9,1005*fb450ab5
%RAWIMUSA,2283,41881.670;2283,41881.669999191,00000077,-64218,-189,-518,18,0,-996*14ffb3ba
%RAWIMUSA,2283,41881.680;2283,41881.679999191,00000077,-64203,-12,-533,0,-19,-978*52cc3c39
%RAWIMUSA,2283,41881.690;2283,41881.689999191,00000077,-64212,-84,-528,-18,9,594*7ea265eb
%RAWIMUSA,2283,41881.700;2283,41881.699999191,00000077,-64215,-141,-513,-18,0,859*b8f045ea
%RAWIMUSA,2283,41881.710;2283,41881.709999191,00000077,-64200,12,-520,9,9,73*41e36889
%RAWIMUSA,2283,41881.720;2283,41881.719999191,00000077,-64220,-181,-531,18,-10,-969*bb682458
%RAWIMUSA,2283,41881.730;2283,41881.729999191,00000077,-64203,-16,-527,-18,-9,-484*98849b1d
%RAWIMUSA,2283,41881.740;2283,41881.739999191,00000077,-64211,-76,-516,-18,9,1033*3ca0d74a
%RAWIMUSA,2283,41881.750;2283,41881.749999191,00000077,-64214,-144,-520,0,9,859*c98ff646
%RAWIMUSA,2283,41881.760;2283,41881.759999191,00000077,-64198,8,-532,9,-9,-850*777f1074
%RAWIMUSA,2283,41881.770;2283,41881.769999191,00000077,-64219,-180,-530,0,-10,-978*ea4f810b
%RAWIMUSA,2283,41881.780;2283,41881.779999191,00000077,-64203,-13,-512,-18,0,438*204fceb3
%RAWIMUSA,2283,41881.790;2283,41881.789999191,00000077,-64208,-86,-518,-18,19,1042*4bc7560a
%RAWIMUSA,2283,41881.800;2283,41881.799999191,00000077,-64218,-146,-533,18,0,-63*c4d50094
%RAWIMUSA,2283,41881.810;2283,41881.809999191,00000077,-64197,23,-531,9,-9,-868*b715da94
%RAWIMUSA,2283,41881.820;2283,41881.819999191,00000077,-64221,-186,-515,-18,0,-539*489973df
%RAWIMUSA,2283,41881.830;2283,41881.829999191,00000077,-64204,-33,-519,-18,9,914*096ebd73
%RAWIMUSA,2283,41881.840;2283,41881.839999191,00000077,-64212,-68,-532,0,0,1051*bfdf8c0f
%RAWIMUSA,2283,41881.850;2283,41881.849999191,00000077,-64217,-158,-533,18,-10,-987*8e10e2e9
%RAWIMUSA,2283,41881.860;2283,41881.859999191,00000077,-64199,24,-521,0,-9,-895*13a60c98
%RAWIMUSA,2283,41881.870;2283,41881.869999191,00000077,-64220,-179,-518,-27,9,402*9ae6fae5
%RAWIMUSA,2283,41881.880;2283,41881.879999191,00000077,-64207,-51,-525,-8,9,914*c7cd5d6f
%RAWIMUSA,2283,41881.890;2283,41881.889999191,00000077,-64207,-46,-530,9,0,173*0bfcab96
%RAWIMUSA,2283,41881.900;2283,41881.899999191,00000077,-64217,-162,-519,18,-19,-1051*f5105f03
%RAWIMUSA,2283,41881.910;2283,41881.909999191,00000077,-64200,12,-522,-27,8,-511*c3ed0e3a
%RAWIMUSA,2283,41881.920;2283,41881.919999191,00000077,-64217,-158,-523,-18,0,951*d573bd51
%RAWIMUSA,2283,41881.930;2283,41881.929999191,00000077,-64208,-57,-528,9,9,887*476e29fd
%RAWIMUSA,2283,41881.940;2283,41881.939999191,00000077,-64208,-42,-521,9,-9,-749*db277084
%RAWIMUSA,2283,41881.950;2283,41881.949999191,00000077,-64216,-169,-519,0,-10,-1033*90149100
%RAWIMUSA,2283,41881.960;2283,41881.959999191,00000077,-64200,20,-526,-18,9,411*b4473741
%RAWIMUSA,2283,41881.970;2283,41881.969999191,00000077,-64218,-149,-522,-8,9,969*0841d1bf
%RAWIMUSA,2283,41881.980;2283,41881.979999191,00000077,-64206,-73,-521,9,-9,64*997426b4
%RAWIMUSA,2283,41881.990;2283,41881.989999191,00000077,-64203,-36,-528,18,0,-859*ab94b3af
%RAWIMUSA,2283,41882.000;2283,41881.999999191,00000077,-64219,-163,-527,-18,0,-694*39f141ad
%RAWIMUSA,2283,41882.010;2283,41882.009999191,00000077,-64200,8,-522,-27,9,1005*48a313f7
%RAWIMUSA,2283,41882.020;2283,41882.019999191,00000077,-64216,-149,-518,9,9,978*12bd43f3
%RAWIMUSA,2283,41882.030;2283,41882.029999191,00000077,-64209,-68,-528,9,-19,-859*87fe902b
%RAWIMUSA,2283,41882.040;2283,41882.039999191,00000077,-64204,-28,-522,0,0,-859*9db53eb5
%RAWIMUSA,2283,41882.050;2283,41882.049999191,00000077,-64220,-174,-519,-27,9,219*18b789c5
%RAWIMUSA,2283,41882.060;2283,41882.059999191,00000077,-64197,9,-527,-8,9,996*a89ca84f
%RAWIMUSA,2283,41882.070;2283,41882.069999191,00000077,-64216,-137,-527,18,-9,210*227f3e36
%RAWIMUSA,2283,41882.080;2283,41882.079999191,00000077,-64211,-78,-521,9,-10,-1033*51697dc8
%RAWIMUSA,2283,41882.090;2283,41882.089999191,00000077,-64208,-31,-518,-18,8,-566*e9564f6d
%RAWIMUSA,2283,41882.100;2283,41882.099999191,00000077,-64218,-177,-523,-18,0,877*a4008f19
%RAWIMUSA,2283,41882.110;2283,41882.109999191,00000077,-64199,11,-531,0,0,996*cbbce527
%RAWIMUSA,2283,41882.120;2283,41882.119999191,00000077,-64213,-140,-520,18,0,-722*9f80ade1
%RAWIMUSA,2283,41882.130;2283,41882.129999191,00000077,-64208,-78,-525,-9,-10,-1014*12e7bed9
%RAWIMUSA,2283,41882.140;2283,41882.139999191,00000077,-64208,-36,-524,-27,9,347*d6c9eb25
%RAWIMUSA,2283,41882.150;2283,41882.149999191,00000077,-64218,-177,-523,0,9,887*b8f53a39
%RAWIMUSA,2283,41882.160;2283,41882.159999191,00000077,-64201,15,-524,9,-9,274*9bdb3cd4
%RAWIMUSA,2283,41882.170;2283,41882.169999191,00000077,-64215,-155,-521,9,-9,-932*45cd0716
%RAWIMUSA,2283,41882.180;2283,41882.179999191,00000077,-64211,-72,-522,-18,0,-795*e63e7d53
%RAWIMUSA,2283,41882.190;2283,41882.189999191,00000077,-64204,-26,-524,-18,19,1060*52ce1a18
%RAWIMUSA,2283,41882.200;2283,41882.199999191,00000077,-64222,-179,-523,9,-8,877*3f34e779
%RAWIMUSA,2283,41882.210;2283,41882.209999191,00000077,-64199,15,-528,18,-9,-639*1d5ac12b
%RAWIMUSA,2283,41882.220;2283,41882.219999191,00000077,-64214,-150,-519,-9,0,-932*53074a7a
%RAWIMUSA,2283,41882.230;2283,41882.229999191,00000077,-64209,-73,-523,-18,9,146*321b343d
%RAWIMUSA,2283,41882.240;2283,41882.239999190,00000077,-64205,-22,-527,-8,0,1051*827135ec
%RAWIMUSA,2283,41882.250;2283,41882.249999190,00000077,-64216,-186,-521,18,0,219*57fef3e2
%RAWIMUSA,2283,41882.260;2283,41882.259999190,00000077,-64202,11,-523,0,-9,-923*41571424
%RAWIMUSA,2283,41882.270;2283,41882.269999190,00000077,-64214,-143,-525,-18,8,-731*64bb98d6
%RAWIMUSA,2283,41882.280;2283,41882.279999190,00000077,-64210,-81,-524,-18,0,887*15a8e62b
%RAWIMUSA,2283,41882.290;2283,41882.289999190,00000077,-64201,-11,-523,9,9,1060*37ea31bf
%RAWIMUSA,2283,41882.300;2283,41882.299999190,00000077,-64220,-186,-518,18,-19,-713*e1a20e96
%RAWIMUSA,2283,41882.310;2283,41882.309999190,00000077,-64199,12,-526,-9,8,-932*54b2e0c1
%RAWIMUSA,2283,41882.320;2283,41882.319999190,00000077,-64215,-135,-522,-27,0,182*1056c485
%RAWIMUSA,2283,41882.330;2283,41882.329999190,00000077,-64209,-90,-522,0,9,877*8a9e54fb
%RAWIMUSA,2283,41882.340;2283,41882.339999190,00000077,-64205,-12,-522,9,-8,439*0fe869d2
%RAWIMUSA,2283,41882.350;2283,41882.349999190,00000077,-64218,-178,-526,9,-10,-1024*84dc67c9
%RAWIMUSA,2283,41882.360;2283,41882.359999190,00000077,-64201,5,-528,-18,8,-804*f51912c0
%RAWIMUSA,2283,41882.370;2283,41882.369999190,00000077,-64216,-138,-522,-18,9,1005*904fcad6
%RAWIMUSA,2283,41882.380;2283,41882.379999190,00000077,-64214,-99,-514,9,-8,877*40302f97
%RAWIMUSA,2283,41882.390;2283,41882.389999190,00000077,-64202,-6,-528,18,0,-484*dd66f9fb
%RAWIMUSA,2283,41882.400;2283,41882.399999190,00000077,-64220,-190,-528,-9,-10,-1024*e491faab
%RAWIMUSA,2283,41882.410;2283,41882.409999190,00000077,-64202,7,-521,-27,9,109*d5796f53
%RAWIMUSA,2283,41882.420;2283,41882.419999190,00000077,-64214,-128,-514,0,9,1015*056a4458
%RAWIMUSA,2283,41882.430;2283,41882.429999190,00000077,-64212,-114,-529,18,-9,310*b6b025d6
%RAWIMUSA,2283,41882.440;2283,41882.439999190,00000077,-64202,3,-534,0,-9,-850*dcfff6be
%RAWIMUSA,2283,41882.450;2283,41882.449999190,00000077,-64219,-188,-519,-18,8,-941*1c8c04ea
%RAWIMUSA,2283,41882.460;2283,41882.459999190,00000077,-64200,-1,-515,-18,9,969*4cb21e2a
%RAWIMUSA,2283,41882.470;2283,41882.469999190,00000077,-64212,-113,-529,9,0,1015*96899ded
%RAWIMUSA,2283,41882.480;2283,41882.479999190,00000077,-64213,-111,-530,18,-18,-621*97c0ef01
%RAWIMUSA,2283,41882.490;2283,41882.489999190,00000077,-64201,-4,-523,-18,8,-859*346e54e1
%RAWIMUSA,2283,41882.500;2283,41882.499999190,00000077,-64219,-187,-515,-18,9,-9*40ae9e6a
%RAWIMUSA,2283,41882.510;2283,41882.509999190,00000077,-64200,2,-533,0,0,969*3ef2735b
%RAWIMUSA,2283,41882.520;2283,41882.519999190,00000077,-64214,-114,-525,9,-8,503*1abbdadb
%RAWIMUSA,2283,41882.530;2283,41882.529999190,00000077,-64214,-115,-518,9,0,-1033*87d191c5
%RAWIMUSA,2283,41882.540;2283,41882.539999190,00000077,-64204,-1,-523,-27,8,-841*427a2528
%RAWIMUSA,2283,41882.550;2283,41882.549999190,00000077,-64222,-187,-527,-18,9,896*8c35bfbd
%RAWIMUSA,2283,41882.560;2283,41882.559999190,00000077,-64202,5,-528,18,-8,969*2edfee0f
%RAWIMUSA,2283,41882.570;2283,41882.569999190,00000077,-64214,-110,-525,9,-9,-420*62c544bf
%RAWIMUSA,2283,41882.580;2283,41882.579999190,00000077,-64214,-115,-516,-9,0,-1033*0ed7ac9c
%RAWIMUSA,2283,41882.590;2283,41882.589999190,00000077,-64201,1,-527,-27,18,100*f5686e20
%RAWIMUSA,2283,41882.600;2283,41882.599999190,00000077,-64221,-187,-526,0,-8,905*e97ebcd7
%RAWIMUSA,2283,41882.610;2283,41882.609999190,00000077,-64203,-3,-523,18,-8,512*0e41ab87
%RAWIMUSA,2283,41882.620;2283,41882.619999190,00000077,-64216,-105,-517,0,0,-896*bbf6967b
%RAWIMUSA,2283,41882.630;2283,41882.629999190,00000077,-64210,-116,-524,-18,8,-1042*3999e614
%RAWIMUSA,2283,41882.640;2283,41882.639999190,00000077,-64201,-9,-532,-18,9,1024*15627eac
%RAWIMUSA,2283,41882.650;2283,41882.649999190,00000077,-64219,-185,-519,18,-8,896*c231463e
%RAWIMUSA,2283,41882.660;2283,41882.659999190,00000077,-64204,-2,-517,9,-9,-420*ba6c6a89
%RAWIMUSA,2283,41882.670;2283,41882.669999190,00000077,-64211,-114,-526,-18,8,-896*fb00c0ee
%RAWIMUSA,2283,41882.680;2283,41882.679999190,00000077,-64214,-119,-531,-18,0,-146*07038386
%RAWIMUSA,2283,41882.690;2283,41882.689999190,00000077,-64198,2,-523,0,9,1060*b3d2c106
%RAWIMUSA,2283,41882.700;2283,41882.699999190,00000077,-64219,-181,-513,18,-18,503*a3115be3
%RAWIMUSA,2283,41882.710;2283,41882.709999190,00000077,-64201,-6,-525,0,0,-950*049fe34c
%RAWIMUSA,2283,41882.720;2283,41882.719999190,00000077,-64214,-110,-527,-27,8,-886*28e9f85d
%RAWIMUSA,2283,41882.730;2283,41882.729999190,00000077,-64215,-114,-525,-8,9,777*ac13758c
%RAWIMUSA,2283,41882.740;2283,41882.739999190,00000077,-64200,10,-523,9,-8,1060*6faa0f4a
%RAWIMUSA,2283,41882.750;2283,41882.749999190,00000077,-64218,-191,-525,18,-9,-429*6f3f84b7
%RAWIMUSA,2283,41882.760;2283,41882.759999190,00000077,-64204,-8,-525,-18,8,-960*32f04604
%RAWIMUSA,2283,41882.770;2283,41882.769999190,00000077,-64216,-103,-524,-18,9,-45*6e7e0b92
%RAWIMUSA,2283,41882.780;2283,41882.779999190,00000077,-64218,-123,-519,0,-8,859*135b6d74
%RAWIMUSA,2283,41882.790;2283,41882.789999190,00000077,-64199,9,-527,18,0,695*eed5c5ef
%RAWIMUSA,2283,41882.800;2283,41882.799999190,00000077,-64219,-184,-525,0,0,-1005*56aed3b1
%RAWIMUSA,2283,41882.810;2283,41882.809999190,00000077,-64201,-14,-527,-27,8,-960*670308d3
%RAWIMUSA,2283,41882.820;2283,41882.819999190,00000077,-64212,-91,-518,-8,0,887*e323eadc
%RAWIMUSA,2283,41882.830;2283,41882.829999190,00000077,-64214,-132,-523,9,-8,850*3e9d52fa
%RAWIMUSA,2283,41882.840;2283,41882.839999190,00000077,-64204,14,-531,9,-9,-228*66133c03
%RAWIMUSA,2283,41882.850;2283,41882.849999190,00000077,-64218,-185,-519,-18,17,-987*d1e59680
%RAWIMUSA,2283,41882.860;2283,41882.859999190,00000077,-64204,-15,-520,-18,0,-182*2c63da58
%RAWIMUSA,2283,41882.870;2283,41882.869999190,00000077,-64209,-83,-533,9,0,1042*eb457b6a
%RAWIMUSA,2283,41882.880;2283,41882.879999190,00000077,-64217,-152,-522,9,-18,548*a4564550
%RAWIMUSA,2283,41882.890;2283,41882.889999190,00000077,-64198,16,-515,0,8,-868*0af19b5d
%RAWIMUSA,2283,41882.900;2283,41882.899999190,00000077,-64224,-170,-519,-18,8,-969*da1d2597
%RAWIMUSA,2283,41882.910;2283,41882.909999190,00000077,-64204,-38,-537,-8,0,713*68dfa6c1
%RAWIMUSA,2283,41882.920;2283,41882.919999190,00000077,-64211,-62,-525,9,-8,1051*63010c63
%RAWIMUSA,2283,41882.930;2283,41882.929999190,00000077,-64217,-170,-514,18,0,-356*3d8ac97c
%RAWIMUSA,2283,41882.940;2283,41882.939999190,00000077,-64201,18,-524,-27,8,-896*c51d40cf
%RAWIMUSA,2283,41882.950;2283,41882.949999190,00000077,-64219,-161,-532,-18,8,-210*69cd91b5
%RAWIMUSA,2283,41882.960;2283,41882.959999190,00000077,-64207,-53,-523,9,-17,896*f46204d0
%RAWIMUSA,2283,41882.970;2283,41882.969999190,00000077,-64205,-55,-515,9,0,813*15aa7517
%RAWIMUSA,2283,41882.980;2283,41882.979999190,00000077,-64217,-161,-519,0,0,-1042*1a71bf04
%RAWIMUSA,2283,41882.990;2283,41882.989999190,00000077,-64200,15,-534,-27,8,-896*726be6cd
%RAWIMUSA,2283,41883.000;2283,41882.999999190,00000077,-64218,-163,-521,-8,0,704*23e0312f
%RAWIMUSA,2283,41883.010;2283,41883.009999190,00000077,-64203,-48,-517,18,-8,914*0c61e2d0
%RAWIMUSA,2283,41883.020;2283,41883.019999190,00000077,-64209,-57,-522,9,0,-127*d7af5dc8
%RAWIMUSA,2283,41883.030;2283,41883.029999190,00000077,-64216,-162,-532,-18,8,-1042*069f84b3
%RAWIMUSA,2283,41883.040;2283,41883.039999190,00000077,-64202,16,-523,-27,0,-201*c6b83829
%RAWIMUSA,2283,41883.050;2283,41883.049999190,00000077,-64218,-170,-515,9,0,951*2b9d8cfe
%RAWIMUSA,2283,41883.060;2283,41883.059999190,00000077,-64207,-43,-523,18,-17,713*49af8b4d
%RAWIMUSA,2283,41883.070;2283,41883.069999190,00000077,-64202,-48,-532,-9,8,-850*42cae3e5
%RAWIMUSA,2283,41883.080;2283,41883.079999190,00000077,-64221,-164,-517,-18,8,-1042*5f443fab
%RAWIMUSA,2283,41883.090;2283,41883.089999190,00000077,-64197,16,-520,-8,0,731*f2dfc2e4
%RAWIMUSA,2283,41883.100;2283,41883.099999190,00000077,-64220,-167,-525,9,-8,951*67e0f19e
%RAWIMUSA,2283,41883.110;2283,41883.109999190,00000077,-64204,-47,-534,9,0,-219*c9bd3856
%RAWIMUSA,2283,41883.120;2283,41883.119999190,00000077,-64212,-44,-518,-27,8,-850*d16a0461
%RAWIMUSA,2283,41883.130;2283,41883.129999190,00000077,-64214,-164,-513,-9,8,-411*8adf7de3
%RAWIMUSA,2283,41883.140;2283,41883.139999190,00000077,-64203,19,-527,0,-8,1015*7769911f
%RAWIMUSA,2283,41883.150;2283,41883.149999190,00000077,-64219,-169,-535,18,-8,804*e7112640
%RAWIMUSA,2283,41883.160;2283,41883.159999190,00000077,-64208,-48,-518,-9,0,-1005*fb916584
%RAWIMUSA,2283,41883.170;2283,41883.169999190,00000077,-64207,-47,-515,-27,17,-859*40cf201d
%RAWIMUSA,2283,41883.180;2283,41883.179999190,00000077,-64217,-164,-526,0,0,521*439499ba
%RAWIMUSA,2283,41883.190;2283,41883.189999190,00000077,-64201,15,-538,9,-8,1024*d2dc9e91
%RAWIMUSA,2283,41883.200;2283,41883.199999190,00000077,-64220,-169,-516,9,-9,-118*c591a25b
%RAWIMUSA,2283,41883.210;2283,41883.209999190,00000077,-64204,-48,-516,-18,8,-1005*0d9905dc
%RAWIMUSA,2283,41883.220;2283,41883.219999190,00000077,-64208,-52,-531,-27,8,-283*2819a7fd
%RAWIMUSA,2283,41883.230;2283,41883.229999190,00000077,-64215,-164,-533,18,-8,868*85ee2854
%RAWIMUSA,2283,41883.240;2283,41883.239999190,00000077,-64201,18,-519,9,-8,932*e719dad8
%RAWIMUSA,2283,41883.250;2283,41883.249999190,00000077,-64218,-168,-512,-9,8,-950*2b2c7a89
%RAWIMUSA,2283,41883.260;2283,41883.259999190,00000077,-64206,-56,-526,-27,8,-1005*fc1d2f55
%RAWIMUSA,2283,41883.270;2283,41883.269999190,00000077,-64204,-42,-535,0,0,649*bef270ba
%RAWIMUSA,2283,41883.280;2283,41883.279999190,00000077,-64220,-168,-518,18,-17,868*a2133ef7
%RAWIMUSA,2283,41883.290;2283,41883.289999190,00000077,-64202,22,-516,0,9,-18*5e7aa683
%RAWIMUSA,2283,41883.300;2283,41883.299999190,00000077,-64218,-161,-523,-18,8,-941*33d3242f
%RAWIMUSA,2283,41883.310;2283,41883.309999190,00000077,-64206,-69,-536,-27,-9,-475*66d1c552
%RAWIMUSA,2283,41883.320;2283,41883.319999190,00000077,-64203,-35,-520,18,0,1051*b5661e0b
%RAWIMUSA,2283,41883.330;2283,41883.329999190,00000077,-64218,-168,-510,9,-8,832*8b66a2fb
%RAWIMUSA,2283,41883.340;2283,41883.339999190,00000077,-64202,16,-526,-9,8,-905*37e02859
%RAWIMUSA,2283,41883.350;2283,41883.349999190,00000077,-64217,-151,-530,-18,8,-932*0d82dcbf
%RAWIMUSA,2283,41883.360;2283,41883.359999190,00000077,-64208,-68,-519,-8,-18,429*2fabe623
%RAWIMUSA,2283,41883.370;2283,41883.369999190,00000077,-64200,-33,-516,18,0,1069*47230859
%RAWIMUSA,2283,41883.380;2283,41883.379999190,00000077,-64220,-182,-518,0,0,-91*7a2fb5ba
%RAWIMUSA,2283,41883.390;2283,41883.389999190,00000077,-64202,19,-530,-18,8,-914*1b7d27c4
%RAWIMUSA,2283,41883.400;2283,41883.399999190,00000077,-64215,-136,-528,-18,0,-447*acd18629
%RAWIMUSA,2283,41883.410;2283,41883.409999190,00000077,-64208,-81,-518,18,-8,887*7a609b28
%RAWIMUSA,2283,41883.420;2283,41883.419999190,00000077,-64207,-36,-518,9,0,1060*f12e388d
%RAWIMUSA,2283,41883.430;2283,41883.429999190,00000077,-64218,-172,-528,-9,0,-1024*5d28ef9e
%RAWIMUSA,2283,41883.440;2283,41883.439999190,00000077,-64203,18,-532,-18,8,-923*aebade55
%RAWIMUSA,2283,41883.450;2283,41883.449999190,00000077,-64215,-143,-520,-8,-8,484*867218cc
%RAWIMUSA,2283,41883.460;2283,41883.459999190,00000077,-64211,-81,-516,18,-8,887*e079ddaa
%RAWIMUSA,2283,41883.470;2283,41883.469999190,00000077,-64204,-32,-528,0,9,146*80176112
%RAWIMUSA,2283,41883.480;2283,41883.479999190,00000077,-64219,-167,-529,-18,0,-1033*ab22694c
%RAWIMUSA,2283,41883.490;2283,41883.489999190,00000077,-64200,10,-526,-18,8,-484*48f93752
%RAWIMUSA,2283,41883.500;2283,41883.499999190,00000077,-64218,-153,-511,18,-8,978*0671a47e
%RAWIMUSA,2283,41883.510;2283,41883.509999190,00000077,-64207,-77,-531,9,-8,896*553c71c4
%RAWIMUSA,2283,41883.520;2283,41883.519999190,00000077,-64206,-19,-530,-9,8,-786*78396c85
%RAWIMUSA,2283,41883.530;2283,41883.529999190,00000077,-64219,-179,-515,-27,8,-1042*e63251e9
%RAWIMUSA,2283,41883.540;2283,41883.539999190,00000077,-64195,2,-524,0,-8,448*2e8c6fd9
%RAWIMUSA,2283,41883.550;2283,41883.549999190,00000077,-64217,-145,-528,18,0,978*4492423a
%RAWIMUSA,2283,41883.560;2283,41883.559999190,00000077,-64212,-60,-528,0,0,18*571c8023
