%RAWIMUSA,2283,42338.340;2283,42338.339998952,00000077,64191,14,441,-18,0,1015*342b021d
%RAWIMUSA,2283,42338.350;2283,42338.349998952,00000077,64183,35,459,-9,-9,9*a6ee1902
%RAWIMUSA,2283,42338.360;2283,42338.359998952,00000077,64195,-19,468,9,17,-905*f0c0e99e
%RAWIMUSA,2283,42338.370;2283,42338.369998952,00000077,64181,59,447,27,0,-575*4b68889a
%RAWIMUSA,2283,42338.380;2283,42338.379998952,00000077,64190,-5,438,0,-8,969*31301407
%RAWIMUSA,2283,42338.390;2283,42338.389998952,00000077,64181,33,453,-18,-8,969*c101b148
%RAWIMUSA,2283,42338.400;2283,42338.399998952,00000077,64190,2,464,0,8,-896*26edd9ca
%RAWIMUSA,2283,42338.410;2283,42338.409998952,00000077,64191,27,450,18,8,-905*48553b78
%RAWIMUSA,2283,42338.420;2283,42338.419998952,00000077,64179,42,442,18,0,338*e5898f97
%RAWIMUSA,2283,42338.430;2283,42338.429998952,00000077,64190,-16,451,-8,-8,1005*a80bdc15
%RAWIMUSA,2283,42338.440;2283,42338.439998952,00000077,64179,52,467,-18,-9,82*2b3508e1
%RAWIMUSA,2283,42338.450;2283,42338.449998952,00000077,64195,-8,453,18,8,-923*6580586e
%RAWIMUSA,2283,42338.460;2283,42338.459998951,00000077,64179,42,439,18,8,-594*5a18c4ae
%RAWIMUSA,2283,42338.470;2283,42338.469998951,00000077,64192,-2,455,0,9,941*686f12c2
%RAWIMUSA,2283,42338.480;2283,42338.479998951,00000077,64185,30,478,-8,-8,1005*e4fb4e38
%RAWIMUSA,2283,42338.490;2283,42338.489998951,00000077,64183,28,453,-9,-9,-859*e57eb00a
%RAWIMUSA,2283,42338.500;2283,42338.499998951,00000077,64196,-7,434,27,17,-896*8c4ef63c
%RAWIMUSA,2283,42338.510;2283,42338.509998951,00000077,64180,45,458,18,0,283*bcfaf804
%RAWIMUSA,2283,42338.520;2283,42338.519998951,00000077,64192,-16,470,-18,-8,1005*76046e6c
%RAWIMUSA,2283,42338.530;2283,42338.529998951,00000077,64181,54,451,-18,-9,146*59a66d4c
%RAWIMUSA,2283,42338.540;2283,42338.539998951,00000077,64188,-5,437,18,8,-960*69ed5529
%RAWIMUSA,2283,42338.550;2283,42338.549998951,00000077,64182,22,456,27,8,-621*86b360b9
%RAWIMUSA,2283,42338.560;2283,42338.559998951,00000077,64188,19,465,0,-8,932*b8912c58
%RAWIMUSA,2283,42338.570;2283,42338.569998951,00000077,64189,14,446,-18,-8,1015*5745343a
%RAWIMUSA,2283,42338.580;2283,42338.579998951,00000077,64179,36,442,0,8,-804*a5431234
%RAWIMUSA,2283,42338.590;2283,42338.589998951,00000077,64196,-15,454,18,8,-896*b7077be0
%RAWIMUSA,2283,42338.600;2283,42338.599998951,00000077,64177,53,464,18,-9,237*97593a0c
%RAWIMUSA,2283,42338.610;2283,42338.609998951,00000077,64192,-12,451,-18,-8,978*26d5ff61
%RAWIMUSA,2283,42338.620;2283,42338.619998951,00000077,64176,45,445,-9,0,228*3940350d
%RAWIMUSA,2283,42338.630;2283,42338.629998951,00000077,64194,-1,445,18,8,-978*970628c9
%RAWIMUSA,2283,42338.640;2283,42338.639998951,00000077,64191,29,475,18,8,-667*6090ee27
%RAWIMUSA,2283,42338.650;2283,42338.649998951,00000077,64183,31,458,-8,-17,914*88e5fd74
%RAWIMUSA,2283,42338.660;2283,42338.659998951,00000077,64189,-20,417,-8,0,1015*8cab8aa3
%RAWIMUSA,2283,42338.670;2283,42338.669998951,00000077,64183,60,458,0,8,-767*b3921d93
%RAWIMUSA,2283,42338.680;2283,42338.679998951,00000077,64189,-9,489,18,0,-905*7cd886c5
%RAWIMUSA,2283,42338.690;2283,42338.689998951,00000077,64183,38,447,9,0,192*82b2caa4
%RAWIMUSA,2283,42338.700;2283,42338.699998951,00000077,64192,-7,427,-8,-8,960*047c6616
%RAWIMUSA,2283,42338.710;2283,42338.709998951,00000077,64186,38,460,-18,9,310*47316ee7
%RAWIMUSA,2283,42338.720;2283,42338.719998951,00000077,64183,23,481,27,0,-996*5caa58a0
%RAWIMUSA,2283,42338.730;2283,42338.729998951,00000077,64191,-4,446,18,8,-703*fe167097
%RAWIMUSA,2283,42338.740;2283,42338.739998951,00000077,64180,40,428,0,-8,905*8dcd346b
%RAWIMUSA,2283,42338.750;2283,42338.749998951,00000077,64193,-4,464,-18,-8,996*e24b3121
%RAWIMUSA,2283,42338.760;2283,42338.759998951,00000077,64178,52,473,0,8,-676*905fbef9
%RAWIMUSA,2283,42338.770;2283,42338.769998951,00000077,64190,-23,447,27,0,-941*3c43bf56
%RAWIMUSA,2283,42338.780;2283,42338.779998951,00000077,64183,39,432,9,0,173*8e2645eb
%RAWIMUSA,2283,42338.790;2283,42338.789998951,00000077,64192,25,465,-18,-8,932*8d0de952
%RAWIMUSA,2283,42338.800;2283,42338.799998951,00000077,64189,11,479,-8,0,365*af916f94
%RAWIMUSA,2283,42338.810;2283,42338.809998951,00000077,64179,18,436,18,0,-987*811a409c
%RAWIMUSA,2283,42338.820;2283,42338.819998951,00000077,64193,-1,423,27,17,-758*41e199e4
%RAWIMUSA,2283,42338.830;2283,42338.829998951,00000077,64179,65,478,-8,-8,914*80c98287
%RAWIMUSA,2283,42338.840;2283,42338.839998951,00000077,64193,-19,479,-18,-8,996*0665e011
%RAWIMUSA,2283,42338.850;2283,42338.849998951,00000077,64181,32,433,0,8,-612*2dcd5ec9
%RAWIMUSA,2283,42338.860;2283,42338.859998951,00000077,64191,1,427,27,8,-960*28c698ba
%RAWIMUSA,2283,42338.870;2283,42338.869998951,00000077,64181,49,470,9,-9,146*1ffe37cc
%RAWIMUSA,2283,42338.880;2283,42338.879998951,00000077,64188,10,480,-18,-8,932*4d36488e
%RAWIMUSA,2283,42338.890;2283,42338.889998951,00000077,64189,-3,434,-8,0,429*a095670d
%RAWIMUSA,2283,42338.900;2283,42338.899998951,00000077,64185,36,424,18,17,-1005*719a9c4d
%RAWIMUSA,2283,42338.910;2283,42338.909998951,00000077,64196,2,468,27,0,-822*c8c7535a
%RAWIMUSA,2283,42338.920;2283,42338.919998951,00000077,64176,49,482,-8,-8,923*6cac2b13
%RAWIMUSA,2283,42338.930;2283,42338.929998951,00000077,64193,-26,437,-18,-8,978*6c1f2714
%RAWIMUSA,2283,42338.940;2283,42338.939998951,00000077,64185,56,430,9,8,-557*3987b1ea
%RAWIMUSA,2283,42338.950;2283,42338.949998951,00000077,64193,15,470,18,8,-950*7acb75df
%RAWIMUSA,2283,42338.960;2283,42338.959998951,00000077,64183,-1,470,9,-9,118*0f3d7c45
%RAWIMUSA,2283,42338.970;2283,42338.969998951,00000077,64181,16,430,-8,-8,905*4257ff4d
%RAWIMUSA,2283,42338.980;2283,42338.979998951,00000077,64195,18,442,-8,9,475*6e73e054
%RAWIMUSA,2283,42338.990;2283,42338.989998951,00000077,64176,59,481,18,8,-987*eac8dc33
%RAWIMUSA,2283,42339.000;2283,42338.999998951,00000077,64192,-41,456,27,0,-877*f9d568ad
%RAWIMUSA,2283,42339.010;2283,42339.009998951,00000077,64183,41,426,-8,-8,941*163c7229
%RAWIMUSA,2283,42339.020;2283,42339.019998951,00000077,64188,21,451,-18,0,951*4270d90b
%RAWIMUSA,2283,42339.030;2283,42339.029998951,00000077,64183,31,477,9,0,-475*7512c497
%RAWIMUSA,2283,42339.040;2283,42339.039998951,00000077,64188,-5,459,18,8,-978*5bd819f8
%RAWIMUSA,2283,42339.050;2283,42339.049998951,00000077,64192,4,430,0,-9,64*2aee3392
%RAWIMUSA,2283,42339.060;2283,42339.059998951,00000077,64180,67,449,-8,-8,905*d7ebc609
%RAWIMUSA,2283,42339.070;2283,42339.069998951,00000077,64193,-11,472,-8,0,548*7031b1cf
%RAWIMUSA,2283,42339.080;2283,42339.079998951,00000077,64181,25,459,18,8,-996*21ce4966
%RAWIMUSA,2283,42339.090;2283,42339.089998951,00000077,64191,-10,434,18,0,-941*96f1d386
%RAWIMUSA,2283,42339.100;2283,42339.099998951,00000077,64184,64,448,-8,0,969*7a4de13f
%RAWIMUSA,2283,42339.110;2283,42339.109998951,00000077,64187,5,471,-18,-8,941*88c280fb
%RAWIMUSA,2283,42339.120;2283,42339.119998951,00000077,64184,-4,456,9,8,-411*2d81f69c
%RAWIMUSA,2283,42339.130;2283,42339.129998951,00000077,64186,26,438,27,8,-1005*8f6b80d4
%RAWIMUSA,2283,42339.140;2283,42339.139998951,00000077,64194,26,455,0,-9,36*fa321204
%RAWIMUSA,2283,42339.150;2283,42339.149998951,00000077,64177,42,464,-8,-17,914*75f6f9e6
%RAWIMUSA,2283,42339.160;2283,42339.159998951,00000077,64191,-46,448,-8,9,567*ffcba543
%RAWIMUSA,2283,42339.170;2283,42339.169998951,00000077,64183,63,445,18,8,-969*2be9f3e6
%RAWIMUSA,2283,42339.180;2283,42339.179998951,00000077,64190,17,455,27,0,-960*05ad7ef3
%RAWIMUSA,2283,42339.190;2283,42339.189998951,00000077,64181,15,459,-18,-8,923*ae97e98c
%RAWIMUSA,2283,42339.200;2283,42339.199998951,00000077,64187,3,450,-18,0,923*d51016e8
%RAWIMUSA,2283,42339.210;2283,42339.209998951,00000077,64191,19,450,18,8,-347*0d44ff8b
%RAWIMUSA,2283,42339.220;2283,42339.219998951,00000077,64178,55,459,18,0,-1005*bdeade77
%RAWIMUSA,2283,42339.230;2283,42339.229998951,00000077,64199,-24,453,0,-9,-36*20904962
%RAWIMUSA,2283,42339.240;2283,42339.239998951,00000077,64182,36,450,-18,-8,932*5b1c6414
%RAWIMUSA,2283,42339.250;2283,42339.249998951,00000077,64191,1,451,0,9,594*67c00124
%RAWIMUSA,2283,42339.260;2283,42339.259998951,00000077,64183,57,458,18,8,-941*29c849ec
%RAWIMUSA,2283,42339.270;2283,42339.269998951,00000077,64191,-9,458,27,0,-969*bb155ebf
%RAWIMUSA,2283,42339.280;2283,42339.279998951,00000077,64189,4,450,-18,-8,887*56ce2794
%RAWIMUSA,2283,42339.290;2283,42339.289998951,00000077,64188,43,448,-18,0,905*6bbe1b2c
%RAWIMUSA,2283,42339.300;2283,42339.299998951,00000077,64190,11,454,18,8,-292*b3e1a5e5
%RAWIMUSA,2283,42339.310;2283,42339.309998951,00000077,64176,30,455,18,0,-996*2e7db721
%RAWIMUSA,2283,42339.320;2283,42339.319998951,00000077,64192,-25,457,0,0,-100*cc1839de
%RAWIMUSA,2283,42339.330;2283,42339.329998951,00000077,64181,68,455,-8,-8,941*0b49631c
%RAWIMUSA,2283,42339.340;2283,42339.339998951,00000077,64191,2,452,-8,9,640*033e2d03
%RAWIMUSA,2283,42339.350;2283,42339.349998951,00000077,64182,15,448,27,8,-923*45b362b6
%RAWIMUSA,2283,42339.360;2283,42339.359998951,00000077,64186,12,457,18,-10,-987*aad9307b
%RAWIMUSA,2283,42339.370;2283,42339.369998951,00000077,64193,20,461,-18,-8,850*c3d04dc5
%RAWIMUSA,2283,42339.380;2283,42339.379998951,00000077,64177,44,449,-8,0,914*af16dd22
%RAWIMUSA,2283,42339.390;2283,42339.389998951,00000077,64194,-27,447,9,8,-237*dec82700
%RAWIMUSA,2283,42339.400;2283,42339.399998951,00000077,64179,51,457,18,0,-978*b4e0c380
%RAWIMUSA,2283,42339.410;2283,42339.409998951,00000077,64188,-2,457,0,-9,-173*699688d5
%RAWIMUSA,2283,42339.420;2283,42339.419998951,00000077,64186,40,447,-8,0,978*e0502d40
%RAWIMUSA,2283,42339.430;2283,42339.429998951,00000077,64191,0,448,0,0,667*b59b433f
%RAWIMUSA,2283,42339.440;2283,42339.439998951,00000077,64185,12,462,18,17,-905*36469ea8
%RAWIMUSA,2283,42339.450;2283,42339.449998951,00000077,64181,45,460,18,-19,-996*6e1ce482
%RAWIMUSA,2283,42339.460;2283,42339.459998951,00000077,64193,-4,443,-18,0,795*69e71066
%RAWIMUSA,2283,42339.470;2283,42339.469998951,00000077,64180,33,449,-8,0,914*d4dc50e7
%RAWIMUSA,2283,42339.480;2283,42339.479998951,00000077,64189,-8,460,9,8,-219*2c89a9c6
%RAWIMUSA,2283,42339.490;2283,42339.489998951,00000077,64180,59,455,27,0,-969*a5f65169
%RAWIMUSA,2283,42339.500;2283,42339.499998951,00000077,64190,-11,445,0,-9,-237*03258cc5
%RAWIMUSA,2283,42339.510;2283,42339.509998951,00000077,64185,27,452,-18,0,987*0a24ba30
%RAWIMUSA,2283,42339.520;2283,42339.519998951,00000077,64189,19,466,0,9,695*87843130
%RAWIMUSA,2283,42339.530;2283,42339.529998951,00000077,64184,10,445,18,0,-895*7d9b5df5
%RAWIMUSA,2283,42339.540;2283,42339.539998951,00000077,64183,25,439,18,0,-1005*37cf7429
%RAWIMUSA,2283,42339.550;2283,42339.549998951,00000077,64192,-2,460,-18,-8,740*d85e8356
%RAWIMUSA,2283,42339.560;2283,42339.559998951,00000077,64179,51,467,-8,9,914*944d1f14
%RAWIMUSA,2283,42339.570;2283,42339.569998951,00000077,64191,-17,446,18,0,-155*92602d10
%RAWIMUSA,2283,42339.580;2283,42339.579998951,00000077,64182,40,442,18,0,-960*041831fb
%RAWIMUSA,2283,42339.590;2283,42339.589998951,00000077,64192,0,457,0,-9,-301*9aefbc7c
%RAWIMUSA,2283,42339.600;2283,42339.599998951,00000077,64189,33,468,-18,9,996*157f4acb
%RAWIMUSA,2283,42339.610;2283,42339.609998951,00000077,64184,15,451,9,0,749*61e4a8ab
%RAWIMUSA,2283,42339.620;2283,42339.619998951,00000077,64188,0,439,18,8,-905*66a8679e
%RAWIMUSA,2283,42339.630;2283,42339.629998951,00000077,64181,52,461,18,-10,-1005*5d3dcce2
%RAWIMUSA,2283,42339.640;2283,42339.639998951,00000077,64194,-14,464,-18,-8,685*0d048185
%RAWIMUSA,2283,42339.650;2283,42339.649998951,00000077,64179,43,447,-18,9,941*b3e23d52
%RAWIMUSA,2283,42339.660;2283,42339.659998951,00000077,64192,-8,445,27,8,-127*b19a6049
%RAWIMUSA,2283,42339.670;2283,42339.669998951,00000077,64184,41,455,18,-10,-941*e8eb6639
%RAWIMUSA,2283,42339.680;2283,42339.679998951,00000077,64186,6,459,0,0,-374*314a861e
%RAWIMUSA,2283,42339.690;2283,42339.689998951,00000077,64187,9,450,-18,0,1005*2493a27f
%RAWIMUSA,2283,42339.700;2283,42339.699998951,00000077,64185,44,453,0,9,795*d94bad13
%RAWIMUSA,2283,42339.710;2283,42339.709998951,00000077,64197,-10,462,18,0,-895*93f01a25
%RAWIMUSA,2283,42339.720;2283,42339.719998951,00000077,64178,43,456,18,-10,-987*fd733258
%RAWIMUSA,2283,42339.730;2283,42339.729998951,00000077,64188,-16,440,-18,-8,603*6311f920
%RAWIMUSA,2283,42339.740;2283,42339.739998951,00000077,64185,58,454,-18,19,969*040e557f
%RAWIMUSA,2283,42339.750;2283,42339.749998951,00000077,64189,2,466,18,0,-100*f61ae7d9
%RAWIMUSA,2283,42339.760;2283,42339.759998951,00000077,64186,4,450,27,0,-905*5ffa6260
%RAWIMUSA,2283,42339.770;2283,42339.769998951,00000077,64187,34,447,-9,-18,-447*e483e977
%RAWIMUSA,2283,42339.780;2283,42339.779998951,00000077,64192,4,454,-18,9,1024*28367bf4
%RAWIMUSA,2283,42339.790;2283,42339.789998951,00000077,64177,41,459,9,9,850*af8df3c5
%RAWIMUSA,2283,42339.800;2283,42339.799998951,00000077,64192,-23,451,18,0,-923*261e584a
%RAWIMUSA,2283,42339.810;2283,42339.809998951,00000077,64182,53,445,18,-10,-959*bcbda241
%RAWIMUSA,2283,42339.820;2283,42339.819998951,00000077,64185,2,455,-18,-8,521*b1e7056e
%RAWIMUSA,2283,42339.830;2283,42339.829998951,00000077,64189,25,463,-8,9,996*9e89faa5
%RAWIMUSA,2283,42339.840;2283,42339.839998951,00000077,64186,17,455,18,9,-63*b1dce1c1
%RAWIMUSA,2283,42339.850;2283,42339.849998951,00000077,64188,0,440,18,0,-905*06e599f9
%RAWIMUSA,2283,42339.860;2283,42339.859998951,00000077,64182,47,452,0,-18,-502*9af257af
%RAWIMUSA,2283,42339.870;2283,42339.869998951,00000077,64193,-8,466,-18,9,1005*64db641a
%RAWIMUSA,2283,42339.880;2283,42339.879998951,00000077,64179,40,452,9,9,923*fae72aa0
%RAWIMUSA,2283,42339.890;2283,42339.889998951,00000077,64192,-10,439,18,0,-932*e4b678c2
%RAWIMUSA,2283,42339.900;2283,42339.899998951,00000077,64182,45,458,9,-10,-950*1350379b
%RAWIMUSA,2283,42339.910;2283,42339.909998951,00000077,64190,-3,467,-18,-8,466*88f27271
%RAWIMUSA,2283,42339.920;2283,42339.919998951,00000077,64190,23,449,-18,19,987*b6cc7f4f
%RAWIMUSA,2283,42339.930;2283,42339.929998951,00000077,64184,30,443,27,0,-18*0ec9e918
%RAWIMUSA,2283,42339.940;2283,42339.939998951,00000077,64189,-6,455,18,0,-895*961c6f0c
%RAWIMUSA,2283,42339.950;2283,42339.949998951,00000077,64182,51,464,-9,-9,-557*f59be659
%RAWIMUSA,2283,42339.960;2283,42339.959998951,00000077,64194,-15,452,-18,0,1005*bb3f17b3
%RAWIMUSA,2283,42339.970;2283,42339.969998951,00000077,64182,47,442,9,9,941*6da25ff5
%RAWIMUSA,2283,42339.980;2283,42339.979998951,00000077,64188,0,456,18,0,-905*213760a7
%RAWIMUSA,2283,42339.990;2283,42339.989998951,00000077,64183,29,461,9,0,-932*77070d56
%RAWIMUSA,2283,42340.000;2283,42339.999998951,00000077,64188,11,450,-18,-8,393*535320d2
%RAWIMUSA,2283,42340.010;2283,42340.009998951,00000077,64188,12,447,0,9,1015*3468d463
%RAWIMUSA,2283,42340.020;2283,42340.019998951,00000077,64180,42,460,18,9,18*1a06b30b
%RAWIMUSA,2283,42340.030;2283,42340.029998951,00000077,64193,-18,455,18,-9,-905*89a7fd07
%RAWIMUSA,2283,42340.040;2283,42340.039998951,00000077,64182,52,447,-9,-9,-575*7ae88010
%RAWIMUSA,2283,42340.050;2283,42340.049998951,00000077,64190,-10,448,-18,9,978*9ea5c23b
%RAWIMUSA,2283,42340.060;2283,42340.059998951,00000077,64183,46,459,9,9,960*f05894e2
%RAWIMUSA,2283,42340.070;2283,42340.069998951,00000077,64189,-4,456,27,-9,-877*14592887
%RAWIMUSA,2283,42340.080;2283,42340.079998951,00000077,64185,12,449,0,0,-914*434f252c
%RAWIMUSA,2283,42340.090;2283,42340.089998951,00000077,64185,32,449,-8,-8,329*1c363c4a
%RAWIMUSA,2283,42340.100;2283,42340.099998951,00000077,64193,0,454,-8,19,1024*6ddd9efe
%RAWIMUSA,2283,42340.110;2283,42340.109998951,00000077,64179,46,457,27,0,73*73e324ae
%RAWIMUSA,2283,42340.120;2283,42340.119998951,00000077,64193,-22,450,18,-9,-932*2e210da0
%RAWIMUSA,2283,42340.130;2283,42340.129998951,00000077,64182,51,445,-9,-9,-603*1a109ad8
%RAWIMUSA,2283,42340.140;2283,42340.139998951,00000077,64190,9,459,-18,9,941*03fd173e
%RAWIMUSA,2283,42340.150;2283,42340.149998951,00000077,64184,15,464,9,9,996*018604a4
%RAWIMUSA,2283,42340.160;2283,42340.159998951,00000077,64184,18,452,27,-9,-850*ee02a4fd
%RAWIMUSA,2283,42340.170;2283,42340.169998951,00000077,64191,1,443,0,0,-905*3b8e5362
%RAWIMUSA,2283,42340.180;2283,42340.179998951,00000077,64179,53,461,-18,0,283*c4070ca7
%RAWIMUSA,2283,42340.190;2283,42340.189998951,00000077,64195,-20,464,0,9,996*01d2f558
%RAWIMUSA,2283,42340.200;2283,42340.199998951,00000077,64183,46,452,18,0,155*5f379507
%RAWIMUSA,2283,42340.210;2283,42340.209998951,00000077,64186,-2,441,18,-10,-959*62279e54
%RAWIMUSA,2283,42340.220;2283,42340.219998951,00000077,64183,33,456,-9,0,-639*aa290f3c
%RAWIMUSA,2283,42340.230;2283,42340.229998951,00000077,64187,14,467,-18,0,932*b6cd1e30
%RAWIMUSA,2283,42340.240;2283,42340.239998951,00000077,64191,0,451,18,9,1015*eedb5237
%RAWIMUSA,2283,42340.250;2283,42340.249998951,00000077,64179,46,443,18,0,-804*972c81c9
%RAWIMUSA,2283,42340.260;2283,42340.259998951,00000077,64195,-10,451,0,-9,-905*dbb80696
%RAWIMUSA,2283,42340.270;2283,42340.269998951,00000077,64182,42,462,-8,0,246*f44ec287
%RAWIMUSA,2283,42340.280;2283,42340.279998951,00000077,64191,-12,451,0,9,969*be68128e
%RAWIMUSA,2283,42340.290;2283,42340.289998951,00000077,64185,44,442,18,0,246*320ab8e7
%RAWIMUSA,2283,42340.300;2283,42340.299998951,00000077,64189,9,456,18,-10,-987*01fa9f08
%RAWIMUSA,2283,42340.310;2283,42340.309998951,00000077,64186,4,464,-9,0,-667*ea1d32c3
%RAWIMUSA,2283,42340.320;2283,42340.319998951,00000077,64182,36,453,-18,0,905*f2220cd9
%RAWIMUSA,2283,42340.330;2283,42340.329998951,00000077,64195,-6,444,18,19,1015*6eae6007
%RAWIMUSA,2283,42340.340;2283,42340.339998951,00000077,64178,54,453,18,-9,-749*ec512327
%RAWIMUSA,2283,42340.350;2283,42340.349998951,00000077,64189,-22,464,0,-9,-941*cdaba529
%RAWIMUSA,2283,42340.360;2283,42340.359998951,00000077,64184,39,455,-18,0,228*583ec7c3
%RAWIMUSA,2283,42340.370;2283,42340.369998950,00000077,64190,11,444,0,9,941*8560a61e
%RAWIMUSA,2283,42340.380;2283,42340.379998950,00000077,64188,21,452,18,0,320*afb5f8f0
%RAWIMUSA,2283,42340.390;2283,42340.389998950,00000077,64182,26,461,18,-10,-1005*71d3cab3
%RAWIMUSA,2283,42340.400;2283,42340.399998950,00000077,64194,-11,447,-9,0,-722*282e434c
%RAWIMUSA,2283,42340.410;2283,42340.409998950,00000077,64180,54,446,-18,9,923*6afaafc1
%RAWIMUSA,2283,42340.420;2283,42340.419998950,00000077,64190,-12,454,18,9,987*d6a4f422
%RAWIMUSA,2283,42340.430;2283,42340.429998950,00000077,64185,42,459,27,-9,-658*c4d1814b
%RAWIMUSA,2283,42340.440;2283,42340.439998950,00000077,64191,-1,454,-9,-9,-969*78b3d148
%RAWIMUSA,2283,42340.450;2283,42340.449998950,00000077,64185,30,448,-9,9,201*4661eff5
%RAWIMUSA,2283,42340.460;2283,42340.459998950,00000077,64188,29,456,-8,9,905*7d1d5603
%RAWIMUSA,2283,42340.470;2283,42340.469998950,00000077,64190,-6,462,27,-8,384*fc9f27a4
%RAWIMUSA,2283,42340.480;2283,42340.479998950,00000077,64181,42,450,9,-10,-996*595367df
%RAWIMUSA,2283,42340.490;2283,42340.489998950,00000077,64193,-7,443,-9,0,-786*b758a53f
%RAWIMUSA,2283,42340.500;2283,42340.499998950,00000077,64181,50,454,-18,9,941*9ee8fc38
%RAWIMUSA,2283,42340.510;2283,42340.509998950,00000077,64191,-13,463,18,9,960*e3e2a2e1
%RAWIMUSA,2283,42340.520;2283,42340.519998950,00000077,64186,37,451,27,-9,-575*32ce82d8
%RAWIMUSA,2283,42340.530;2283,42340.529998950,00000077,64190,23,448,0,-10,-987*26365dd2
%RAWIMUSA,2283,42340.540;2283,42340.539998950,00000077,64186,0,453,-18,18,173*881fbb8e
%RAWIMUSA,2283,42340.550;2283,42340.549998950,00000077,64181,26,456,0,0,923*9d876f28
%RAWIMUSA,2283,42340.560;2283,42340.559998950,00000077,64196,1,456,27,0,420*3f047c48
%RAWIMUSA,2283,42340.570;2283,42340.569998950,00000077,64181,58,450,9,-10,-987*a99d34d1
%RAWIMUSA,2283,42340.580;2283,42340.579998950,00000077,64193,-23,451,-9,0,-850*8eb254ad
%RAWIMUSA,2283,42340.590;2283,42340.589998950,00000077,64182,37,458,-18,0,960*50f9ca31
%RAWIMUSA,2283,42340.600;2283,42340.599998950,00000077,64191,9,457,18,9,941*71a9bacd
%RAWIMUSA,2283,42340.610;2283,42340.609998950,00000077,64184,32,449,27,-9,-511*69e2ccdc
%RAWIMUSA,2283,42340.620;2283,42340.619998950,00000077,64186,8,448,-9,-10,-996*26bc7bbd
%RAWIMUSA,2283,42340.630;2283,42340.629998950,00000077,64190,0,456,-9,9,118*b3f5bb62
%RAWIMUSA,2283,42340.640;2283,42340.639998950,00000077,64182,51,460,0,9,905*5b6cbb41
%RAWIMUSA,2283,42340.650;2283,42340.649998950,00000077,64195,-9,449,18,0,484*bc04412b
%RAWIMUSA,2283,42340.660;2283,42340.659998950,00000077,64178,38,450,9,-10,-969*3a563706
%RAWIMUSA,2283,42340.670;2283,42340.669998950,00000077,64190,-11,455,-9,0,-914*3b20472c
%RAWIMUSA,2283,42340.680;2283,42340.679998950,00000077,64183,53,457,-8,9,960*1c4e4416
%RAWIMUSA,2283,42340.690;2283,42340.689998950,00000077,64187,1,450,18,0,951*00fc91c7
%RAWIMUSA,2283,42340.700;2283,42340.699998950,00000077,64185,14,447,18,0,-457*a31c80da
%RAWIMUSA,2283,42340.710;2283,42340.709998950,00000077,64184,24,461,0,-10,-996*5c0ab6f6
%RAWIMUSA,2283,42340.720;2283,42340.719998950,00000077,64196,5,457,-18,9,64*c17f9e96
%RAWIMUSA,2283,42340.730;2283,42340.729998950,00000077,64177,48,447,0,9,923*27328c24
%RAWIMUSA,2283,42340.740;2283,42340.739998950,00000077,64191,-23,446,27,0,530*fda56d32
%RAWIMUSA,2283,42340.750;2283,42340.749998950,00000077,64182,54,462,9,-10,-978*731c3947
%RAWIMUSA,2283,42340.760;2283,42340.759998950,00000077,64193,2,460,-18,0,-960*bf787230
%RAWIMUSA,2283,42340.770;2283,42340.769998950,00000077,64184,26,448,-8,9,960*d960e62b
%RAWIMUSA,2283,42340.780;2283,42340.779998950,00000077,64186,6,447,18,0,932*b7958df7
%RAWIMUSA,2283,42340.790;2283,42340.789998950,00000077,64189,14,458,27,-9,-393*c54ef382
%RAWIMUSA,2283,42340.800;2283,42340.799998950,00000077,64182,52,460,-9,-10,-996*0f7ac240
%RAWIMUSA,2283,42340.810;2283,42340.809998950,00000077,64190,-23,448,-18,9,0*29f4f111
%RAWIMUSA,2283,42340.820;2283,42340.819998950,00000077,64182,44,446,9,9,932*fcdc495a
%RAWIMUSA,2283,42340.830;2283,42340.829998950,00000077,64192,-1,461,18,0,557*98e481ee
%RAWIMUSA,2283,42340.840;2283,42340.839998950,00000077,64184,47,458,9,-9,-941*ee9a868b
%RAWIMUSA,2283,42340.850;2283,42340.849998950,00000077,64187,-3,446,-9,0,-978*b22fb4cd
%RAWIMUSA,2283,42340.860;2283,42340.859998950,00000077,64189,7,447,-8,9,932*fdd1eb41
%RAWIMUSA,2283,42340.870;2283,42340.869998950,00000077,64184,38,461,18,0,914*c4791b9a
%RAWIMUSA,2283,42340.880;2283,42340.879998950,00000077,64192,-3,458,18,-9,-329*d10e626a
%RAWIMUSA,2283,42340.890;2283,42340.889998950,00000077,64178,40,445,-9,-10,-996*f49602d9
%RAWIMUSA,2283,42340.900;2283,42340.899998950,00000077,64189,-19,446,-18,18,-73*059c517c
%RAWIMUSA,2283,42340.910;2283,42340.909998950,00000077,64182,55,463,9,0,960*2d839cfd
%RAWIMUSA,2283,42340.920;2283,42340.919998950,00000077,64191,1,462,18,-8,594*3baf261c
%RAWIMUSA,2283,42340.930;2283,42340.929998950,00000077,64187,23,451,9,-9,-932*c438a6d7
%RAWIMUSA,2283,42340.940;2283,42340.939998950,00000077,64189,14,446,-18,8,-1005*db9716e0
%RAWIMUSA,2283,42340.950;2283,42340.949998950,00000077,64189,10,453,0,9,896*14fefe2a
%RAWIMUSA,2283,42340.960;2283,42340.959998950,00000077,64180,42,460,18,0,914*4efc16f0
%RAWIMUSA,2283,42340.970;2283,42340.969998950,00000077,64196,-17,453,18,-9,-283*c9265a15
%RAWIMUSA,2283,42340.980;2283,42340.979998950,00000077,64180,56,451,-9,0,-996*80482af9
%RAWIMUSA,2283,42340.990;2283,42340.989998950,00000077,64188,-11,455,-9,9,-118*b0d72454
%RAWIMUSA,2283,42341.000;2283,42340.999998950,00000077,64186,39,454,9,9,969*357c6ecc
%RAWIMUSA,2283,42341.010;2283,42341.009998950,00000077,64188,3,449,18,-17,603*90bd6c46
%RAWIMUSA,2283,42341.020;2283,42341.019998950,00000077,64187,12,452,0,0,-905*fa69e240
%RAWIMUSA,2283,42341.030;2283,42341.029998950,00000077,64180,38,456,-9,0,-996*fcbaac28
%RAWIMUSA,2283,42341.040;2283,42341.039998950,00000077,64193,-13,454,-8,18,841*6f726cc6
%RAWIMUSA,2283,42341.050;2283,42341.049998950,00000077,64178,55,450,18,-8,914*4433938c
%RAWIMUSA,2283,42341.060;2283,42341.059998950,00000077,64193,-15,452,27,-9,-265*9760d293
%RAWIMUSA,2283,42341.070;2283,42341.069998950,00000077,64183,40,458,-18,0,-960*1fc6d5f8
%RAWIMUSA,2283,42341.080;2283,42341.079998950,00000077,64186,7,452,-18,8,-210*22d82a04
%RAWIMUSA,2283,42341.090;2283,42341.089998950,00000077,64186,18,452,18,0,996*89219566
%RAWIMUSA,2283,42341.100;2283,42341.099998950,00000077,64186,31,452,18,0,649*c1bea3e9
%RAWIMUSA,2283,42341.110;2283,42341.109998950,00000077,64192,-5,454,0,-9,-905*d851a974
%RAWIMUSA,2283,42341.120;2283,42341.119998950,00000077,64178,50,449,-9,8,-996*2d5f8ba3
%RAWIMUSA,2283,42341.130;2283,42341.129998950,00000077,64194,-20,453,-8,0,768*7d64b555
%RAWIMUSA,2283,42341.140;2283,42341.139998950,00000077,64185,44,457,28,0,941*cdbceef4
%RAWIMUSA,2283,42341.150;2283,42341.149998950,00000077,64190,0,455,18,-9,-237*64c11290
%RAWIMUSA,2283,42341.160;2283,42341.159998950,00000077,64184,30,449,-9,0,-923*06ea2d35
%RAWIMUSA,2283,42341.170;2283,42341.169998950,00000077,64185,16,452,-18,8,-274*88f17dbc
%RAWIMUSA,2283,42341.180;2283,42341.179998950,00000077,64190,7,455,18,0,1015*8bb54131
%RAWIMUSA,2283,42341.190;2283,42341.189998950,00000077,64181,42,456,18,-8,695*8ae3a713
%RAWIMUSA,2283,42341.200;2283,42341.199998950,00000077,64195,-15,448,0,0,-905*111046b9
%RAWIMUSA,2283,42341.210;2283,42341.209998950,00000077,64178,49,452,-18,0,-987*06cecac5
%RAWIMUSA,2283,42341.220;2283,42341.219998950,00000077,64191,-9,453,0,9,695*fd4d197c
%RAWIMUSA,2283,42341.230;2283,42341.229998950,00000077,64184,40,457,18,-8,960*4ea9dfd2
%RAWIMUSA,2283,42341.240;2283,42341.239998950,00000077,64188,0,449,18,-9,-201*a3689daa
%RAWIMUSA,2283,42341.250;2283,42341.249998950,00000077,64186,19,452,-9,8,-923*aa8df950
%RAWIMUSA,2283,42341.260;2283,42341.259998950,00000077,64182,32,456,-18,0,-347*7169a241
%RAWIMUSA,2283,42341.270;2283,42341.269998950,00000077,64191,-7,456,9,9,1015*fe97cc80
%RAWIMUSA,2283,42341.280;2283,42341.279998950,00000077,64182,46,459,18,-8,749*a380f1e6
%RAWIMUSA,2283,42341.290;2283,42341.289998950,00000077,64193,-16,448,0,-9,-932*3949a66e
%RAWIMUSA,2283,42341.300;2283,42341.299998950,00000077,64180,48,444,-9,8,-969*22d4d5fd
%RAWIMUSA,2283,42341.310;2283,42341.309998950,00000077,64193,-2,462,0,9,631*dd278f51
%RAWIMUSA,2283,42341.320;2283,42341.319998950,00000077,64181,27,464,18,-8,987*716554f9
%RAWIMUSA,2283,42341.330;2283,42341.329998950,00000077,64188,12,447,18,-9,-164*f9d71a7b
%RAWIMUSA,2283,42341.340;2283,42341.339998950,00000077,64191,11,441,-18,8,-886*474d01a6
%RAWIMUSA,2283,42341.350;2283,42341.349998950,00000077,64180,41,462,-9,8,-402*ded4c485
%RAWIMUSA,2283,42341.360;2283,42341.359998950,00000077,64196,-15,463,18,0,1005*c102cdec
%RAWIMUSA,2283,42341.370;2283,42341.369998950,00000077,64178,49,441,18,-17,823*12ee2162
%RAWIMUSA,2283,42341.380;2283,42341.379998950,00000077,64190,-7,440,0,8,-932*12657f0f
%RAWIMUSA,2283,42341.390;2283,42341.389998950,00000077,64185,42,465,-9,0,-941*f216cfb9
%RAWIMUSA,2283,42341.400;2283,42341.399998950,00000077,64189,2,464,0,9,548*f9933ee2
%RAWIMUSA,2283,42341.410;2283,42341.409998950,00000077,64185,12,444,18,-8,1005*e2003388
%RAWIMUSA,2283,42341.420;2283,42341.419998950,00000077,64185,32,443,9,-9,-137*3a1eaddc
%RAWIMUSA,2283,42341.430;2283,42341.429998950,00000077,64193,1,459,-9,8,-896*aa1937d5
%RAWIMUSA,2283,42341.440;2283,42341.439998950,00000077,64182,39,463,-18,8,-447*e286b3df
%RAWIMUSA,2283,42341.450;2283,42341.449998950,00000077,64190,-23,446,18,-8,987*3f6fe220
%RAWIMUSA,2283,42341.460;2283,42341.459998950,00000077,64181,55,447,18,0,887*3b91699b
%RAWIMUSA,2283,42341.470;2283,42341.469998950,00000077,64192,-2,465,0,0,-960*d07e1418
%RAWIMUSA,2283,42341.480;2283,42341.479998950,00000077,64182,24,464,-9,8,-932*9e95a122
%RAWIMUSA,2283,42341.490;2283,42341.489998950,00000077,64188,8,440,0,0,493*0a61574a
%RAWIMUSA,2283,42341.500;2283,42341.499998950,00000077,64192,18,447,18,-8,1015*973f1706
%RAWIMUSA,2283,42341.510;2283,42341.509998950,00000077,64180,40,469,18,-9,-82*52ca59f2
%RAWIMUSA,2283,42341.520;2283,42341.519998950,00000077,64195,-23,460,-18,8,-896*d0834fd8
%RAWIMUSA,2283,42341.530;2283,42341.529998950,00000077,64179,52,443,-18,8,-493*1af17676
%RAWIMUSA,2283,42341.540;2283,42341.539998950,00000077,64195,-4,445,18,0,978*5174bcd3
%RAWIMUSA,2283,42341.550;2283,42341.549998950,00000077,64184,41,466,28,-8,960*44a17c3e
%RAWIMUSA,2283,42341.560;2283,42341.559998950,00000077,64187,-8,456,-9,0,-978*675060db
%RAWIMUSA,2283,42341.570;2283,42341.569998950,00000077,64185,26,444,-9,8,-914*9ff3d57f
%RAWIMUSA,2283,42341.580;2283,42341.579998950,00000077,64186,32,452,0,0,429*2eaf4d63
%RAWIMUSA,2283,42341.590;2283,42341.589998950,00000077,64193,-6,458,18,0,1015*9f646a48
%RAWIMUSA,2283,42341.600;2283,42341.599998950,00000077,64180,34,457,9,-9,-27*b266ad8c
%RAWIMUSA,2283,42341.610;2283,42341.609998950,00000077,64193,-4,447,-9,8,-914*43422f3d
%RAWIMUSA,2283,42341.620;2283,42341.619998950,00000077,64181,60,451,-18,8,-539*7eb81026
%RAWIMUSA,2283,42341.630;2283,42341.629998950,00000077,64192,-24,461,18,-8,969*942acafc
%RAWIMUSA,2283,42341.640;2283,42341.639998950,00000077,64181,26,454,28,-8,978*4d316af9
%RAWIMUSA,2283,42341.650;2283,42341.649998950,00000077,64191,19,445,-9,0,-932*cc78a860
%RAWIMUSA,2283,42341.660;2283,42341.659998950,00000077,64189,19,451,-18,8,-896*88901824
%RAWIMUSA,2283,42341.670;2283,42341.669998950,00000077,64179,32,465,9,0,365*ab3c97f0
%RAWIMUSA,2283,42341.680;2283,42341.679998950,00000077,64196,-22,451,18,0,1015*dde7fb5c
%RAWIMUSA,2283,42341.690;2283,42341.689998950,00000077,64179,65,445,9,-9,36*eb9e49c1
%RAWIMUSA,2283,42341.700;2283,42341.699998950,00000077,64191,-5,454,-18,8,-932*cbce452b
%RAWIMUSA,2283,42341.710;2283,42341.709998950,00000077,64183,28,464,-9,0,-557*21efcb7a
%RAWIMUSA,2283,42341.720;2283,42341.719998950,00000077,64190,-2,451,28,0,932*c67be9a3
%RAWIMUSA,2283,42341.730;2283,42341.729998950,00000077,64184,24,446,18,-8,996*36fe7b2c
%RAWIMUSA,2283,42341.740;2283,42341.739998950,00000077,64184,39,455,-9,0,-905*7b902582
%RAWIMUSA,2283,42341.750;2283,42341.749998950,00000077,64194,-16,461,-9,8,-905*c6c20ca8
%RAWIMUSA,2283,42341.760;2283,42341.759998950,00000077,64182,45,454,0,0,338*39d55352
%RAWIMUSA,2283,42341.770;2283,42341.769998950,00000077,64192,-4,447,28,-8,987*493d7318
%RAWIMUSA,2283,42341.780;2283,42341.779998950,00000077,64180,48,457,9,0,137*9b92726e
%RAWIMUSA,2283,42341.790;2283,42341.789998950,00000077,64190,-13,460,-18,8,-960*9808b08b
%RAWIMUSA,2283,42341.800;2283,42341.799998950,00000077,64184,22,454,-9,8,-575*ab4caa0e
%RAWIMUSA,2283,42341.810;2283,42341.809998950,00000077,64185,31,451,18,-17,923*5b1aca75
%RAWIMUSA,2283,42341.820;2283,42341.819998950,00000077,64194,4,454,18,0,1015*6637cc45
%RAWIMUSA,2283,42341.830;2283,42341.829998950,00000077,64180,38,458,-9,0,-850*2b080594
%RAWIMUSA,2283,42341.840;2283,42341.839998950,00000077,64193,-20,450,-9,8,-905*8f690a03
%RAWIMUSA,2283,42341.850;2283,42341.849998950,00000077,64183,63,447,9,0,292*a2b8ff3e
%RAWIMUSA,2283,42341.860;2283,42341.859998950,00000077,64188,-3,456,18,-8,978*0fab144c
%RAWIMUSA,2283,42341.870;2283,42341.869998950,00000077,64183,22,458,9,0,201*23e37abb
%RAWIMUSA,2283,42341.880;2283,42341.879998950,00000077,64191,7,453,-9,8,-996*f63d45d4
%RAWIMUSA,2283,42341.890;2283,42341.889998950,00000077,64188,24,449,-9,8,-621*238452a5
%RAWIMUSA,2283,42341.900;2283,42341.899998950,00000077,64183,33,453,18,-8,923*d445550f
%RAWIMUSA,2283,42341.910;2283,42341.909998950,00000077,64192,-16,463,18,-8,1015*3413e0fe
%RAWIMUSA,2283,42341.920;2283,42341.919998950,00000077,64181,49,457,-9,0,-795*391e187e
%RAWIMUSA,2283,42341.930;2283,42341.929998950,00000077,64192,-3,444,-18,8,-923*2e70b524
%RAWIMUSA,2283,42341.940;2283,42341.939998950,00000077,64182,49,448,18,0,256*deeb3577
%RAWIMUSA,2283,42341.950;2283,42341.949998950,00000077,64189,-18,463,18,-8,960*107c7db1
%RAWIMUSA,2283,42341.960;2283,42341.959998950,00000077,64182,36,458,0,0,256*daaa56c6
%RAWIMUSA,2283,42341.970;2283,42341.969998950,00000077,64187,26,445,-18,0,-996*5a97967a
%RAWIMUSA,2283,42341.980;2283,42341.979998950,00000077,64189,4,449,0,8,-658*3935a110
%RAWIMUSA,2283,42341.990;2283,42341.989998950,00000077,64180,25,463,18,-8,914*debaf6a9
%RAWIMUSA,2283,42342.000;2283,42341.999998950,00000077,64195,-5,462,18,-8,996*0a69581a
%RAWIMUSA,2283,42342.010;2283,42342.009998950,00000077,64180,58,451,-9,0,-722*bf95afc0
%RAWIMUSA,2283,42342.020;2283,42342.019998950,00000077,64189,-20,441,-9,8,-932*3738d12d
%RAWIMUSA,2283,42342.030;2283,42342.029998950,00000077,64180,34,452,9,0,201*084cd992
%RAWIMUSA,2283,42342.040;2283,42342.039998950,00000077,64190,8,467,18,-8,941*7b32520e
%RAWIMUSA,2283,42342.050;2283,42342.049998950,00000077,64185,32,452,0,0,320*45e901a0
%RAWIMUSA,2283,42342.060;2283,42342.059998950,00000077,64189,16,443,-9,8,-996*2e866c2c
%RAWIMUSA,2283,42342.070;2283,42342.069998950,00000077,64193,-6,452,-9,0,-703*bf15b43b
%RAWIMUSA,2283,42342.080;2283,42342.079998950,00000077,64182,57,463,18,-8,923*bb3a596c
%RAWIMUSA,2283,42342.090;2283,42342.089998950,00000077,64194,-15,456,28,-8,1005*5acd26bf
%RAWIMUSA,2283,42342.100;2283,42342.099998950,00000077,64179,38,439,-18,8,-658*e1145ae6
%RAWIMUSA,2283,42342.110;2283,42342.109998950,00000077,64188,-2,453,-18,8,-960*f51441bc
%RAWIMUSA,2283,42342.120;2283,42342.119998950,00000077,64183,40,466,18,0,192*2034bd4d
%RAWIMUSA,2283,42342.130;2283,42342.129998950,00000077,64189,13,456,18,-17,923*1c51313c
%RAWIMUSA,2283,42342.140;2283,42342.139998950,00000077,64190,-1,441,0,9,384*a984e4bc
%RAWIMUSA,2283,42342.150;2283,42342.149998950,00000077,64180,38,452,-9,8,-1005*e38f0643
%RAWIMUSA,2283,42342.160;2283,42342.159998950,00000077,64190,-2,466,-9,0,-777*adb97f78
%RAWIMUSA,2283,42342.170;2283,42342.169998950,00000077,64182,47,454,28,-8,923*0ddaa5cb
%RAWIMUSA,2283,42342.180;2283,42342.179998950,00000077,64193,-22,443,18,0,978*40eb0da2
%RAWIMUSA,2283,42342.190;2283,42342.189998950,00000077,64179,44,455,-18,0,-603*7dae51b9
%RAWIMUSA,2283,42342.200;2283,42342.199998950,00000077,64192,9,465,-18,8,-978*62b00c7c
%RAWIMUSA,2283,42342.210;2283,42342.209998950,00000077,64184,23,454,18,-9,164*763b4908
%RAWIMUSA,2283,42342.220;2283,42342.219998950,00000077,64186,17,442,18,-8,914*1639dc8e
%RAWIMUSA,2283,42342.230;2283,42342.229998950,00000077,64191,0,452,0,9,429*609c4085
%RAWIMUSA,2283,42342.240;2283,42342.239998950,00000077,64179,55,465,-18,0,-996*1bc27b1c
%RAWIMUSA,2283,42342.250;2283,42342.249998950,00000077,64194,-18,457,0,0,-841*4171fc49
%RAWIMUSA,2283,42342.260;2283,42342.259998950,00000077,64180,45,444,18,-8,932*a1f58ee7
%RAWIMUSA,2283,42342.270;2283,42342.269998950,00000077,64192,-5,448,18,0,960*a616dd43
%RAWIMUSA,2283,42342.280;2283,42342.279998949,00000077,64180,37,465,-9,8,-521*54a63d45
%RAWIMUSA,2283,42342.290;2283,42342.289998949,00000077,64189,19,462,-18,8,-987*1887b59d
%RAWIMUSA,2283,42342.300;2283,42342.299998949,00000077,64187,0,441,18,-9,109*63ae8532
%RAWIMUSA,2283,42342.310;2283,42342.309998949,00000077,64177,35,442,18,-8,914*d785ec4e
%RAWIMUSA,2283,42342.320;2283,42342.319998949,00000077,64202,-3,466,0,9,484*ab0a33d5
%RAWIMUSA,2283,42342.330;2283,42342.329998949,00000077,64179,56,467,-18,0,-996*cb212570
%RAWIMUSA,2283,42342.340;2283,42342.339998949,00000077,64185,-20,437,0,0,-914*eca69d2c
%RAWIMUSA,2283,42342.350;2283,42342.349998949,00000077,64186,41,442,18,-8,978*0bae3545
%RAWIMUSA,2283,42342.360;2283,42342.359998949,00000077,64193,14,479,18,0,932*23346c9c
%RAWIMUSA,2283,42342.370;2283,42342.369998949,00000077,64183,4,461,-18,8,-438*3ae20aa4
%RAWIMUSA,2283,42342.380;2283,42342.379998949,00000077,64184,29,421,-9,8,-1005*f1cc9210
%RAWIMUSA,2283,42342.390;2283,42342.389998949,00000077,64193,1,447,18,-9,54*f590344c
%RAWIMUSA,2283,42342.400;2283,42342.399998949,00000077,64181,56,484,18,-8,923*27a35fb7
%RAWIMUSA,2283,42342.410;2283,42342.409998949,00000077,64191,-24,458,0,9,512*c541fc62
%RAWIMUSA,2283,42342.420;2283,42342.419998949,00000077,64182,43,416,-18,8,-969*99d2186d
%RAWIMUSA,2283,42342.430;2283,42342.429998949,00000077,64193,6,448,0,-9,-960*350d6607
%RAWIMUSA,2283,42342.440;2283,42342.439998949,00000077,64181,32,487,18,0,969*44b1dfd9
%RAWIMUSA,2283,42342.450;2283,42342.449998949,00000077,64186,13,460,18,-8,932*4c81d007
%RAWIMUSA,2283,42342.460;2283,42342.459998949,00000077,64193,4,418,-18,8,-383*d11221ea
%RAWIMUSA,2283,42342.470;2283,42342.469998949,00000077,64179,48,450,-9,8,-1014*f5a0c77f
%RAWIMUSA,2283,42342.480;2283,42342.479998949,00000077,64194,-10,487,18,-9,0*afc20b20
%RAWIMUSA,2283,42342.490;2283,42342.489998949,00000077,64179,43,464,28,-8,941*35b4272c
%RAWIMUSA,2283,42342.500;2283,42342.499998949,00000077,64188,-14,418,-8,9,548*1ce9cb95
%RAWIMUSA,2283,42342.510;2283,42342.509998949,00000077,64182,46,446,-9,8,-941*89a58f20
%RAWIMUSA,2283,42342.520;2283,42342.519998949,00000077,64192,17,489,0,0,-987*90a5798e
%RAWIMUSA,2283,42342.530;2283,42342.529998949,00000077,64187,1,462,28,-17,941*a6d82979
%RAWIMUSA,2283,42342.540;2283,42342.539998949,00000077,64182,33,422,9,0,905*1564a79d
%RAWIMUSA,2283,42342.550;2283,42342.549998949,00000077,64196,0,444,-18,8,-338*b118365a
%RAWIMUSA,2283,42342.560;2283,42342.559998949,00000077,64179,55,481,-9,8,-987*70d0ebbb
%RAWIMUSA,2283,42342.570;2283,42342.569998949,00000077,64190,-29,462,18,-18,-73*52cb67b8
%RAWIMUSA,2283,42342.580;2283,42342.579998949,00000077,64182,43,423,18,0,969*9dc87015
%RAWIMUSA,2283,42342.590;2283,42342.589998949,00000077,64187,17,445,0,9,567*ea36d22d
%RAWIMUSA,2283,42342.600;2283,42342.599998949,00000077,64190,11,484,-18,8,-905*4973086b
%RAWIMUSA,2283,42342.610;2283,42342.609998949,00000077,64184,22,460,9,-10,-1005*d015abe4
%RAWIMUSA,2283,42342.620;2283,42342.619998949,00000077,64195,-6,423,18,-8,887*aa640ca8
%RAWIMUSA,2283,42342.630;2283,42342.629998949,00000077,64179,63,447,9,9,914*d69c8b73
%RAWIMUSA,2283,42342.640;2283,42342.639998949,00000077,64189,-24,485,-18,8,-310*d9d8d2c4
%RAWIMUSA,2283,42342.650;2283,42342.649998949,00000077,64182,35,460,-9,0,-950*7e99c60e
%RAWIMUSA,2283,42342.660;2283,42342.659998949,00000077,64190,5,427,18,-9,-173*ea216657
%RAWIMUSA,2283,42342.670;2283,42342.669998949,00000077,64183,32,449,28,0,996*713b76ae
%RAWIMUSA,2283,42342.680;2283,42342.679998949,00000077,64187,19,480,-8,9,603*56213106
%RAWIMUSA,2283,42342.690;2283,42342.689998949,00000077,64193,-9,459,-18,0,-905*0fbe95e1
%RAWIMUSA,2283,42342.700;2283,42342.699998949,00000077,64180,51,425,9,-10,-987*556b4800
%RAWIMUSA,2283,42342.710;2283,42342.709998949,00000077,64195,-5,445,18,0,823*07b311f7
%RAWIMUSA,2283,42342.720;2283,42342.719998949,00000077,64181,44,482,9,0,932*05e2f722
%RAWIMUSA,2283,42342.730;2283,42342.729998949,00000077,64189,-18,460,-9,0,-274*e17c25f4
%RAWIMUSA,2283,42342.740;2283,42342.739998949,00000077,64181,41,429,-9,8,-941*3422c30b
%RAWIMUSA,2283,42342.750;2283,42342.749998949,00000077,64191,25,453,18,-9,-237*dea938eb
%RAWIMUSA,2283,42342.760;2283,42342.759998949,00000077,64188,0,481,18,0,1015*0eeafdcc
%RAWIMUSA,2283,42342.770;2283,42342.769998949,00000077,64179,21,449,-8,0,649*7663d59d
%RAWIMUSA,2283,42342.780;2283,42342.779998949,00000077,64193,4,426,-18,8,-905*eeafa164
%RAWIMUSA,2283,42342.790;2283,42342.789998949,00000077,64181,59,463,9,-10,-987*660d0141
%RAWIMUSA,2283,42342.800;2283,42342.799998949,00000077,64194,-24,488,18,-8,759*b4f53846
%RAWIMUSA,2283,42342.810;2283,42342.809998949,00000077,64181,44,451,9,9,951*27738b1c
%RAWIMUSA,2283,42342.820;2283,42342.819998949,00000077,64191,4,417,-9,8,-246*aabd8b45
%RAWIMUSA,2283,42342.830;2283,42342.829998949,00000077,64182,34,462,-9,0,-914*f4336d09
%RAWIMUSA,2283,42342.840;2283,42342.839998949,00000077,64188,13,487,27,-9,-292*21107f16
%RAWIMUSA,2283,42342.850;2283,42342.849998949,00000077,64187,-6,444,18,0,996*7fc94563
%RAWIMUSA,2283,42342.860;2283,42342.859998949,00000077,64183,50,423,-18,9,704*676dbd83
%RAWIMUSA,2283,42342.870;2283,42342.869998949,00000077,64192,-4,464,-9,0,-905*3b52616f
%RAWIMUSA,2283,42342.880;2283,42342.879998949,00000077,64180,39,480,9,-10,-978*1f4b95d3
%RAWIMUSA,2283,42342.890;2283,42342.889998949,00000077,64187,-19,441,18,-8,685*a560d373
%RAWIMUSA,2283,42342.900;2283,42342.899998949,00000077,64187,52,425,9,9,978*f8465283
%RAWIMUSA,2283,42342.910;2283,42342.909998949,00000077,64188,10,470,-18,8,-191*c101e131
%RAWIMUSA,2283,42342.920;2283,42342.919998949,00000077,64188,0,476,-9,0,-905*10b27e5f
%RAWIMUSA,2283,42342.930;2283,42342.929998949,00000077,64186,31,440,27,-18,-356*9f0426d9
%RAWIMUSA,2283,42342.940;2283,42342.939998949,00000077,64192,13,431,18,9,1024*159fbe20
%RAWIMUSA,2283,42342.950;2283,42342.949998949,00000077,64177,38,464,-8,9,759*2e8792a5
%RAWIMUSA,2283,42342.960;2283,42342.959998949,00000077,64195,-26,474,-18,8,-923*1f59c051
%RAWIMUSA,2283,42342.970;2283,42342.969998949,00000077,64178,62,447,9,-19,-969*8ef61c9b
%RAWIMUSA,2283,42342.980;2283,42342.979998949,00000077,64190,0,428,27,0,612*1669dcfb
%RAWIMUSA,2283,42342.990;2283,42342.989998949,00000077,64187,23,463,0,9,996*2bb175ec
%RAWIMUSA,2283,42343.000;2283,42342.999998949,00000077,64189,11,479,-18,9,-155*29ecc916
%RAWIMUSA,2283,42343.010;2283,42343.009998949,00000077,64191,12,441,-9,-9,-905*1b6ee5d6
%RAWIMUSA,2283,42343.020;2283,42343.019998949,00000077,64181,46,430,27,0,-402*d1ed57af
%RAWIMUSA,2283,42343.030;2283,42343.029998949,00000077,64195,-16,464,18,0,1024*02648c72
%RAWIMUSA,2283,42343.040;2283,42343.039998949,00000077,64177,46,475,-18,9,823*a9aa488b
%RAWIMUSA,2283,42343.050;2283,42343.049998949,00000077,64192,-11,442,-9,0,-941*32396c52
%RAWIMUSA,2283,42343.060;2283,42343.059998949,00000077,64184,49,433,9,-10,-950*5f2a28d4
%RAWIMUSA,2283,42343.070;2283,42343.069998949,00000077,64190,0,467,18,-8,557*7d44dd88
%RAWIMUSA,2283,42343.080;2283,42343.079998949,00000077,64184,18,468,9,9,996*ffa50cc1
%RAWIMUSA,2283,42343.090;2283,42343.089998949,00000077,64183,29,443,-18,9,-109*ccecbf9d
%RAWIMUSA,2283,42343.100;2283,42343.099998949,00000077,64193,5,443,0,0,-905*aa5b2276
%RAWIMUSA,2283,42343.110;2283,42343.109998949,00000077,64181,38,467,18,-9,-447*c027f004
%RAWIMUSA,2283,42343.120;2283,42343.119998949,00000077,64193,-17,463,18,0,996*5d31907b
%RAWIMUSA,2283,42343.130;2283,42343.129998949,00000077,64180,57,446,-18,0,887*b6aa6c0a
%RAWIMUSA,2283,42343.140;2283,42343.139998949,00000077,64192,-12,443,-18,8,-941*4e70ed87
%RAWIMUSA,2283,42343.150;2283,42343.149998949,00000077,64183,36,460,18,-9,-932*b7921990
%RAWIMUSA,2283,42343.160;2283,42343.159998949,00000077,64187,8,464,18,0,493*8d863688
%RAWIMUSA,2283,42343.170;2283,42343.169998949,00000077,64190,11,445,0,9,1005*6c5a5b97
%RAWIMUSA,2283,42343.180;2283,42343.179998949,00000077,64181,41,443,-9,0,-73*49170049
%RAWIMUSA,2283,42343.190;2283,42343.189998949,00000077,64193,-12,461,-9,-9,-905*64840ec0
%RAWIMUSA,2283,42343.200;2283,42343.199998949,00000077,64179,54,463,27,-9,-493*c141654f
%RAWIMUSA,2283,42343.210;2283,42343.209998949,00000077,64191,-16,445,9,9,978*cd1f8f4e
%RAWIMUSA,2283,42343.220;2283,42343.219998949,00000077,64185,45,445,-8,9,960*206e9e9b
%RAWIMUSA,2283,42343.230;2283,42343.229998949,00000077,64189,5,461,-18,0,-969*c82d7ed6
%RAWIMUSA,2283,42343.240;2283,42343.239998949,00000077,64183,14,461,18,-9,-914*5d5a3040
%RAWIMUSA,2283,42343.250;2283,42343.249998949,00000077,64186,28,446,18,-8,420*1db6ad76
%RAWIMUSA,2283,42343.260;2283,42343.259998949,00000077,64194,2,444,0,19,1024*56866f6d
%RAWIMUSA,2283,42343.270;2283,42343.269998949,00000077,64179,46,459,-9,0,-9*9451e07f
%RAWIMUSA,2283,42343.280;2283,42343.279998949,00000077,64191,-18,462,0,0,-914*ee03b27b
%RAWIMUSA,2283,42343.290;2283,42343.289998949,00000077,64181,51,445,18,-18,-530*cb4ba6a8
%RAWIMUSA,2283,42343.300;2283,42343.299998949,00000077,64193,-2,449,18,9,960*366ece8f
%RAWIMUSA,2283,42343.310;2283,42343.309998949,00000077,64184,30,463,-18,9,987*15a7a32b
%RAWIMUSA,2283,42343.320;2283,42343.319998949,00000077,64189,11,458,-9,0,-941*24a274ae
%RAWIMUSA,2283,42343.330;2283,42343.329998949,00000077,64185,10,443,18,-9,-895*27a331a7
%RAWIMUSA,2283,42343.340;2283,42343.339998949,00000077,64183,42,449,18,0,365*b6da9720
%RAWIMUSA,2283,42343.350;2283,42343.349998949,00000077,64193,-16,462,0,9,1015*db05ece1
%RAWIMUSA,2283,42343.360;2283,42343.359998949,00000077,64184,51,462,-18,0,45*300a0ee4
%RAWIMUSA,2283,42343.370;2283,42343.369998949,00000077,64193,-8,443,0,-9,-932*00e28b04
%RAWIMUSA,2283,42343.380;2283,42343.379998949,00000077,64183,45,448,18,0,-575*24b1038f
%RAWIMUSA,2283,42343.390;2283,42343.389998949,00000077,64187,-2,462,18,0,941*afdc501a
%RAWIMUSA,2283,42343.400;2283,42343.399998949,00000077,64181,24,455,-18,19,996*738252e7
%RAWIMUSA,2283,42343.410;2283,42343.409998949,00000077,64190,25,446,-9,-9,-895*4da9ae65
%RAWIMUSA,2283,42343.420;2283,42343.419998949,00000077,64189,4,457,18,0,-886*3bd57622
%RAWIMUSA,2283,42343.430;2283,42343.429998949,00000077,64178,44,462,18,-9,301*b970a38a
%RAWIMUSA,2283,42343.440;2283,42343.439998949,00000077,64197,-17,448,0,9,1005*66d7001e
%RAWIMUSA,2283,42343.450;2283,42343.449998949,00000077,64182,56,444,-18,9,109*7353d20d
%RAWIMUSA,2283,42343.460;2283,42343.459998949,00000077,64189,-11,457,0,-9,-941*ba811833
%RAWIMUSA,2283,42343.470;2283,42343.469998949,00000077,64186,34,465,27,-9,-603*f7da902f
%RAWIMUSA,2283,42343.480;2283,42343.479998949,00000077,64190,13,451,9,9,914*cd7b5ce7
%RAWIMUSA,2283,42343.490;2283,42343.489998949,00000077,64183,13,439,-8,9,1024*b5d871af
%RAWIMUSA,2283,42343.500;2283,42343.499998949,00000077,64178,38,450,-18,-9,-850*da2f0ce9
%RAWIMUSA,2283,42343.510;2283,42343.509998949,00000077,64197,-17,472,18,-9,-914*4553053f
%RAWIMUSA,2283,42343.520;2283,42343.519998949,00000077,64181,54,463,27,0,274*7a378bcd
%RAWIMUSA,2283,42343.530;2283,42343.529998949,00000077,64188,-5,425,-8,9,987*2e9b98ad
%RAWIMUSA,2283,42343.540;2283,42343.539998949,00000077,64182,40,435,-18,9,192*217b00d1
%RAWIMUSA,2283,42343.550;2283,42343.549998949,00000077,64195,-7,483,0,-9,-960*5d0669ec
%RAWIMUSA,2283,42343.560;2283,42343.559998949,00000077,64187,36,475,27,-9,-639*f6b9a4b3
%RAWIMUSA,2283,42343.570;2283,42343.569998949,00000077,64183,20,426,9,0,923*bda37e13
%RAWIMUSA,2283,42343.580;2283,42343.579998949,00000077,64187,9,427,-18,19,1015*eead0696
%RAWIMUSA,2283,42343.590;2283,42343.589998949,00000077,64178,39,483,-9,-9,-804*a1ebf106
%RAWIMUSA,2283,42343.600;2283,42343.599998949,00000077,64195,-12,480,18,0,-905*72e3a72b
%RAWIMUSA,2283,42343.610;2283,42343.609998949,00000077,64180,55,429,18,-9,237*e80db589
%RAWIMUSA,2283,42343.620;2283,42343.619998949,00000077,64194,-8,427,-8,19,987*170a18d4
%RAWIMUSA,2283,42343.630;2283,42343.629998949,00000077,64183,40,480,-8,0,246*bf6b6e88
%RAWIMUSA,2283,42343.640;2283,42343.639998949,00000077,64188,4,480,9,-10,-969*886ad5e1
%RAWIMUSA,2283,42343.650;2283,42343.649998949,00000077,64186,24,430,18,-9,-685*78e76f78
%RAWIMUSA,2283,42343.660;2283,42343.659998949,00000077,64187,24,430,9,19,932*7ca8e79d
%RAWIMUSA,2283,42343.670;2283,42343.669998949,00000077,64192,6,474,-18,9,1005*db7f708f
%RAWIMUSA,2283,42343.680;2283,42343.679998949,00000077,64179,40,479,-9,-19,-731*977785a2
%RAWIMUSA,2283,42343.690;2283,42343.689998949,00000077,64196,-15,434,18,-9,-905*3cbc7994
%RAWIMUSA,2283,42343.700;2283,42343.699998949,00000077,64183,53,430,27,9,182*44201116
%RAWIMUSA,2283,42343.710;2283,42343.709998949,00000077,64192,-6,471,-18,9,978*9c60769b
%RAWIMUSA,2283,42343.720;2283,42343.719998949,00000077,64182,41,475,-8,0,292*3da95571
%RAWIMUSA,2283,42343.730;2283,42343.729998949,00000077,64191,0,434,9,-10,-978*4da58c99
%RAWIMUSA,2283,42343.740;2283,42343.739998949,00000077,64187,25,432,18,0,-731*7931c911
%RAWIMUSA,2283,42343.750;2283,42343.749998949,00000077,64184,33,472,9,9,905*ae97ed69
%RAWIMUSA,2283,42343.760;2283,42343.759998949,00000077,64192,-6,473,-18,9,1024*3e9a33f2
%RAWIMUSA,2283,42343.770;2283,42343.769998949,00000077,64181,45,437,-9,-18,-685*5db5c6c3
%RAWIMUSA,2283,42343.780;2283,42343.779998949,00000077,64197,-10,436,27,0,-923*51942190
%RAWIMUSA,2283,42343.790;2283,42343.789998949,00000077,64182,55,473,18,9,146*5ef0d895
%RAWIMUSA,2283,42343.800;2283,42343.799998949,00000077,64189,-12,474,-8,0,960*a8e3e153
%RAWIMUSA,2283,42343.810;2283,42343.809998949,00000077,64186,24,436,-18,0,356*1b9bcf1b
%RAWIMUSA,2283,42343.820;2283,42343.819998949,00000077,64186,22,431,9,-10,-987*bda5612c
%RAWIMUSA,2283,42343.830;2283,42343.829998949,00000077,64191,10,469,18,0,-767*b0f65593
%RAWIMUSA,2283,42343.840;2283,42343.839998949,00000077,64176,36,479,9,9,914*5413e88c
%RAWIMUSA,2283,42343.850;2283,42343.849998949,00000077,64195,-21,442,-18,0,1015*6703fbd0
%RAWIMUSA,2283,42343.860;2283,42343.859998949,00000077,64183,62,429,0,0,-630*49175fcb
%RAWIMUSA,2283,42343.870;2283,42343.869998949,00000077,64189,-12,462,18,-10,-941*2e85137a
%RAWIMUSA,2283,42343.880;2283,42343.879998949,00000077,64185,33,477,18,9,109*d6fa7c4f
%RAWIMUSA,2283,42343.890;2283,42343.889998949,00000077,64194,11,452,-8,0,923*99e75046
%RAWIMUSA,2283,42343.900;2283,42343.899998949,00000077,64182,19,431,-18,0,448*fd8372dc
%RAWIMUSA,2283,42343.910;2283,42343.909998949,00000077,64183,33,448,9,-10,-1005*c404e48e
%RAWIMUSA,2283,42343.920;2283,42343.919998949,00000077,64198,-9,475,27,8,-831*80b65348
%RAWIMUSA,2283,42343.930;2283,42343.929998949,00000077,64178,46,456,0,0,923*860f02b2
%RAWIMUSA,2283,42343.940;2283,42343.939998949,00000077,64192,-10,433,-8,0,987*6bd08fb0
%RAWIMUSA,2283,42343.950;2283,42343.949998949,00000077,64180,49,448,-9,-9,-530*dddc0d07
%RAWIMUSA,2283,42343.960;2283,42343.959998949,00000077,64189,-7,470,18,0,-969*023de41d
%RAWIMUSA,2283,42343.970;2283,42343.969998949,00000077,64183,23,459,18,0,73*bdd45be3
%RAWIMUSA,2283,42343.980;2283,42343.979998949,00000077,64187,30,437,-8,9,932*dac16411
%RAWIMUSA,2283,42343.990;2283,42343.989998949,00000077,64191,1,446,-18,0,503*7884d886
%RAWIMUSA,2283,42344.000;2283,42343.999998949,00000077,64179,41,470,18,-10,-996*0e86365f
%RAWIMUSA,2283,42344.010;2283,42344.009998949,00000077,64194,-16,457,18,0,-895*98ec5e0c
%RAWIMUSA,2283,42344.020;2283,42344.019998949,00000077,64178,51,439,0,9,941*cc647452
%RAWIMUSA,2283,42344.030;2283,42344.029998949,00000077,64193,-2,451,-8,0,969*0aa7446b
%RAWIMUSA,2283,42344.040;2283,42344.039998949,00000077,64183,37,471,-9,-9,-484*35d18d22
%RAWIMUSA,2283,42344.050;2283,42344.049998949,00000077,64191,4,457,27,-10,-969*5d35f17c
%RAWIMUSA,2283,42344.060;2283,42344.059998949,00000077,64186,25,437,18,18,45*5c48eb4e
%RAWIMUSA,2283,42344.070;2283,42344.069998949,00000077,64184,30,453,-18,0,914*5a4a5fea
%RAWIMUSA,2283,42344.080;2283,42344.079998949,00000077,64192,-7,466,-8,0,548*9ea8a36b
%RAWIMUSA,2283,42344.090;2283,42344.089998949,00000077,64178,45,455,9,-19,-996*35824b18
%RAWIMUSA,2283,42344.100;2283,42344.099998949,00000077,64193,-11,441,27,8,-923*fd382ba2
%RAWIMUSA,2283,42344.110;2283,42344.109998949,00000077,64183,48,455,0,9,932*36084cb4
%RAWIMUSA,2283,42344.120;2283,42344.119998949,00000077,64188,-6,463,-18,0,960*38ecb578
%RAWIMUSA,2283,42344.130;2283,42344.129998949,00000077,64181,29,447,0,-9,-402*d91b30ab
%RAWIMUSA,2283,42344.140;2283,42344.139998949,00000077,64190,22,445,27,-10,-1005*2a19d455
%RAWIMUSA,2283,42344.150;2283,42344.149998949,00000077,64192,6,463,18,9,9*0caa5369
%RAWIMUSA,2283,42344.160;2283,42344.159998949,00000077,64178,43,459,-18,9,905*953699ee
%RAWIMUSA,2283,42344.170;2283,42344.169998949,00000077,64191,-19,444,-18,-8,594*d99949e7
%RAWIMUSA,2283,42344.180;2283,42344.179998949,00000077,64183,53,447,18,0,-978*5d2ad946
%RAWIMUSA,2283,42344.190;2283,42344.189998948,00000077,64190,-14,460,18,0,-941*6867f067
%RAWIMUSA,2283,42344.200;2283,42344.199998948,00000077,64184,41,458,0,9,896*0953bae4
%RAWIMUSA,2283,42344.210;2283,42344.209998948,00000077,64189,10,447,-8,-8,923*58702c53
%RAWIMUSA,2283,42344.220;2283,42344.219998948,00000077,64184,9,446,-9,8,-329*71f67e11
%RAWIMUSA,2283,42344.230;2283,42344.229998948,00000077,64184,33,460,27,-10,-1005*03b61108
%RAWIMUSA,2283,42344.240;2283,42344.239998948,00000077,64194,-5,456,18,9,-54*bf47fdb0
%RAWIMUSA,2283,42344.250;2283,42344.249998948,00000077,64179,49,448,-18,0,914*1e08f64f
%RAWIMUSA,2283,42344.260;2283,42344.259998948,00000077,64190,-21,448,-18,-8,631*e8cc1cd0
%RAWIMUSA,2283,42344.270;2283,42344.269998948,00000077,64181,49,455,27,0,-960*dc1b3a28
%RAWIMUSA,2283,42344.280;2283,42344.279998948,00000077,64191,6,457,18,8,-960*80f11ca8
%RAWIMUSA,2283,42344.290;2283,42344.289998948,00000077,64184,18,450,0,0,850*99972be3
%RAWIMUSA,2283,42344.300;2283,42344.299998948,00000077,64183,20,453,-18,-8,923*3b722739
%RAWIMUSA,2283,42344.310;2283,42344.309998948,00000077,64195,12,464,0,0,-274*869cad9d
%RAWIMUSA,2283,42344.320;2283,42344.319998948,00000077,64180,46,457,18,0,-1005*04f9dd34
%RAWIMUSA,2283,42344.330;2283,42344.329998948,00000077,64193,-16,440,18,9,-109*95d4bdca
%RAWIMUSA,2283,42344.340;2283,42344.339998948,00000077,64181,49,448,-8,0,923*02503e29
%RAWIMUSA,2283,42344.350;2283,42344.349998948,00000077,64190,-5,466,-18,-8,685*725b66fa
%RAWIMUSA,2283,42344.360;2283,42344.359998948,00000077,64181,45,459,18,0,-950*a549fc4f
%RAWIMUSA,2283,42344.370;2283,42344.369998948,00000077,64188,-4,439,27,0,-978*e42f6dab
%RAWIMUSA,2283,42344.380;2283,42344.379998948,00000077,64190,18,446,-8,18,813*c1bd0145
%RAWIMUSA,2283,42344.390;2283,42344.389998948,00000077,64184,36,467,-18,-8,905*78f107f3
%RAWIMUSA,2283,42344.400;2283,42344.399998948,00000077,64197,-5,457,9,0,-219*cb7650c7
%RAWIMUSA,2283,42344.410;2283,42344.409998948,00000077,64177,45,440,18,-10,-996*9ecd71ff
%RAWIMUSA,2283,42344.420;2283,42344.419998948,00000077,64189,-20,451,18,8,-182*2c2ee733
%RAWIMUSA,2283,42344.430;2283,42344.429998948,00000077,64183,57,469,-18,0,960*a07cf5ec
%RAWIMUSA,2283,42344.440;2283,42344.439998948,00000077,64192,-2,450,-18,0,713*af34513a
%RAWIMUSA,2283,42344.450;2283,42344.449998948,00000077,64184,22,436,27,0,-932*c1418745
%RAWIMUSA,2283,42344.460;2283,42344.459998948,00000077,64184,20,453,18,0,-996*23c27afb
%RAWIMUSA,2283,42344.470;2283,42344.469998948,00000077,64191,6,472,-8,0,777*de20ebd6
%RAWIMUSA,2283,42344.480;2283,42344.479998948,00000077,64179,46,454,-18,0,905*ae62ba43
%RAWIMUSA,2283,42344.490;2283,42344.489998948,00000077,64195,-21,438,9,0,-173*009a0add
%RAWIMUSA,2283,42344.500;2283,42344.499998948,00000077,64181,57,455,18,0,-969*253c5cf9
%RAWIMUSA,2283,42344.510;2283,42344.509998948,00000077,64189,-5,467,18,0,-255*11c04984
%RAWIMUSA,2283,42344.520;2283,42344.519998948,00000077,64181,31,455,-18,0,987*549d5b8d
%RAWIMUSA,2283,42344.530;2283,42344.529998948,00000077,64186,15,439,-8,0,722*5351923e
%RAWIMUSA,2283,42344.540;2283,42344.539998948,00000077,64192,10,451,18,0,-905*27cf25a0
%RAWIMUSA,2283,42344.550;2283,42344.549998948,00000077,64180,38,468,18,8,-1005*7591b430
%RAWIMUSA,2283,42344.560;2283,42344.559998948,00000077,64193,-10,456,0,0,713*e844defe
%RAWIMUSA,2283,42344.570;2283,42344.569998948,00000077,64181,52,440,-18,-8,923*482a1248
%RAWIMUSA,2283,42344.580;2283,42344.579998948,00000077,64191,-12,453,9,0,-146*7af3464f
%RAWIMUSA,2283,42344.590;2283,42344.589998948,00000077,64184,37,460,18,8,-950*84006c75
%RAWIMUSA,2283,42344.600;2283,42344.599998948,00000077,64194,5,453,9,0,-338*d135a15e
%RAWIMUSA,2283,42344.610;2283,42344.609998948,00000077,64186,22,447,-18,0,1015*528292d3
%RAWIMUSA,2283,42344.620;2283,42344.619998948,00000077,64182,28,452,-8,-8,759*a5b6d39b
%RAWIMUSA,2283,42344.630;2283,42344.629998948,00000077,64195,-9,457,18,0,-895*4d9bc62c
%RAWIMUSA,2283,42344.640;2283,42344.639998948,00000077,64186,51,460,18,8,-996*413103e4
%RAWIMUSA,2283,42344.650;2283,42344.649998948,00000077,64185,-13,447,-8,9,649*e7c06c70
%RAWIMUSA,2283,42344.660;2283,42344.659998948,00000077,64185,51,444,-8,-8,941*f9d2ab2f
%RAWIMUSA,2283,42344.670;2283,42344.669998948,00000077,64191,-11,469,9,-18,-118*43f076d8
%RAWIMUSA,2283,42344.680;2283,42344.679998948,00000077,64180,29,461,18,17,-932*d5acd7ce
%RAWIMUSA,2283,42344.690;2283,42344.689998948,00000077,64195,21,439,9,8,-402*ffa4a738
%RAWIMUSA,2283,42344.700;2283,42344.699998948,00000077,64187,9,448,-18,-8,1015*b8ae1e8e
%RAWIMUSA,2283,42344.710;2283,42344.709998948,00000077,64177,33,466,-8,-17,813*f9111b11
%RAWIMUSA,2283,42344.720;2283,42344.719998948,00000077,64193,-14,455,27,8,-905*8ef6f8b7
%RAWIMUSA,2283,42344.730;2283,42344.729998948,00000077,64182,59,443,18,8,-987*2a19e96d
%RAWIMUSA,2283,42344.740;2283,42344.739998948,00000077,64193,-15,454,-8,9,585*66dc0197
%RAWIMUSA,2283,42344.750;2283,42344.749998948,00000077,64182,35,463,-18,-8,978*d4f53a12
%RAWIMUSA,2283,42344.760;2283,42344.759998948,00000077,64187,11,456,9,-18,-100*71651859
%RAWIMUSA,2283,42344.770;2283,42344.769998948,00000077,64187,15,445,27,8,-914*477becaf
%RAWIMUSA,2283,42344.780;2283,42344.779998948,00000077,64183,33,451,0,8,-475*7da8c018
%RAWIMUSA,2283,42344.790;2283,42344.789998948,00000077,64197,-15,457,-18,0,1015*6dfe872e
%RAWIMUSA,2283,42344.800;2283,42344.799998948,00000077,64181,62,455,0,-8,877*daf35022
%RAWIMUSA,2283,42344.810;2283,42344.809998948,00000077,64191,-12,449,18,0,-941*be87f77e
%RAWIMUSA,2283,42344.820;2283,42344.819998948,00000077,64183,35,453,18,0,-950*e36239cd
%RAWIMUSA,2283,42344.830;2283,42344.829998948,00000077,64192,5,460,-8,9,503*80dc3fcb
%RAWIMUSA,2283,42344.840;2283,42344.839998948,00000077,64187,22,458,-8,0,1005*e5841dac
%RAWIMUSA,2283,42344.850;2283,42344.849998948,00000077,64183,32,445,9,-18,-73*29725378
%RAWIMUSA,2283,42344.860;2283,42344.859998948,00000077,64192,-8,451,18,8,-905*00d401b4
%RAWIMUSA,2283,42344.870;2283,42344.869998948,00000077,64176,53,463,0,8,-511*72950c98
%RAWIMUSA,2283,42344.880;2283,42344.879998948,00000077,64194,-12,454,-8,0,987*ff16ca61
%RAWIMUSA,2283,42344.890;2283,42344.889998948,00000077,64181,45,447,-8,-8,951*e70b0b0e
%RAWIMUSA,2283,42344.900;2283,42344.899998948,00000077,64192,-4,450,27,0,-960*d50ff30a
%RAWIMUSA,2283,42344.910;2283,42344.909998948,00000077,64183,32,461,18,8,-932*3f54dd20
%RAWIMUSA,2283,42344.920;2283,42344.919998948,00000077,64186,15,455,-8,0,429*0fe2face
%RAWIMUSA,2283,42344.930;2283,42344.929998948,00000077,64193,3,443,-18,0,1024*ce85eca4
%RAWIMUSA,2283,42344.940;2283,42344.939998948,00000077,64179,52,452,18,-9,-18*d979f023
%RAWIMUSA,2283,42344.950;2283,42344.949998948,00000077,64196,-22,464,18,8,-905*acf7cfff
%RAWIMUSA,2283,42344.960;2283,42344.959998948,00000077,64180,50,453,0,8,-530*dc159a2c
%RAWIMUSA,2283,42344.970;2283,42344.969998948,00000077,64192,-6,446,-8,-8,951*ec2d84f5
%RAWIMUSA,2283,42344.980;2283,42344.979998948,00000077,64184,34,450,-8,-8,996*907388f9
%RAWIMUSA,2283,42344.990;2283,42344.989998948,00000077,64189,19,461,27,0,-932*c9642808
%RAWIMUSA,2283,42345.000;2283,42344.999998948,00000077,64188,3,455,18,8,-896*6e145aac
%RAWIMUSA,2283,42345.010;2283,42345.009998948,00000077,64181,47,444,-18,0,356*4f75139b
%RAWIMUSA,2283,42345.020;2283,42345.019998948,00000077,64196,-7,447,-8,0,1015*12cd36a1
%RAWIMUSA,2283,42345.030;2283,42345.029998948,00000077,64178,47,462,9,-9,45*2718b25f
%RAWIMUSA,2283,42345.040;2283,42345.039998948,00000077,64190,-16,458,18,8,-941*524072aa
%RAWIMUSA,2283,42345.050;2283,42345.049998948,00000077,64186,43,446,9,8,-566*dbeb1458
%RAWIMUSA,2283,42345.060;2283,42345.059998948,00000077,64191,8,452,-18,-8,941*1fb50a1e
%RAWIMUSA,2283,42345.070;2283,42345.069998948,00000077,64185,14,459,0,-8,1015*096814f4
%RAWIMUSA,2283,42345.080;2283,42345.079998948,00000077,64183,27,461,18,0,-895*0175c165
%RAWIMUSA,2283,42345.090;2283,42345.089998948,00000077,64196,-2,449,18,17,-905*d0f3d309
%RAWIMUSA,2283,42345.100;2283,42345.099998948,00000077,64178,52,449,-18,-8,320*0224e652
%RAWIMUSA,2283,42345.110;2283,42345.109998948,00000077,64193,-15,452,-8,0,996*3223bd79
%RAWIMUSA,2283,42345.120;2283,42345.119998948,00000077,64183,48,457,18,-9,118*a09acac0
%RAWIMUSA,2283,42345.130;2283,42345.129998948,00000077,64189,-8,460,18,8,-950*f85a0bd5
%RAWIMUSA,2283,42345.140;2283,42345.139998948,00000077,64186,35,452,0,0,-612*7717e670
%RAWIMUSA,2283,42345.150;2283,42345.149998948,00000077,64189,12,451,-8,-8,914*a60228a2
%RAWIMUSA,2283,42345.160;2283,42345.159998948,00000077,64192,5,452,-8,-8,1015*ea1db296
%RAWIMUSA,2283,42345.170;2283,42345.169998948,00000077,64179,45,459,27,8,-841*a7b8f934
%RAWIMUSA,2283,42345.180;2283,42345.179998948,00000077,64193,-15,453,9,8,-905*68f33855
%RAWIMUSA,2283,42345.190;2283,42345.189998948,00000077,64179,49,449,-8,0,274*aa892b2d
%RAWIMUSA,2283,42345.200;2283,42345.199998948,00000077,64192,-14,450,-8,-8,987*854a6ea9
%RAWIMUSA,2283,42345.210;2283,42345.209998948,00000077,64184,44,459,9,0,201*bb96b992
%RAWIMUSA,2283,42345.220;2283,42345.219998948,00000077,64190,16,456,27,0,-978*19bcb807
%RAWIMUSA,2283,42345.230;2283,42345.229998948,00000077,64187,3,447,-9,8,-621*e7502e5d
