%RAWIMUSA,2283,32099.230;2283,32099.230001975,00000077,-492,145,64170,18,-8,941*630559db
%RAWIMUSA,2283,32099.240;2283,32099.240001975,00000077,-500,143,64172,-18,-18,-438*8ab6903a
%RAWIMUSA,2283,32099.250;2283,32099.250001975,00000077,-497,139,64171,-27,8,-932*b92bfd33
%RAWIMUSA,2283,32099.260;2283,32099.260001975,00000077,-493,147,64168,0,18,-36*24ea93bc
%RAWIMUSA,2283,32099.270;2283,32099.270001975,00000077,-495,142,64171,9,0,923*9e7990c1
%RAWIMUSA,2283,32099.280;2283,32099.280001975,00000077,-496,138,64171,0,-27,521*f88628c5
%RAWIMUSA,2283,32099.290;2283,32099.290001975,00000077,-497,141,64169,-27,8,-923*08365838
%RAWIMUSA,2283,32099.300;2283,32099.300001975,00000077,-496,144,64170,-18,17,-923*4b78eaaa
%RAWIMUSA,2283,32099.310;2283,32099.310001975,00000077,-495,148,64169,18,0,859*d167ef2d
%RAWIMUSA,2283,32099.320;2283,32099.320001975,00000077,-498,141,64174,9,-17,923*7eebaf99
%RAWIMUSA,2283,32099.330;2283,32099.330001975,00000077,-496,138,64173,-18,-9,-383*5f9f8cb3
%RAWIMUSA,2283,32099.340;2283,32099.340001975,00000077,-492,143,64169,-18,17,-914*78281d81
%RAWIMUSA,2283,32099.350;2283,32099.350001975,00000077,-494,146,64171,0,9,-73*094a6a28
%RAWIMUSA,2283,32099.360;2283,32099.360001975,00000077,-498,142,64172,0,-17,932*8ca5d939
%RAWIMUSA,2283,32099.370;2283,32099.370001975,00000077,-495,140,64172,0,-8,576*c5c099c5
%RAWIMUSA,2283,32099.380;2283,32099.380001975,00000077,-494,143,64168,-27,17,-932*07fc134d
%RAWIMUSA,2283,32099.390;2283,32099.390001975,00000077,-493,143,64168,-9,8,-923*530e8793
%RAWIMUSA,2283,32099.400;2283,32099.400001975,00000077,-501,142,64176,9,-17,804*dec4b77b
%RAWIMUSA,2283,32099.410;2283,32099.410001975,00000077,-499,139,64174,9,-8,932*59d3e96d
%RAWIMUSA,2283,32099.420;2283,32099.420001975,00000077,-491,144,64166,-18,8,-338*a7a9f48b
%RAWIMUSA,2283,32099.430;2283,32099.430001975,00000077,-497,145,64170,-18,8,-914*33623698
%RAWIMUSA,2283,32099.440;2283,32099.440001975,00000077,-498,139,64173,0,-9,-137*ad50bb66
%RAWIMUSA,2283,32099.450;2283,32099.450001975,00000077,-497,144,64172,9,-8,932*0405ed05
%RAWIMUSA,2283,32099.460;2283,32099.460001975,00000077,-491,143,64168,0,9,631*34918bfc
%RAWIMUSA,2283,32099.470;2283,32099.470001975,00000077,-498,144,64171,-27,8,-923*f9b8d9ff
%RAWIMUSA,2283,32099.480;2283,32099.480001975,00000077,-501,141,64171,-18,-9,-932*6f0de9e2
%RAWIMUSA,2283,32099.490;2283,32099.490001975,00000077,-494,142,64171,9,0,759*946297f3
%RAWIMUSA,2283,32099.500;2283,32099.500001975,00000077,-489,145,64168,9,0,923*729e0139
%RAWIMUSA,2283,32099.510;2283,32099.510001975,00000077,-498,142,64171,-18,0,-274*7be26d9a
%RAWIMUSA,2283,32099.520;2283,32099.520001975,00000077,-501,141,64172,-27,-9,-923*116acb97
%RAWIMUSA,2283,32099.530;2283,32099.530001975,00000077,-495,144,64172,9,8,-191*34f6e173
%RAWIMUSA,2283,32099.540;2283,32099.540001975,00000077,-497,149,64167,9,9,932*224ba6e5
%RAWIMUSA,2283,32099.550;2283,32099.550001975,00000077,-494,137,64171,-8,-8,667*f9fe3d37
%RAWIMUSA,2283,32099.560;2283,32099.560001975,00000077,-490,139,64176,-18,-9,-923*b689bd8b
%RAWIMUSA,2283,32099.570;2283,32099.570001975,00000077,-503,144,64173,-18,17,-923*249f62c7
%RAWIMUSA,2283,32099.580;2283,32099.580001975,00000077,-498,145,64166,9,9,713*95656233
%RAWIMUSA,2283,32099.590;2283,32099.590001975,00000077,-494,141,64172,9,-17,932*3eba24f8
%RAWIMUSA,2283,32099.600;2283,32099.600001975,00000077,-494,140,64175,-18,-9,-237*cddc314f
%RAWIMUSA,2283,32099.610;2283,32099.610001975,00000077,-501,145,64171,-27,17,-932*cfc29156
%RAWIMUSA,2283,32099.620;2283,32099.620001975,00000077,-502,142,64167,0,8,-246*de01e49d
%RAWIMUSA,2283,32099.630;2283,32099.630001975,00000077,-491,137,64173,18,-17,932*634e91d7
%RAWIMUSA,2283,32099.640;2283,32099.640001975,00000077,-488,140,64170,-8,0,731*698ac9fb
%RAWIMUSA,2283,32099.650;2283,32099.650001975,00000077,-501,149,64169,-27,8,-932*9670bf5b
%RAWIMUSA,2283,32099.660;2283,32099.660001975,00000077,-503,144,64172,-9,8,-914*e697972c
%RAWIMUSA,2283,32099.670;2283,32099.670001975,00000077,-490,139,64172,9,-8,667*52fb998b
%RAWIMUSA,2283,32099.680;2283,32099.680001975,00000077,-487,143,64172,9,0,923*ca1cbe18
%RAWIMUSA,2283,32099.690;2283,32099.690001975,00000077,-504,145,64172,-18,0,-173*25766ad4
%RAWIMUSA,2283,32099.700;2283,32099.700001975,00000077,-505,141,64170,-27,8,-923*8a4041cf
%RAWIMUSA,2283,32099.710;2283,32099.710001975,00000077,-491,137,64171,9,0,-283*1955be31
%RAWIMUSA,2283,32099.720;2283,32099.720001975,00000077,-485,141,64172,9,-8,932*9f92ba5f
%RAWIMUSA,2283,32099.730;2283,32099.730001975,00000077,-500,147,64170,-8,0,768*23541260
%RAWIMUSA,2283,32099.740;2283,32099.740001975,00000077,-506,142,64171,-18,8,-932*7bf9b79c
%RAWIMUSA,2283,32099.750;2283,32099.750001975,00000077,-490,138,64172,-9,8,-914*c0b7db59
%RAWIMUSA,2283,32099.760;2283,32099.760001975,00000077,-492,142,64172,9,-8,603*ff5a0e92
%RAWIMUSA,2283,32099.770;2283,32099.770001975,00000077,-500,145,64172,9,-8,932*c799c95d
%RAWIMUSA,2283,32099.780;2283,32099.780001975,00000077,-502,139,64171,-27,0,-127*a2d9ca2b
%RAWIMUSA,2283,32099.790;2283,32099.790001975,00000077,-491,144,64172,-18,8,-923*4711fd23
%RAWIMUSA,2283,32099.800;2283,32099.800001975,00000077,-492,144,64170,9,0,-329*e8c9b20a
%RAWIMUSA,2283,32099.810;2283,32099.810001975,00000077,-499,139,64169,9,0,923*6173de62
%RAWIMUSA,2283,32099.820;2283,32099.820001975,00000077,-498,142,64170,-8,-8,823*bd5e5f79
%RAWIMUSA,2283,32099.830;2283,32099.830001975,00000077,-491,146,64172,-27,8,-923*b299d1ba
%RAWIMUSA,2283,32099.840;2283,32099.840001975,00000077,-497,144,64171,-9,8,-923*07d7ec87
%RAWIMUSA,2283,32099.850;2283,32099.850001975,00000077,-505,139,64171,9,-8,557*c91dada1
%RAWIMUSA,2283,32099.860;2283,32099.860001975,00000077,-494,139,64171,9,-8,932*eba65179
%RAWIMUSA,2283,32099.870;2283,32099.870001975,00000077,-489,146,64172,-18,0,-73*3ced8e04
%RAWIMUSA,2283,32099.880;2283,32099.880001975,00000077,-496,143,64172,-27,8,-923*4b604ee5
%RAWIMUSA,2283,32099.890;2283,32099.890001975,00000077,-503,142,64172,9,0,-393*40b96faa
%RAWIMUSA,2283,32099.900;2283,32099.900001975,00000077,-497,141,64171,9,0,932*85bd96d6
%RAWIMUSA,2283,32099.910;2283,32099.910001975,00000077,-487,145,64171,-8,-8,887*e6ed3f38
%RAWIMUSA,2283,32099.920;2283,32099.920001975,00000077,-494,142,64172,-27,8,-923*bc083587
%RAWIMUSA,2283,32099.930;2283,32099.930001975,00000077,-506,139,64174,-9,8,-923*b81c9665
%RAWIMUSA,2283,32099.940;2283,32099.940001975,00000077,-496,143,64171,9,-8,512*47822c53
%RAWIMUSA,2283,32099.950;2283,32099.950001975,00000077,-488,142,64167,9,-8,923*03eac3fb
%RAWIMUSA,2283,32099.960;2283,32099.960001975,00000077,-492,143,64170,-27,0,-27*6f71dca8
%RAWIMUSA,2283,32099.970;2283,32099.970001975,00000077,-506,143,64172,-18,8,-932*d3d3b545
%RAWIMUSA,2283,32099.980;2283,32099.980001975,00000077,-499,143,64170,9,0,-438*3452926b
%RAWIMUSA,2283,32099.990;2283,32099.990001975,00000077,-490,141,64172,9,-8,932*c0a03498
%RAWIMUSA,2283,32100.000;2283,32100.000001975,00000077,-492,146,64173,-8,0,923*05512e02
%RAWIMUSA,2283,32100.010;2283,32100.010001975,00000077,-501,141,64174,-27,8,-923*269eef54
%RAWIMUSA,2283,32100.020;2283,32100.020001975,00000077,-501,136,64169,0,0,-923*dc25fd2e
%RAWIMUSA,2283,32100.030;2283,32100.030001975,00000077,-493,144,64171,9,-8,466*aa07de71
%RAWIMUSA,2283,32100.040;2283,32100.040001975,00000077,-492,147,64170,0,-8,932*c1f9005e
%RAWIMUSA,2283,32100.050;2283,32100.050001975,00000077,-498,139,64171,-18,9,27*bf2bbaae
%RAWIMUSA,2283,32100.060;2283,32100.060001975,00000077,-500,146,64172,-27,8,-932*7097cbdf
%RAWIMUSA,2283,32100.070;2283,32100.070001975,00000077,-492,142,64172,9,0,-484*f5373d4a
%RAWIMUSA,2283,32100.080;2283,32100.080001975,00000077,-493,141,64168,9,-8,923*f53dd4da
%RAWIMUSA,2283,32100.090;2283,32100.090001975,00000077,-494,142,64168,-8,0,932*36635b72
%RAWIMUSA,2283,32100.100;2283,32100.100001975,00000077,-500,142,64173,-18,8,-896*93e91298
%RAWIMUSA,2283,32100.110;2283,32100.110001975,00000077,-498,145,64175,-9,0,-923*991a79cc
%RAWIMUSA,2283,32100.120;2283,32100.120001975,00000077,-486,140,64172,18,-8,411*489d4249
%RAWIMUSA,2283,32100.130;2283,32100.130001975,00000077,-492,139,64171,0,0,932*ae574262
%RAWIMUSA,2283,32100.140;2283,32100.140001975,00000077,-501,146,64171,-27,0,73*cf52a061
%RAWIMUSA,2283,32100.150;2283,32100.150001975,00000077,-500,148,64171,-18,8,-923*c58c1233
%RAWIMUSA,2283,32100.160;2283,32100.160001975,00000077,-489,139,64169,9,0,-539*cb2e4cd0
%RAWIMUSA,2283,32100.170;2283,32100.170001975,00000077,-494,140,64171,9,-8,941*e28307c7
%RAWIMUSA,2283,32100.180;2283,32100.180001975,00000077,-504,147,64166,-8,0,923*ddfe8cd4
%RAWIMUSA,2283,32100.190;2283,32100.190001975,00000077,-500,143,64173,-27,8,-832*02e794ab
%RAWIMUSA,2283,32100.200;2283,32100.200001975,00000077,-491,142,64171,0,0,-932*a1e016d1
%RAWIMUSA,2283,32100.210;2283,32100.210001975,00000077,-491,138,64175,9,-8,347*36cf486d
%RAWIMUSA,2283,32100.220;2283,32100.220001975,00000077,-502,147,64172,0,0,941*7ecf953c
%RAWIMUSA,2283,32100.230;2283,32100.230001975,00000077,-500,146,64169,-27,0,118*16182df8
%RAWIMUSA,2283,32100.240;2283,32100.240001975,00000077,-490,139,64170,-18,8,-923*29d210fe
%RAWIMUSA,2283,32100.250;2283,32100.250001975,00000077,-496,139,64170,9,0,-585*2b80a081
%RAWIMUSA,2283,32100.260;2283,32100.260001975,00000077,-502,146,64170,9,-8,932*45fdcf34
%RAWIMUSA,2283,32100.270;2283,32100.270001975,00000077,-500,145,64168,-18,0,923*c5f955ae
%RAWIMUSA,2283,32100.280;2283,32100.280001975,00000077,-489,138,64171,-18,8,-768*c8e95d02
%RAWIMUSA,2283,32100.290;2283,32100.290001975,00000077,-495,139,64169,0,0,-923*1d53b55f
%RAWIMUSA,2283,32100.300;2283,32100.300001975,00000077,-503,143,64173,9,0,301*fc34a6dc
%RAWIMUSA,2283,32100.310;2283,32100.310001975,00000077,-497,147,64172,0,-8,932*6a287f8f
%RAWIMUSA,2283,32100.320;2283,32100.320001975,00000077,-491,142,64168,-27,9,182*861c61b9
%RAWIMUSA,2283,32100.330;2283,32100.330001975,00000077,-490,142,64170,-18,8,-923*fc713b50
%RAWIMUSA,2283,32100.340;2283,32100.340001975,00000077,-504,142,64173,18,0,-649*414726f2
%RAWIMUSA,2283,32100.350;2283,32100.350001975,00000077,-503,144,64173,9,-8,923*5e74be94
%RAWIMUSA,2283,32100.360;2283,32100.360001975,00000077,-488,137,64169,-18,0,932*ecfc7b5a
%RAWIMUSA,2283,32100.370;2283,32100.370001975,00000077,-490,140,64172,-27,8,-731*3feb78e2
%RAWIMUSA,2283,32100.380;2283,32100.380001975,00000077,-504,147,64171,9,0,-932*3a3fbae5
%RAWIMUSA,2283,32100.390;2283,32100.390001975,00000077,-499,144,64169,9,-9,256*ddeb187c
%RAWIMUSA,2283,32100.400;2283,32100.400001975,00000077,-484,142,64171,-8,0,932*2baefdcf
%RAWIMUSA,2283,32100.410;2283,32100.410001975,00000077,-493,141,64171,-18,9,210*a40d495b
%RAWIMUSA,2283,32100.420;2283,32100.420001975,00000077,-505,144,64172,-18,0,-923*bd9aefe2
%RAWIMUSA,2283,32100.430;2283,32100.430001975,00000077,-498,143,64171,9,-9,-685*40f87617
%RAWIMUSA,2283,32100.440;2283,32100.440001975,00000077,-485,145,64169,9,-8,923*ffd1be2d
%RAWIMUSA,2283,32100.450;2283,32100.450001975,00000077,-494,141,64170,-18,9,923*39cbadb0
%RAWIMUSA,2283,32100.460;2283,32100.460001975,00000077,-505,144,64172,-27,8,-667*ee6ae066
%RAWIMUSA,2283,32100.470;2283,32100.470001975,00000077,-499,135,64170,0,0,-932*8805565c
%RAWIMUSA,2283,32100.480;2283,32100.480001975,00000077,-487,146,64170,18,-9,210*38e8ba80
%RAWIMUSA,2283,32100.490;2283,32100.490001976,00000077,-492,147,64174,-8,0,932*f5f3874e
%RAWIMUSA,2283,32100.500;2283,32100.500001976,00000077,-506,138,64173,-27,9,265*bcbad5ab
%RAWIMUSA,2283,32100.510;2283,32100.510001976,00000077,-499,140,64171,-9,8,-914*a72dfae8
%RAWIMUSA,2283,32100.520;2283,32100.520001976,00000077,-487,143,64171,9,-9,-740*f94cddb6
%RAWIMUSA,2283,32100.530;2283,32100.530001976,00000077,-491,148,64173,9,-8,923*800bfceb
%RAWIMUSA,2283,32100.540;2283,32100.540001976,00000077,-508,136,64171,-18,9,932*6a6231aa
%RAWIMUSA,2283,32100.550;2283,32100.550001976,00000077,-499,140,64173,-27,8,-621*3d9c2f3e
%RAWIMUSA,2283,32100.560;2283,32100.560001976,00000077,-487,147,64169,9,-9,-923*e531dc8e
%RAWIMUSA,2283,32100.570;2283,32100.570001976,00000077,-495,143,64171,9,-9,155*6571a692
%RAWIMUSA,2283,32100.580;2283,32100.580001976,00000077,-503,133,64173,-8,9,923*04f6cfcf
%RAWIMUSA,2283,32100.590;2283,32100.590001976,00000077,-499,142,64172,-18,0,329*bbaaff12
%RAWIMUSA,2283,32100.600;2283,32100.600001976,00000077,-483,150,64170,-18,8,-923*6b542ac7
%RAWIMUSA,2283,32100.610;2283,32100.610001976,00000077,-493,143,64169,9,-9,-795*1f866c42
%RAWIMUSA,2283,32100.620;2283,32100.620001976,00000077,-511,138,64173,9,-8,923*760593bf
%RAWIMUSA,2283,32100.630;2283,32100.630001976,00000077,-495,139,64169,-18,9,932*9c282f9e
%RAWIMUSA,2283,32100.640;2283,32100.640001976,00000077,-481,150,64171,-18,8,-575*74fce29c
%RAWIMUSA,2283,32100.650;2283,32100.650001976,00000077,-495,143,64170,0,-9,-923*2e27ac2a
%RAWIMUSA,2283,32100.660;2283,32100.660001976,00000077,-511,136,64171,9,-9,109*d30a47e7
%RAWIMUSA,2283,32100.670;2283,32100.670001976,00000077,-496,142,64173,0,0,941*3a0a42fb
%RAWIMUSA,2283,32100.680;2283,32100.680001976,00000077,-482,146,64173,-27,9,374*991728f9
%RAWIMUSA,2283,32100.690;2283,32100.690001976,00000077,-496,142,64172,-9,0,-923*254c6b22
%RAWIMUSA,2283,32100.700;2283,32100.700001976,00000077,-510,141,64171,9,0,-850*2687b65e
%RAWIMUSA,2283,32100.710;2283,32100.710001976,00000077,-498,140,64172,9,-8,932*12594f41
%RAWIMUSA,2283,32100.720;2283,32100.720001976,00000077,-479,147,64172,-27,9,932*b49fbfe2
%RAWIMUSA,2283,32100.730;2283,32100.730001976,00000077,-494,146,64171,-18,8,-521*65c82082
%RAWIMUSA,2283,32100.740;2283,32100.740001976,00000077,-512,139,64170,0,-9,-914*b7fc5a19
%RAWIMUSA,2283,32100.750;2283,32100.750001976,00000077,-495,139,64173,18,-9,54*37f0fda7
%RAWIMUSA,2283,32100.760;2283,32100.760001976,00000077,-483,145,64169,-8,9,923*aa9850c9
%RAWIMUSA,2283,32100.770;2283,32100.770001976,00000077,-498,144,64174,-27,9,429*ef84acc0
%RAWIMUSA,2283,32100.780;2283,32100.780001976,00000077,-510,141,64172,-9,0,-923*169c5656
%RAWIMUSA,2283,32100.790;2283,32100.790001976,00000077,-493,142,64171,18,-9,-895*961d4e28
%RAWIMUSA,2283,32100.800;2283,32100.800001976,00000077,-481,145,64170,0,-8,932*b789befe
%RAWIMUSA,2283,32100.810;2283,32100.810001976,00000077,-498,146,64169,-18,9,932*f95fef19
%RAWIMUSA,2283,32100.820;2283,32100.820001976,00000077,-506,139,64172,-27,8,-484*996929d4
%RAWIMUSA,2283,32100.830;2283,32100.830001976,00000077,-498,135,64169,9,-9,-923*ed737c2a
%RAWIMUSA,2283,32100.840;2283,32100.840001976,00000077,-486,152,64169,9,-9,9*783e71bc
%RAWIMUSA,2283,32100.850;2283,32100.850001976,00000077,-499,149,64170,-8,9,932*05d3dc04
%RAWIMUSA,2283,32100.860;2283,32100.860001976,00000077,-505,136,64172,-27,9,475*2d3111db
%RAWIMUSA,2283,32100.870;2283,32100.870001976,00000077,-496,139,64172,0,0,-932*7dd821ae
%RAWIMUSA,2283,32100.880;2283,32100.880001976,00000077,-483,147,64172,9,-9,-923*f42898bf
%RAWIMUSA,2283,32100.890;2283,32100.890001976,00000077,-490,142,64173,0,0,896*34fd1f3c
%RAWIMUSA,2283,32100.900;2283,32100.900001976,00000077,-508,138,64171,-18,0,941*2234123b
%RAWIMUSA,2283,32100.910;2283,32100.910001976,00000077,-500,139,64169,-18,8,-420*0faa3a0e
%RAWIMUSA,2283,32100.920;2283,32100.920001976,00000077,-484,148,64167,9,-9,-923*d8f138b5
%RAWIMUSA,2283,32100.930;2283,32100.930001976,00000077,-492,149,64173,9,0,-45*b80d6c2b
%RAWIMUSA,2283,32100.940;2283,32100.940001976,00000077,-512,138,64172,-8,0,932*ce75a0a0
%RAWIMUSA,2283,32100.950;2283,32100.950001976,00000077,-503,137,64170,-27,9,530*0d123994
%RAWIMUSA,2283,32100.960;2283,32100.960001976,00000077,-480,144,64168,0,0,-923*bb589ad5
%RAWIMUSA,2283,32100.970;2283,32100.970001976,00000077,-489,148,64172,9,-9,-923*a89f50aa
%RAWIMUSA,2283,32100.980;2283,32100.980001976,00000077,-512,142,64172,0,0,859*11fca81e
%RAWIMUSA,2283,32100.990;2283,32100.990001976,00000077,-503,139,64170,-18,9,932*94f6d93c
%RAWIMUSA,2283,32101.000;2283,32101.000001976,00000077,-479,146,64171,-27,0,-374*782b7bce
%RAWIMUSA,2283,32101.010;2283,32101.010001976,00000077,-488,148,64172,18,0,-932*b2b77a03
%RAWIMUSA,2283,32101.020;2283,32101.020001976,00000077,-515,140,64170,9,-9,-91*cb067c37
%RAWIMUSA,2283,32101.030;2283,32101.030001976,00000077,-504,135,64172,-18,9,932*5ec916dd
%RAWIMUSA,2283,32101.040;2283,32101.040001976,00000077,-476,144,64171,-18,9,585*555d7c2a
%RAWIMUSA,2283,32101.050;2283,32101.050001976,00000077,-489,150,64171,-9,-9,-932*4f568c68
%RAWIMUSA,2283,32101.060;2283,32101.060001976,00000077,-513,140,64170,9,-9,-923*5168c48b
%RAWIMUSA,2283,32101.070;2283,32101.070001976,00000077,-506,138,64171,0,9,804*acf04026
%RAWIMUSA,2283,32101.080;2283,32101.080001976,00000077,-474,146,64170,-18,0,932*9aa21251
%RAWIMUSA,2283,32101.090;2283,32101.090001976,00000077,-488,146,64174,-18,0,-329*01b8272f
%RAWIMUSA,2283,32101.100;2283,32101.100001976,00000077,-513,139,64173,9,0,-923*693da3ca
%RAWIMUSA,2283,32101.110;2283,32101.110001976,00000077,-503,140,64171,18,-9,-137*ae9ccd90
%RAWIMUSA,2283,32101.120;2283,32101.120001976,00000077,-478,147,64168,-18,9,914*b4622999
%RAWIMUSA,2283,32101.130;2283,32101.130001976,00000077,-488,143,64171,-27,9,621*6a57a50d
%RAWIMUSA,2283,32101.140;2283,32101.140001976,00000077,-515,138,64171,0,-9,-932*06d9bec6
%RAWIMUSA,2283,32101.150;2283,32101.150001976,00000077,-505,141,64172,9,-9,-923*73a7d3b8
%RAWIMUSA,2283,32101.160;2283,32101.160001976,00000077,-479,148,64173,0,9,759*32a14ef2
%RAWIMUSA,2283,32101.170;2283,32101.170001976,00000077,-489,145,64173,-27,9,923*64595ea0
%RAWIMUSA,2283,32101.180;2283,32101.180001976,00000077,-508,139,64169,-18,0,-265*5df4d185
%RAWIMUSA,2283,32101.190;2283,32101.190001976,00000077,-503,141,64171,9,-9,-923*5b6b4703
%RAWIMUSA,2283,32101.200;2283,32101.200001976,00000077,-489,150,64174,9,-9,-201*128044d6
%RAWIMUSA,2283,32101.210;2283,32101.210001976,00000077,-487,143,64169,-18,9,932*4a877728
%RAWIMUSA,2283,32101.220;2283,32101.220001976,00000077,-499,136,64173,-18,9,667*f56f5773
%RAWIMUSA,2283,32101.230;2283,32101.230001976,00000077,-509,145,64171,0,-9,-923*3711d9e6
%RAWIMUSA,2283,32101.240;2283,32101.240001976,00000077,-490,148,64167,9,-9,-914*5a7f032b
%RAWIMUSA,2283,32101.250;2283,32101.250001976,00000077,-484,139,64169,0,9,704*cd73024a
%RAWIMUSA,2283,32101.260;2283,32101.260001976,00000077,-499,136,64172,-27,0,923*a2b58b03
%RAWIMUSA,2283,32101.270;2283,32101.270001976,00000077,-508,141,64173,-18,8,-228*4b919d1f
%RAWIMUSA,2283,32101.280;2283,32101.280001976,00000077,-494,152,64171,9,-9,-923*14b2d918
%RAWIMUSA,2283,32101.290;2283,32101.290001976,00000077,-485,146,64172,9,-9,-228*bbeca98a
%RAWIMUSA,2283,32101.300;2283,32101.300001976,00000077,-500,138,64168,-18,19,923*22959e8f
%RAWIMUSA,2283,32101.310;2283,32101.310001976,00000077,-503,144,64171,-18,0,731*e8e9898f
%RAWIMUSA,2283,32101.320;2283,32101.320001976,00000077,-494,146,64175,0,0,-923*9ea9b30a
%RAWIMUSA,2283,32101.330;2283,32101.330001976,00000077,-491,135,64170,9,-19,-923*ac69e6bd
%RAWIMUSA,2283,32101.340;2283,32101.340001976,00000077,-493,136,64167,0,9,658*73a6da30
%RAWIMUSA,2283,32101.350;2283,32101.350001976,00000077,-503,148,64173,-18,9,941*e68cd148
%RAWIMUSA,2283,32101.360;2283,32101.360001976,00000077,-503,152,64173,-18,0,-173*bcce9e67
%RAWIMUSA,2283,32101.370;2283,32101.370001976,00000077,-483,133,64171,9,-9,-914*0ded79ed
%RAWIMUSA,2283,32101.380;2283,32101.380001976,00000077,-492,137,64170,9,0,-292*041417cf
%RAWIMUSA,2283,32101.390;2283,32101.390001976,00000077,-508,153,64172,-18,0,932*bf7d7596
%RAWIMUSA,2283,32101.400;2283,32101.400001976,00000077,-499,143,64168,-27,9,777*bcd8eae9
%RAWIMUSA,2283,32101.410;2283,32101.410001976,00000077,-486,132,64170,0,-9,-923*ddab8fd6
%RAWIMUSA,2283,32101.420;2283,32101.420001976,00000077,-481,146,64169,18,-9,-923*472b5329
%RAWIMUSA,2283,32101.430;2283,32101.430001976,00000077,-509,154,64170,-8,9,594*6842c4f5
%RAWIMUSA,2283,32101.440;2283,32101.440001976,00000077,-512,139,64171,-27,9,932*66a84615
%RAWIMUSA,2283,32101.450;2283,32101.450001976,00000077,-483,129,64170,-9,0,-118*dbcee105
%RAWIMUSA,2283,32101.460;2283,32101.460001976,00000077,-480,148,64170,9,-9,-923*ce2d4442
%RAWIMUSA,2283,32101.470;2283,32101.470001976,00000077,-508,153,64173,9,0,-356*32fdd576
%RAWIMUSA,2283,32101.480;2283,32101.480001976,00000077,-511,134,64171,-18,9,932*30dce792
%RAWIMUSA,2283,32101.490;2283,32101.490001976,00000077,-487,132,64169,-27,0,841*6e65bed9
%RAWIMUSA,2283,32101.500;2283,32101.500001976,00000077,-475,151,64172,9,0,-932*d22c4d5c
%RAWIMUSA,2283,32101.510;2283,32101.510001976,00000077,-507,154,64170,9,-9,-923*687e8422
%RAWIMUSA,2283,32101.520;2283,32101.520001976,00000077,-514,134,64169,-8,9,548*2b6fe55e
%RAWIMUSA,2283,32101.530;2283,32101.530001976,00000077,-488,137,64173,-18,0,932*69d7e67a
%RAWIMUSA,2283,32101.540;2283,32101.540001976,00000077,-477,152,64171,-18,0,-63*d0a3fa97
%RAWIMUSA,2283,32101.550;2283,32101.550001976,00000077,-506,145,64171,9,-9,-923*d500f535
%RAWIMUSA,2283,32101.560;2283,32101.560001976,00000077,-516,131,64173,9,0,-393*0485e19b
%RAWIMUSA,2283,32101.570;2283,32101.570001976,00000077,-491,143,64168,-18,9,923*06a7dd9f
%RAWIMUSA,2283,32101.580;2283,32101.580001976,00000077,-476,154,64169,-27,0,877*f264779e
%RAWIMUSA,2283,32101.590;2283,32101.590001976,00000077,-500,142,64169,9,0,-914*ff6e6228
%RAWIMUSA,2283,32101.600;2283,32101.600001976,00000077,-515,130,64170,9,-9,-923*490827e7
%RAWIMUSA,2283,32101.610;2283,32101.610001976,00000077,-490,143,64171,-8,0,493*a2f6a93c
%RAWIMUSA,2283,32101.620;2283,32101.620001976,00000077,-479,153,64172,-27,9,932*4c547167
%RAWIMUSA,2283,32101.630;2283,32101.630001976,00000077,-505,142,64175,-9,0,-9*bd801976
%RAWIMUSA,2283,32101.640;2283,32101.640001976,00000077,-514,131,64171,9,-9,-923*1b24e011
%RAWIMUSA,2283,32101.650;2283,32101.650001976,00000077,-486,141,64171,9,0,-447*ee5c7110
%RAWIMUSA,2283,32101.660;2283,32101.660001976,00000077,-482,153,64172,-27,9,923*2be0b38e
%RAWIMUSA,2283,32101.670;2283,32101.670001976,00000077,-505,142,64171,-18,9,923*5075c321
%RAWIMUSA,2283,32101.680;2283,32101.680001976,00000077,-511,134,64170,9,-9,-923*e434a304
%RAWIMUSA,2283,32101.690;2283,32101.690001976,00000077,-487,143,64170,9,-9,-914*ea77e813
%RAWIMUSA,2283,32101.700;2283,32101.700001976,00000077,-481,158,64169,-8,9,457*bdb652b6
%RAWIMUSA,2283,32101.710;2283,32101.710001976,00000077,-502,142,64176,-27,9,923*46332526
%RAWIMUSA,2283,32101.720;2283,32101.720001976,00000077,-511,132,64167,0,-9,27*4a1f1dbb
%RAWIMUSA,2283,32101.730;2283,32101.730001976,00000077,-480,139,64169,9,-9,-923*6c7dfa56
%RAWIMUSA,2283,32101.740;2283,32101.740001976,00000077,-481,155,64173,9,8,-493*4afb6dbf
%RAWIMUSA,2283,32101.750;2283,32101.750001976,00000077,-510,145,64168,-27,0,914*6f19af43
%RAWIMUSA,2283,32101.760;2283,32101.760001976,00000077,-504,127,64171,-18,0,932*e236dcf2
%RAWIMUSA,2283,32101.770;2283,32101.770001976,00000077,-483,145,64169,9,-9,-868*1af73cd0
%RAWIMUSA,2283,32101.780;2283,32101.780001976,00000077,-490,157,64172,9,0,-923*7e635021
%RAWIMUSA,2283,32101.790;2283,32101.790001976,00000077,-506,142,64171,-18,9,393*2798b89e
%RAWIMUSA,2283,32101.800;2283,32101.800001976,00000077,-501,132,64169,-18,9,941*e2d7d77a
%RAWIMUSA,2283,32101.810;2283,32101.810001976,00000077,-487,142,64173,-9,-9,82*bc589d81
%RAWIMUSA,2283,32101.820;2283,32101.820001976,00000077,-491,151,64170,9,-9,-932*740deefc
%RAWIMUSA,2283,32101.830;2283,32101.830001976,00000077,-499,138,64171,9,0,-557*57f1f692
%RAWIMUSA,2283,32101.840;2283,32101.840001976,00000077,-506,129,64171,-27,9,841*02551325
%RAWIMUSA,2283,32101.850;2283,32101.850001976,00000077,-503,140,64173,-18,0,667*a55fbcd5
%RAWIMUSA,2283,32101.860;2283,32101.860001976,00000077,-497,146,64169,18,-10,-1225*40d3322e
%RAWIMUSA,2283,32101.870;2283,32101.870001976,00000077,-501,125,64172,9,-1,-1453*3a3f26ca
%RAWIMUSA,2283,32101.880;2283,32101.880001976,00000077,-507,124,64172,-9,0,-292*2ceb61e0
%RAWIMUSA,2283,32101.890;2283,32101.890001976,00000077,-498,149,64171,-9,9,219*62eced5e
%RAWIMUSA,2283,32101.900;2283,32101.900001976,00000077,-494,144,64169,-9,-9,-630*cb3cae48
%RAWIMUSA,2283,32101.910;2283,32101.910001976,00000077,-500,134,64171,18,-10,-1801*c9bc1694
%RAWIMUSA,2283,32101.920;2283,32101.920001976,00000077,-505,131,64173,18,-1,-1517*ab77a200
%RAWIMUSA,2283,32101.930;2283,32101.930001976,00000077,-500,137,64173,-18,9,-73*32b59177
%RAWIMUSA,2283,32101.940;2283,32101.940001976,00000077,-488,159,64170,-18,-9,-137*a38c611a
%RAWIMUSA,2283,32101.950;2283,32101.950001976,00000077,-497,130,64169,18,-10,-1910*43cf5ce7
%RAWIMUSA,2283,32101.960;2283,32101.960001976,00000077,-511,129,64170,18,-1,-2176*19024c96
%RAWIMUSA,2283,32101.970;2283,32101.970001976,00000077,-504,142,64171,0,8,-1024*9cb1f417
%RAWIMUSA,2283,32101.980;2283,32101.980001976,00000077,-489,143,64166,-9,0,-475*d1386350
%RAWIMUSA,2283,32101.990;2283,32101.990001976,00000077,-495,136,64172,9,-10,-1325*b6522cae
%RAWIMUSA,2283,32102.000;2283,32102.000001976,00000077,-510,132,64174,27,-11,-2496*b6cf6fcf
%RAWIMUSA,2283,32102.010;2283,32102.010001976,00000077,-505,135,64177,8,-1,-2313*e9cedf0c
%RAWIMUSA,2283,32102.020;2283,32102.020001976,00000077,-492,146,64168,-9,8,-813*d873e79a
%RAWIMUSA,2283,32102.030;2283,32102.030001976,00000077,-487,147,64173,-9,-9,-877*6120d373
%RAWIMUSA,2283,32102.040;2283,32102.040001976,00000077,-506,135,64170,27,-11,-2633*acf7d13f
%RAWIMUSA,2283,32102.050;2283,32102.050001976,00000077,-508,134,64171,27,-2,-2916*678fc202
%RAWIMUSA,2283,32102.060;2283,32102.060001976,00000077,-500,133,64175,0,-1,-1782*c18028d7
%RAWIMUSA,2283,32102.070;2283,32102.070001976,00000077,-494,137,64174,-9,0,-1216*94a9aef4
%RAWIMUSA,2283,32102.080;2283,32102.080001976,00000077,-500,136,64164,18,-10,-1993*308b105a
%RAWIMUSA,2283,32102.090;2283,32102.090001976,00000077,-502,142,64168,27,-11,-3200*218c66a1
%RAWIMUSA,2283,32102.100;2283,32102.100001976,00000077,-502,141,64169,17,6,-3099*feed003d
%RAWIMUSA,2283,32102.110;2283,32102.110001976,00000077,-493,142,64174,0,-1,-1517*1cb870a4
%RAWIMUSA,2283,32102.120;2283,32102.120001976,00000077,-504,129,64173,0,-10,-1618*fdf109fa
%RAWIMUSA,2283,32102.130;2283,32102.130001976,00000077,-506,130,64171,27,-11,-3337*64c52165
%RAWIMUSA,2283,32102.140;2283,32102.140001976,00000077,-497,151,64173,36,-12,-3620*d6978272
%RAWIMUSA,2283,32102.150;2283,32102.150001976,00000077,-499,136,64174,0,7,-2569*67dc7cbc
%RAWIMUSA,2283,32102.160;2283,32102.160001976,00000077,-501,127,64166,0,-1,-1920*fdf18903
%RAWIMUSA,2283,32102.170;2283,32102.170001976,00000077,-501,145,64169,27,-20,-2633*72977506
%RAWIMUSA,2283,32102.180;2283,32102.180001976,00000077,-498,152,64165,26,-12,-3931*a75ff97d
%RAWIMUSA,2283,32102.190;2283,32102.190001976,00000077,-499,134,64171,17,6,-3867*1c275027
%RAWIMUSA,2283,32102.200;2283,32102.200001976,00000077,-500,126,64170,8,-1,-2240*851bd1ff
%RAWIMUSA,2283,32102.210;2283,32102.210001976,00000077,-503,134,64176,8,-11,-2340*c12fdf4d
%RAWIMUSA,2283,32102.220;2283,32102.220001976,00000077,-499,152,64169,36,-21,-3977*8d0b30bf
%RAWIMUSA,2283,32102.230;2283,32102.230001976,00000077,-493,143,64169,35,-3,-4343*4f497669
%RAWIMUSA,2283,32102.240;2283,32102.240001976,00000077,-501,119,64171,0,6,-3374*17352967
%RAWIMUSA,2283,32102.250;2283,32102.250001976,00000077,-503,133,64171,8,-11,-2642*c8460194
%RAWIMUSA,2283,32102.260;2283,32102.260001976,00000077,-499,144,64169,27,-11,-3328*dc6e4bf7
%RAWIMUSA,2283,32102.270;2283,32102.270001976,00000077,-495,154,64165,35,-12,-4690*3f1d19fe
%RAWIMUSA,2283,32102.280;2283,32102.280001976,00000077,-496,131,64166,26,5,-4626*0cb7f3ab
%RAWIMUSA,2283,32102.290;2283,32102.290001976,00000077,-503,131,64171,8,-2,-2971*13ee1eed
%RAWIMUSA,2283,32102.300;2283,32102.300001976,00000077,-497,141,64176,8,-20,-3063*fb02e163
%RAWIMUSA,2283,32102.310;2283,32102.310001976,00000077,-498,136,64175,45,-12,-4617*0cf686d9
%RAWIMUSA,2283,32102.320;2283,32102.320001976,00000077,-498,132,64171,35,-4,-5083*31762b4c
%RAWIMUSA,2283,32102.330;2283,32102.330001976,00000077,-502,135,64165,17,-3,-4123*a4b9fd86
%RAWIMUSA,2283,32102.340;2283,32102.340001976,00000077,-503,152,64169,8,-11,-3355*4fa2b43e
%RAWIMUSA,2283,32102.350;2283,32102.350001976,00000077,-502,143,64171,36,-12,-4023*894cf3b1
%RAWIMUSA,2283,32102.360;2283,32102.360001976,00000077,-499,129,64176,44,-13,-5385*311ce80d
%RAWIMUSA,2283,32102.370;2283,32102.370001976,00000077,-496,132,64172,26,-4,-5376*2b47899a
%RAWIMUSA,2283,32102.380;2283,32102.380001976,00000077,-501,145,64167,8,-2,-3712*7d428fed
%RAWIMUSA,2283,32102.390;2283,32102.390001976,00000077,-501,137,64171,26,-21,-3776*c5b7efa8
%RAWIMUSA,2283,32102.400;2283,32102.400001976,00000077,-504,129,64169,44,-13,-5312*67943a9e
%RAWIMUSA,2283,32102.410;2283,32102.410001976,00000077,-493,142,64171,44,-13,-5806*0d9a4fdd
%RAWIMUSA,2283,32102.420;2283,32102.420001976,00000077,-494,147,64170,17,-3,-4855*853ef78a
%RAWIMUSA,2283,32102.430;2283,32102.430001976,00000077,-507,131,64173,8,-12,-4105*cbf34b3e
%RAWIMUSA,2283,32102.440;2283,32102.440001976,00000077,-500,133,64171,45,-12,-4690*cdc1452c
%RAWIMUSA,2283,32102.450;2283,32102.450001976,00000077,-498,131,64170,53,-14,-6107*bff5ae77
%RAWIMUSA,2283,32102.460;2283,32102.460001976,00000077,-498,145,64174,26,-14,-6190*70f4cc0f
%RAWIMUSA,2283,32102.470;2283,32102.470001976,00000077,-503,147,64170,17,-3,-4416*64de06f7
%RAWIMUSA,2283,32102.480;2283,32102.480001976,00000077,-502,135,64168,26,-21,-4498*c13b154a
%RAWIMUSA,2283,32102.490;2283,32102.490001976,00000077,-497,120,64169,63,-13,-5998*dcba2ae9
%RAWIMUSA,2283,32102.500;2283,32102.500001976,00000077,-497,149,64166,44,-5,-6492*ddb3f254
%RAWIMUSA,2283,32102.510;2283,32102.510001976,00000077,-503,139,64173,17,-4,-5650*66d11a60
%RAWIMUSA,2283,32102.520;2283,32102.520001976,00000077,-506,127,64176,26,-22,-4837*f1ab473d
%RAWIMUSA,2283,32102.530;2283,32102.530001976,00000077,-504,133,64175,44,-22,-5339*0883d94f
%RAWIMUSA,2283,32102.540;2283,32102.540001976,00000077,-498,141,64166,53,-5,-6839*3386c88b
%RAWIMUSA,2283,32102.550;2283,32102.550001976,00000077,-494,148,64172,35,-14,-6912*16258eee
%RAWIMUSA,2283,32102.560;2283,32102.560001976,00000077,-504,125,64168,26,-4,-5157*1146cf9b
%RAWIMUSA,2283,32102.570;2283,32102.570001976,00000077,-510,131,64175,26,-22,-5230*bfe8f26d
%RAWIMUSA,2283,32102.580;2283,32102.580001976,00000077,-500,152,64169,63,-23,-6656*973cb530
%RAWIMUSA,2283,32102.590;2283,32102.590001976,00000077,-491,145,64169,53,-5,-7223*c986a887
%RAWIMUSA,2283,32102.600;2283,32102.600001976,00000077,-500,133,64172,26,4,-6455*de1907e6
%RAWIMUSA,2283,32102.610;2283,32102.610001976,00000077,-508,124,64170,26,-22,-5541*6f7578da
%RAWIMUSA,2283,32102.620;2283,32102.620001976,00000077,-501,148,64169,54,-23,-6007*a6c7804d
%RAWIMUSA,2283,32102.630;2283,32102.630001976,00000077,-496,147,64172,62,-15,-7571*707a98e5
%RAWIMUSA,2283,32102.640;2283,32102.640001976,00000077,-497,130,64170,35,-5,-7625*b2206d27
%RAWIMUSA,2283,32102.650;2283,32102.650001976,00000077,-504,129,64173,26,-13,-5943*afc5f01f
%RAWIMUSA,2283,32102.660;2283,32102.660001976,00000077,-506,139,64173,44,-23,-5952*05284ede
%RAWIMUSA,2283,32102.670;2283,32102.670001976,00000077,-495,149,64167,62,-24,-7314*78e6718e
%RAWIMUSA,2283,32102.680;2283,32102.680001976,00000077,-502,137,64172,53,-6,-7964*99e9d597
%RAWIMUSA,2283,32102.690;2283,32102.690001976,00000077,-505,125,64173,26,-14,-7205*918a76d1
%RAWIMUSA,2283,32102.700;2283,32102.700001976,00000077,-502,132,64178,35,-23,-6254*fd19a506
%RAWIMUSA,2283,32102.710;2283,32102.710001976,00000077,-504,138,64165,63,-23,-6702*9fbc74d0
%RAWIMUSA,2283,32102.720;2283,32102.720001976,00000077,-493,153,64164,71,-15,-8275*3b1003cf
%RAWIMUSA,2283,32102.730;2283,32102.730001976,00000077,-498,121,64174,44,-6,-8339*7500bcab
%RAWIMUSA,2283,32102.740;2283,32102.740001976,00000077,-504,142,64170,26,-14,-6720*6e757143
%RAWIMUSA,2283,32102.750;2283,32102.750001976,00000077,-498,139,64168,53,-32,-6656*804b26fe
%RAWIMUSA,2283,32102.760;2283,32102.760001976,00000077,-496,136,64173,62,-15,-7991*634afd45
%RAWIMUSA,2283,32102.770;2283,32102.770001976,00000077,-509,141,64179,81,-16,-8695*c87a33c1
%RAWIMUSA,2283,32102.780;2283,32102.780001976,00000077,-502,125,64166,16,-6,-7982*9dd9f57e
%RAWIMUSA,2283,32102.790;2283,32102.790001976,00000077,-497,136,64175,53,-33,-6994*7cf833db
%RAWIMUSA,2283,32102.800;2283,32102.800001976,00000077,-502,145,64170,53,-15,-7369*5eee7089
%RAWIMUSA,2283,32102.810;2283,32102.810001976,00000077,-505,141,64167,90,-25,-8988*3a7fdfb7
%RAWIMUSA,2283,32102.820;2283,32102.820001976,00000077,-503,136,64173,25,-7,-9098*4bc5639a
%RAWIMUSA,2283,32102.830;2283,32102.830001976,00000077,-499,138,64170,62,-24,-7497*259f0dab
%RAWIMUSA,2283,32102.840;2283,32102.840001976,00000077,-503,145,64168,35,-24,-7397*645e1f01
%RAWIMUSA,2283,32102.850;2283,32102.850001976,00000077,-503,136,64171,90,-25,-8695*5149aafe
%RAWIMUSA,2283,32102.860;2283,32102.860001976,00000077,-500,132,64172,53,-7,-9381*999b2cb5
%RAWIMUSA,2283,32102.870;2283,32102.870001976,00000077,-497,129,64169,53,-16,-8759*6af0b586
%RAWIMUSA,2283,32102.880;2283,32102.880001976,00000077,-495,152,64174,25,-24,-7717*81b34edb
%RAWIMUSA,2283,32102.890;2283,32102.890001976,00000077,-505,132,64170,90,-24,-8028*8f818726
%RAWIMUSA,2283,32102.900;2283,32102.900001976,00000077,-506,129,64168,62,-16,-9719*b52a9b0c
%RAWIMUSA,2283,32102.910;2283,32102.910001976,00000077,-498,147,64168,71,-7,-9811*ec192752
%RAWIMUSA,2283,32102.920;2283,32102.920001976,00000077,-499,135,64173,25,-24,-8247*479362e7
%RAWIMUSA,2283,32102.930;2283,32102.930001976,00000077,-500,137,64174,81,-24,-8101*69c7a154
%RAWIMUSA,2283,32102.940;2283,32102.940001976,00000077,-502,123,64172,62,-25,-9335*1d7ca258
%RAWIMUSA,2283,32102.950;2283,32102.950001976,00000077,-501,155,64168,89,-7,-10103*0817f05a
%RAWIMUSA,2283,32102.960;2283,32102.960001976,00000077,-500,141,64172,25,-25,-9564*0effc606
%RAWIMUSA,2283,32102.970;2283,32102.970001976,00000077,-509,130,64170,71,-25,-8430*32627973
%RAWIMUSA,2283,32102.980;2283,32102.980001976,00000077,-500,127,64179,62,-25,-8677*732f1892
%RAWIMUSA,2283,32102.990;2283,32102.990001976,00000077,-493,152,64162,99,-17,-10469*2c2cd3d1
%RAWIMUSA,2283,32103.000;2283,32103.000001976,00000077,-503,137,64168,43,-17,-10524*5ec2752b
%RAWIMUSA,2283,32103.010;2283,32103.010001976,00000077,-510,132,64171,62,-25,-9070*995232ca
%RAWIMUSA,2283,32103.020;2283,32103.020001976,00000077,-502,113,64178,53,-34,-8860*02a04173
%RAWIMUSA,2283,32103.030;2283,32103.030001976,00000077,-493,152,64170,108,-17,-10003*713cbff0
%RAWIMUSA,2283,32103.040;2283,32103.040001976,00000077,-506,130,64169,52,-17,-10862*1b1fce56
%RAWIMUSA,2283,32103.050;2283,32103.050001976,00000077,-508,144,64170,62,-17,-10314*e64ceb33
%RAWIMUSA,2283,32103.060;2283,32103.060001976,00000077,-501,118,64174,44,-34,-9152*fc8e48aa
%RAWIMUSA,2283,32103.070;2283,32103.070001976,00000077,-488,145,64165,108,-25,-9381*f9ce57d4
%RAWIMUSA,2283,32103.080;2283,32103.080001976,00000077,-503,150,64178,61,-17,-11164*ac24ac6b
%RAWIMUSA,2283,32103.090;2283,32103.090001976,00000077,-518,142,64169,80,-18,-11246*d2b939f4
%RAWIMUSA,2283,32103.100;2283,32103.100001976,00000077,-504,116,64170,34,-26,-9829*42fefd31
%RAWIMUSA,2283,32103.110;2283,32103.110001976,00000077,-490,148,64163,99,-35,-9564*b385c77d
%RAWIMUSA,2283,32103.120;2283,32103.120001976,00000077,-499,142,64174,71,-17,-10670*cfb6eba2
%RAWIMUSA,2283,32103.130;2283,32103.130001976,00000077,-511,137,64171,89,-18,-11585*b4351fb1
%RAWIMUSA,2283,32103.140;2283,32103.140001976,00000077,-503,116,64174,43,-27,-11082*47d26211
%RAWIMUSA,2283,32103.150;2283,32103.150001976,00000077,-498,145,64170,89,-26,-9875*6c075af8
%RAWIMUSA,2283,32103.160;2283,32103.160001976,00000077,-500,135,64177,71,-26,-10049*2c855b2e
%RAWIMUSA,2283,32103.170;2283,32103.170001976,00000077,-503,150,64164,107,-18,-11886*a2832233
%RAWIMUSA,2283,32103.180;2283,32103.180001976,00000077,-505,104,64177,52,-18,-11987*0f889a20
%RAWIMUSA,2283,32103.190;2283,32103.190001976,00000077,-499,155,64166,80,-35,-10588*fabf7bab
%RAWIMUSA,2283,32103.200;2283,32103.200001976,00000077,-497,130,64177,71,-35,-10286*a3f8e90c
%RAWIMUSA,2283,32103.210;2283,32103.210001976,00000077,-502,141,64168,98,-18,-11384*a65dfde5
%RAWIMUSA,2283,32103.220;2283,32103.220001976,00000077,-509,119,64176,80,-18,-12298*4c96c36f
%RAWIMUSA,2283,32103.230;2283,32103.230001976,00000077,-501,145,64173,61,-27,-11850*113e4142
%RAWIMUSA,2283,32103.240;2283,32103.240001976,00000077,-498,135,64174,80,-35,-10625*0dd4b949
%RAWIMUSA,2283,32103.250;2283,32103.250001976,00000077,-504,133,64166,80,-26,-10716*de1f78eb
%RAWIMUSA,2283,32103.260;2283,32103.260001976,00000077,-509,135,64170,116,-19,-12636*0e17e9d0
%RAWIMUSA,2283,32103.270;2283,32103.270001976,00000077,-505,137,64172,52,-19,-12719*387cb066
%RAWIMUSA,2283,32103.280;2283,32103.280001976,00000077,-493,148,64170,89,-36,-11329*ef9472da
%RAWIMUSA,2283,32103.290;2283,32103.290001976,00000077,-502,132,64172,71,-36,-10999*ef69bb7b
%RAWIMUSA,2283,32103.300;2283,32103.300001976,00000077,-504,133,64169,126,-18,-12042*4085dfb9
%RAWIMUSA,2283,32103.310;2283,32103.310001976,00000077,-508,136,64175,61,-19,-13020*b8b44de4
%RAWIMUSA,2283,32103.320;2283,32103.320001976,00000077,-503,138,64167,89,-28,-12664*a483639b
%RAWIMUSA,2283,32103.330;2283,32103.330001976,00000077,-496,118,64166,61,-36,-11329*431a4543
%RAWIMUSA,2283,32103.340;2283,32103.340001976,00000077,-500,146,64166,117,-27,-11383*1f218100
%RAWIMUSA,2283,32103.350;2283,32103.350001976,00000077,-514,135,64175,98,-19,-13349*6c0ba4b3
%RAWIMUSA,2283,32103.360;2283,32103.360001976,00000077,-510,140,64172,61,-28,-13413*3553fbe2
%RAWIMUSA,2283,32103.370;2283,32103.370001976,00000077,-496,116,64165,89,-37,-12115*8a516782
%RAWIMUSA,2283,32103.380;2283,32103.380001976,00000077,-482,133,64168,89,-36,-11740*003bf06b
%RAWIMUSA,2283,32103.390;2283,32103.390001976,00000077,-516,168,64168,116,-19,-12691*45b54dec
%RAWIMUSA,2283,32103.400;2283,32103.400001976,00000077,-523,119,64172,79,-29,-13752*78f0550f
%RAWIMUSA,2283,32103.410;2283,32103.410001976,00000077,-496,115,64166,70,-38,-13413*a97a1eeb
%RAWIMUSA,2283,32103.420;2283,32103.420001976,00000077,-485,151,64171,98,-27,-12033*b984ad71
%RAWIMUSA,2283,32103.430;2283,32103.430001976,00000077,-510,151,64172,98,-27,-12133*29b1310c
%RAWIMUSA,2283,32103.440;2283,32103.440001976,00000077,-524,138,64166,116,-20,-14026*a3a7462b
%RAWIMUSA,2283,32103.450;2283,32103.450001976,00000077,-501,98,64174,79,-38,-14154*44b34688
%RAWIMUSA,2283,32103.460;2283,32103.460001976,00000077,-483,135,64176,80,-37,-12929*1bbb92ae
%RAWIMUSA,2283,32103.470;2283,32103.470001976,00000077,-507,168,64167,107,-28,-12453*8be667ee
%RAWIMUSA,2283,32103.480;2283,32103.480001976,00000077,-522,130,64171,107,-19,-13377*2cbe99a0
%RAWIMUSA,2283,32103.490;2283,32103.490001976,00000077,-500,113,64168,88,-29,-14492*cdd57fc5
%RAWIMUSA,2283,32103.500;2283,32103.500001976,00000077,-480,133,64164,88,-38,-14154*c8599d8a
%RAWIMUSA,2283,32103.510;2283,32103.510001976,00000077,-505,155,64171,89,-37,-12773*79dc5dfe
%RAWIMUSA,2283,32103.520;2283,32103.520001976,00000077,-525,138,64175,107,-28,-12865*6ac07d35
%RAWIMUSA,2283,32103.530;2283,32103.530001976,00000077,-509,109,64170,116,-20,-14684*5f347aba
%RAWIMUSA,2283,32103.540;2283,32103.540001976,00000077,-486,131,64173,88,-30,-14876*7a3017fe
%RAWIMUSA,2283,32103.550;2283,32103.550001976,00000077,-501,164,64170,79,-38,-13688*c24fb70f
%RAWIMUSA,2283,32103.560;2283,32103.560001976,00000077,-523,144,64167,107,-37,-13157*b13fab36
%RAWIMUSA,2283,32103.570;2283,32103.570001976,00000077,-505,109,64171,116,-29,-14072*30b12efc
%RAWIMUSA,2283,32103.580;2283,32103.580001976,00000077,-486,132,64170,107,-21,-15178*a9077d29
%RAWIMUSA,2283,32103.590;2283,32103.590001976,00000077,-501,154,64178,79,-39,-14922*6c904796
%RAWIMUSA,2283,32103.600;2283,32103.600001976,00000077,-519,136,64171,89,-47,-13505*8131faa4
%RAWIMUSA,2283,32103.610;2283,32103.610001976,00000077,-511,112,64169,125,-19,-13587*1db9fcaf
%RAWIMUSA,2283,32103.620;2283,32103.620001976,00000077,-491,118,64163,125,-30,-15361*60472192
%RAWIMUSA,2283,32103.630;2283,32103.630001976,00000077,-490,154,64177,88,-30,-15626*f8c5c119
%RAWIMUSA,2283,32103.640;2283,32103.640001976,00000077,-517,143,64173,79,-48,-14447*66a966ce
%RAWIMUSA,2283,32103.650;2283,32103.650001976,00000077,-519,115,64173,116,-38,-13907*7cfedba0
%RAWIMUSA,2283,32103.660;2283,32103.660001976,00000077,-496,115,64169,134,-20,-14730*91191b4d
%RAWIMUSA,2283,32103.670;2283,32103.670001976,00000077,-488,156,64172,106,-30,-15891*d6dbe96f
%RAWIMUSA,2283,32103.680;2283,32103.680001976,00000077,-517,144,64170,79,-39,-15736*2c717705
%RAWIMUSA,2283,32103.690;2283,32103.690001976,00000077,-517,127,64161,107,-38,-14218*9664bc69
%RAWIMUSA,2283,32103.700;2283,32103.700001976,00000077,-491,125,64172,125,-29,-14282*73d0bbd8
%RAWIMUSA,2283,32103.710;2283,32103.710001976,00000077,-493,148,64167,125,-30,-16038*f99f8d15
%RAWIMUSA,2283,32103.720;2283,32103.720001976,00000077,-514,152,64182,97,-40,-16294*7dcec839
%RAWIMUSA,2283,32103.730;2283,32103.730001976,00000077,-525,122,64177,88,-48,-15215*212ecca3
%RAWIMUSA,2283,32103.740;2283,32103.740001976,00000077,-495,113,64171,125,-29,-14648*f4985451
%RAWIMUSA,2283,32103.750;2283,32103.750001976,00000077,-489,138,64165,134,-21,-15398*9afe9596
%RAWIMUSA,2283,32103.760;2283,32103.760001976,00000077,-510,144,64174,97,-31,-16660*ec5217e1
%RAWIMUSA,2283,32103.770;2283,32103.770001976,00000077,-519,131,64169,97,-49,-16504*39bf33b6
%RAWIMUSA,2283,32103.780;2283,32103.780001976,00000077,-499,125,64166,116,-48,-14950*1add61e7
%RAWIMUSA,2283,32103.790;2283,32103.790001976,00000077,-490,135,64171,125,-30,-15050*5c1a4c93
%RAWIMUSA,2283,32103.800;2283,32103.800001976,00000077,-515,153,64175,125,-31,-16714*35b58fe3
%RAWIMUSA,2283,32103.810;2283,32103.810001976,00000077,-524,119,64175,97,-40,-17053*2bc69b61
%RAWIMUSA,2283,32103.820;2283,32103.820001976,00000077,-499,120,64174,106,-49,-15974*e3155fa7
%RAWIMUSA,2283,32103.830;2283,32103.830001976,00000077,-480,143,64167,134,-30,-15270*bbf42b18
%RAWIMUSA,2283,32103.840;2283,32103.840001976,00000077,-498,158,64170,125,-30,-15864*c52b318b
%RAWIMUSA,2283,32103.850;2283,32103.850001976,00000077,-521,134,64167,106,-31,-17016*7494aa50
%RAWIMUSA,2283,32103.860;2283,32103.860001976,00000077,-506,126,64171,106,-49,-16815*32af4c62
%RAWIMUSA,2283,32103.870;2283,32103.870001976,00000077,-482,143,64170,116,-39,-15132*0484d919
%RAWIMUSA,2283,32103.880;2283,32103.880001976,00000077,-495,150,64172,125,-30,-15123*107aa30e
%RAWIMUSA,2283,32103.890;2283,32103.890001976,00000077,-520,135,64171,125,-31,-16678*cc4cdb76
%RAWIMUSA,2283,32103.900;2283,32103.900001976,00000077,-511,120,64172,97,-40,-16989*a08672de
%RAWIMUSA,2283,32103.910;2283,32103.910001976,00000077,-488,141,64168,106,-40,-15937*851cdeab
%RAWIMUSA,2283,32103.920;2283,32103.920001976,00000077,-490,157,64165,125,-39,-15142*b973038c
%RAWIMUSA,2283,32103.930;2283,32103.930001976,00000077,-517,132,64175,134,-21,-15727*fc104376
%RAWIMUSA,2283,32103.940;2283,32103.940001976,00000077,-516,120,64174,106,-40,-16998*f4d80177
%RAWIMUSA,2283,32103.950;2283,32103.950001976,00000077,-494,143,64169,97,-40,-16879*302b8b3e
%RAWIMUSA,2283,32103.960;2283,32103.960001976,00000077,-491,151,64162,116,-39,-15132*9f1a8fc1
%RAWIMUSA,2283,32103.970;2283,32103.970001976,00000077,-506,137,64170,125,-30,-15151*b075bad7
%RAWIMUSA,2283,32103.980;2283,32103.980001976,00000077,-519,118,64178,125,-31,-16632*39123066
%RAWIMUSA,2283,32103.990;2283,32103.990001976,00000077,-500,137,64171,106,-50,-17007*99bb2c5a
%RAWIMUSA,2283,32104.000;2283,32104.000001976,00000077,-486,164,64169,97,-40,-15983*ed095952
%RAWIMUSA,2283,32104.010;2283,32104.010001976,00000077,-505,136,64169,125,-30,-15187*50331650
%RAWIMUSA,2283,32104.020;2283,32104.020001976,00000077,-515,106,64170,134,-30,-15709*c58e8498
%RAWIMUSA,2283,32104.030;2283,32104.030001976,00000077,-498,131,64176,115,-40,-16998*20a0aaa0
%RAWIMUSA,2283,32104.040;2283,32104.040001976,00000077,-502,168,64176,97,-50,-16934*90b7d7e0
%RAWIMUSA,2283,32104.050;2283,32104.050001976,00000077,-508,143,64164,116,-39,-15151*be56f829
%RAWIMUSA,2283,32104.060;2283,32104.060001976,00000077,-502,105,64166,134,-30,-15151*22c64b0b
%RAWIMUSA,2283,32104.070;2283,32104.070001976,00000077,-489,123,64174,125,-22,-16614*161d22b0
%RAWIMUSA,2283,32104.080;2283,32104.080001976,00000077,-509,172,64172,97,-50,-16998*3e5fb0dd
%RAWIMUSA,2283,32104.090;2283,32104.090001976,00000077,-524,145,64170,97,-40,-16029*2f6c3844
%RAWIMUSA,2283,32104.100;2283,32104.100001976,00000077,-505,116,64170,134,-39,-15142*d0bb5873
%RAWIMUSA,2283,32104.110;2283,32104.110001976,00000077,-486,135,64171,134,-30,-15645*c05b023c
%RAWIMUSA,2283,32104.120;2283,32104.120001976,00000077,-498,146,64172,97,-22,-16989*eff8810c
%RAWIMUSA,2283,32104.130;2283,32104.130001976,00000077,-514,146,64171,97,-50,-16989*36d6b8dc
%RAWIMUSA,2283,32104.140;2283,32104.140001976,00000077,-510,137,64166,125,-39,-15160*0c555067
%RAWIMUSA,2283,32104.150;2283,32104.150001976,00000077,-504,132,64172,134,-30,-15151*8a67ab7d
%RAWIMUSA,2283,32104.160;2283,32104.160001976,00000077,-497,129,64168,116,-40,-16550*8dbd2c6f
%RAWIMUSA,2283,32104.170;2283,32104.170001976,00000077,-492,135,64173,106,-40,-17007*bc4855f4
%RAWIMUSA,2283,32104.180;2283,32104.180001976,00000077,-509,148,64165,97,-30,-16093*c703fb85
%RAWIMUSA,2283,32104.190;2283,32104.190001976,00000077,-521,149,64169,134,-30,-15169*1234626c
%RAWIMUSA,2283,32104.200;2283,32104.200001976,00000077,-497,122,64172,125,-30,-15599*0ea0a74c
%RAWIMUSA,2283,32104.210;2283,32104.210001976,00000077,-484,131,64177,106,-50,-17016*0537a3aa
%RAWIMUSA,2283,32104.220;2283,32104.220001976,00000077,-510,156,64169,97,-40,-17007*8c07c985
%RAWIMUSA,2283,32104.230;2283,32104.230001976,00000077,-523,145,64161,116,-30,-15178*ece534c9
%RAWIMUSA,2283,32104.240;2283,32104.240001976,00000077,-504,120,64171,134,-30,-15142*fefb3d35
%RAWIMUSA,2283,32104.250;2283,32104.250001976,00000077,-483,127,64176,125,-40,-16495*bfab3e6c
%RAWIMUSA,2283,32104.260;2283,32104.260001976,00000077,-504,152,64180,97,-50,-16989*53ca7580
%RAWIMUSA,2283,32104.270;2283,32104.270001976,00000077,-527,146,64163,97,-40,-16147*17228549
%RAWIMUSA,2283,32104.280;2283,32104.280001976,00000077,-503,121,64161,134,-30,-15151*b06f6e50
%RAWIMUSA,2283,32104.290;2283,32104.290001976,00000077,-483,125,64177,134,-21,-15562*4a50210d
%RAWIMUSA,2283,32104.300;2283,32104.300001976,00000077,-500,149,64175,106,-50,-17007*78b2e9ec
%RAWIMUSA,2283,32104.310;2283,32104.310001976,00000077,-528,149,64173,88,-50,-17025*7d2f715b
%RAWIMUSA,2283,32104.320;2283,32104.320001976,00000077,-510,124,64165,125,-39,-15242*2d30624b
%RAWIMUSA,2283,32104.330;2283,32104.330001976,00000077,-493,131,64168,143,-21,-15151*1390bb15
%RAWIMUSA,2283,32104.340;2283,32104.340001976,00000077,-499,150,64174,106,-31,-16468*f1c4c7f8
%RAWIMUSA,2283,32104.350;2283,32104.350001976,00000077,-514,142,64177,97,-50,-17007*f777b4f3
%RAWIMUSA,2283,32104.360;2283,32104.360001976,00000077,-515,130,64169,106,-49,-16184*6da6a934
%RAWIMUSA,2283,32104.370;2283,32104.370001976,00000077,-497,134,64164,134,-30,-15160*90d6314a
%RAWIMUSA,2283,32104.380;2283,32104.380001976,00000077,-495,141,64179,134,-21,-15498*5e0402df
%RAWIMUSA,2283,32104.390;2283,32104.390001976,00000077,-515,140,64175,97,-40,-16998*e7e095b0
%RAWIMUSA,2283,32104.400;2283,32104.400001976,00000077,-512,130,64168,97,-40,-16998*7d924ca1
%RAWIMUSA,2283,32104.410;2283,32104.410001976,00000077,-492,129,64160,125,-39,-15297*d4b02b98
%RAWIMUSA,2283,32104.420;2283,32104.420001976,00000077,-494,145,64172,134,-30,-15160*1b505df9
%RAWIMUSA,2283,32104.430;2283,32104.430001976,00000077,-519,145,64176,116,-40,-16394*32562942
%RAWIMUSA,2283,32104.440;2283,32104.440001976,00000077,-516,132,64171,97,-50,-17007*53893518
%RAWIMUSA,2283,32104.450;2283,32104.450001976,00000077,-491,130,64166,116,-31,-16257*2cb6e22f
%RAWIMUSA,2283,32104.460;2283,32104.460001976,00000077,-488,137,64168,134,-30,-15178*fd34c43e
%RAWIMUSA,2283,32104.470;2283,32104.470001976,00000077,-509,154,64177,125,-39,-15453*21d12648
%RAWIMUSA,2283,32104.480;2283,32104.480001976,00000077,-525,133,64174,97,-50,-16998*d64b4644
%RAWIMUSA,2283,32104.490;2283,32104.490001976,00000077,-507,123,64171,97,-40,-16989*0cab3205
%RAWIMUSA,2283,32104.500;2283,32104.500001976,00000077,-480,140,64165,134,-21,-15343*1542b170
%RAWIMUSA,2283,32104.510;2283,32104.510001976,00000077,-496,151,64163,125,-30,-15169*083da5a0
%RAWIMUSA,2283,32104.520;2283,32104.520001976,00000077,-530,133,64177,106,-49,-16349*4cfc6a1f
%RAWIMUSA,2283,32104.530;2283,32104.530001976,00000077,-521,118,64173,106,-50,-17007*928916a5
%RAWIMUSA,2283,32104.540;2283,32104.540001976,00000077,-480,138,64171,116,-40,-16303*074810e6
%RAWIMUSA,2283,32104.550;2283,32104.550001976,00000077,-488,150,64162,125,-11,-15169*9c333373
%RAWIMUSA,2283,32104.560;2283,32104.560001976,00000077,-528,141,64169,125,-30,-15398*ff0d609e
%RAWIMUSA,2283,32104.570;2283,32104.570001976,00000077,-515,116,64174,106,-59,-17007*e9e492b0
%RAWIMUSA,2283,32104.580;2283,32104.580001976,00000077,-489,132,64177,97,-59,-17007*97880171
%RAWIMUSA,2283,32104.590;2283,32104.590001976,00000077,-494,156,64169,134,-21,-15407*eb74e413
%RAWIMUSA,2283,32104.600;2283,32104.600001976,00000077,-519,137,64165,134,-21,-15160*0611c135
%RAWIMUSA,2283,32104.610;2283,32104.610001976,00000077,-514,122,64174,106,-40,-16303*88c476ea
%RAWIMUSA,2283,32104.620;2283,32104.620001976,00000077,-495,136,64177,97,-59,-17016*753f5880
%RAWIMUSA,2283,32104.630;2283,32104.630001976,00000077,-499,155,64174,116,-40,-16349*fca8c392
%RAWIMUSA,2283,32104.640;2283,32104.640001976,00000077,-517,134,64163,134,-21,-15160*cd66554a
%RAWIMUSA,2283,32104.650;2283,32104.650001976,00000077,-516,118,64172,125,-30,-15343*e1fa4292
%RAWIMUSA,2283,32104.660;2283,32104.660001976,00000077,-495,132,64178,97,-50,-17016*2412de3d
%RAWIMUSA,2283,32104.670;2283,32104.670001976,00000077,-495,158,64171,97,-40,-17007*9ac458e1
%RAWIMUSA,2283,32104.680;2283,32104.680001976,00000077,-511,143,64165,134,-39,-15453*44f36fae
%RAWIMUSA,2283,32104.690;2283,32104.690001976,00000077,-519,122,64172,125,-30,-15160*a396c2d8
%RAWIMUSA,2283,32104.700;2283,32104.700001976,00000077,-505,129,64181,116,-40,-16239*9879cac5
%RAWIMUSA,2283,32104.710;2283,32104.710001976,00000077,-491,149,64170,97,-40,-17007*83083251
%RAWIMUSA,2283,32104.720;2283,32104.720001976,00000077,-501,147,64163,116,-31,-16403*501bf447
%RAWIMUSA,2283,32104.730;2283,32104.730001976,00000077,-519,125,64167,134,-30,-15151*64bd0df4
%RAWIMUSA,2283,32104.740;2283,32104.740001976,00000077,-514,122,64174,125,-39,-15306*fffef111
%RAWIMUSA,2283,32104.750;2283,32104.750001976,00000077,-496,143,64175,97,-50,-17025*7cb93524
%RAWIMUSA,2283,32104.760;2283,32104.760001976,00000077,-501,156,64174,97,-50,-17016*f9881866
%RAWIMUSA,2283,32104.770;2283,32104.770001976,00000077,-519,128,64163,134,-12,-15498*365e2add
%RAWIMUSA,2283,32104.780;2283,32104.780001976,00000077,-509,122,64167,134,-30,-15169*bd6a8f97
%RAWIMUSA,2283,32104.790;2283,32104.790001976,00000077,-495,145,64175,106,-58,-16202*186eb2fb
%RAWIMUSA,2283,32104.800;2283,32104.800001976,00000077,-503,148,64176,97,-50,-17007*5b94cda0
%RAWIMUSA,2283,32104.810;2283,32104.810001976,00000077,-518,134,64167,116,-31,-16449*2fb6a2e3
%RAWIMUSA,2283,32104.820;2283,32104.820001976,00000077,-508,122,64165,134,-21,-15160*51469f5f
%RAWIMUSA,2283,32104.830;2283,32104.830001976,00000077,-497,142,64173,125,-39,-15251*4b4985cb
%RAWIMUSA,2283,32104.840;2283,32104.840001976,00000077,-504,145,64176,97,-50,-17016*5b1ae43c
%RAWIMUSA,2283,32104.850;2283,32104.850001976,00000077,-513,133,64175,97,-50,-17007*9cd63887
%RAWIMUSA,2283,32104.860;2283,32104.860001976,00000077,-513,126,64166,134,-21,-15562*cfb30a8e
%RAWIMUSA,2283,32104.870;2283,32104.870001976,00000077,-502,135,64163,143,-21,-15169*d822584c
%RAWIMUSA,2283,32104.880;2283,32104.880001976,00000077,-502,148,64176,106,-40,-16157*a4396e8a
%RAWIMUSA,2283,32104.890;2283,32104.890001976,00000077,-511,139,64177,97,-59,-17016*0c66526c
%RAWIMUSA,2283,32104.900;2283,32104.900001976,00000077,-515,131,64169,116,-40,-16513*5ad6c953
%RAWIMUSA,2283,32104.910;2283,32104.910001976,00000077,-506,132,64167,134,-21,-15160*f0b61d9b
%RAWIMUSA,2283,32104.920;2283,32104.920001976,00000077,-497,141,64171,116,-30,-15196*a27da11e
%RAWIMUSA,2283,32104.930;2283,32104.930001976,00000077,-510,139,64175,97,-50,-17016*d5699bf5
%RAWIMUSA,2283,32104.940;2283,32104.940001976,00000077,-512,131,64170,106,-40,-16998*9826a45f
%RAWIMUSA,2283,32104.950;2283,32104.950001976,00000077,-500,136,64167,134,-39,-15599*6573f0bd
%RAWIMUSA,2283,32104.960;2283,32104.960001976,00000077,-503,140,64171,134,-30,-15160*1b8f512e
%RAWIMUSA,2283,32104.970;2283,32104.970001976,00000077,-516,141,64178,97,-40,-16111*3ae5646b
%RAWIMUSA,2283,32104.980;2283,32104.980001976,00000077,-514,124,64169,97,-31,-17016*d32bb468
%RAWIMUSA,2283,32104.990;2283,32104.990001976,00000077,-497,136,64173,125,-40,-16550*3f9660fc
%RAWIMUSA,2283,32105.000;2283,32105.000001976,00000077,-499,139,64164,134,-30,-15160*ca884a38
%RAWIMUSA,2283,32105.010;2283,32105.010001976,00000077,-516,138,64174,116,-39,-15196*366afaa6
%RAWIMUSA,2283,32105.020;2283,32105.020001976,00000077,-515,130,64172,97,-50,-17016*3adfbc20
%RAWIMUSA,2283,32105.030;2283,32105.030001976,00000077,-498,134,64171,97,-31,-17016*cd7702e5
%RAWIMUSA,2283,32105.040;2283,32105.040001976,00000077,-499,152,64167,134,-30,-15654*6cd72679
%RAWIMUSA,2283,32105.050;2283,32105.050001976,00000077,-517,135,64168,134,-30,-15169*4c5f040d
%RAWIMUSA,2283,32105.060;2283,32105.060001976,00000077,-517,123,64178,97,-58,-16056*a6a6e22c
%RAWIMUSA,2283,32105.070;2283,32105.070001976,00000077,-507,131,64175,106,-40,-17016*d48f634f
%RAWIMUSA,2283,32105.080;2283,32105.080001976,00000077,-498,146,64168,115,-31,-16596*2122bf16
%RAWIMUSA,2283,32105.090;2283,32105.090001976,00000077,-507,146,64165,134,-21,-15169*39429b1d
%RAWIMUSA,2283,32105.100;2283,32105.100001976,00000077,-518,124,64170,116,-48,-15160*826da040
%RAWIMUSA,2283,32105.110;2283,32105.110001976,00000077,-507,131,64182,106,-50,-16952*ef3c17e6
%RAWIMUSA,2283,32105.120;2283,32105.120001976,00000077,-500,145,64174,97,-50,-17016*969646c0
%RAWIMUSA,2283,32105.130;2283,32105.130001976,00000077,-510,141,64165,134,-21,-15709*fd170f88
%RAWIMUSA,2283,32105.140;2283,32105.140001976,00000077,-513,123,64165,134,-21,-15160*966ea1b2
%RAWIMUSA,2283,32105.150;2283,32105.150001976,00000077,-508,130,64177,97,-49,-16019*6d3352b3
%RAWIMUSA,2283,32105.160;2283,32105.160001976,00000077,-499,145,64176,106,-59,-17025*18637ccc
%RAWIMUSA,2283,32105.170;2283,32105.170001976,00000077,-508,149,64170,115,-31,-16650*b239cda9
%RAWIMUSA,2283,32105.180;2283,32105.180001976,00000077,-517,134,64162,134,-21,-15169*40be4412
%RAWIMUSA,2283,32105.190;2283,32105.190001976,00000077,-510,125,64168,125,-39,-15169*bd5a7a05
%RAWIMUSA,2283,32105.200;2283,32105.200001976,00000077,-499,138,64179,97,-49,-16906*ea35e3e9
%RAWIMUSA,2283,32105.210;2283,32105.210001976,00000077,-507,148,64172,106,-50,-17016*920729aa
%RAWIMUSA,2283,32105.220;2283,32105.220001976,00000077,-523,130,64170,134,-30,-15745*fed4d96f
%RAWIMUSA,2283,32105.230;2283,32105.230001976,00000077,-508,124,64169,125,-21,-15169*6430abd9
%RAWIMUSA,2283,32105.240;2283,32105.240001976,00000077,-497,139,64174,106,-40,-15946*d663d437
%RAWIMUSA,2283,32105.250;2283,32105.250001976,00000077,-501,150,64171,97,-59,-17016*31168ab1
%RAWIMUSA,2283,32105.260;2283,32105.260001976,00000077,-529,131,64168,125,-31,-16705*6a03d038
%RAWIMUSA,2283,32105.270;2283,32105.270001976,00000077,-513,127,64163,134,-30,-15160*4f5efef5
%RAWIMUSA,2283,32105.280;2283,32105.280001976,00000077,-490,136,64174,116,-39,-15169*5ed3d1a6
%RAWIMUSA,2283,32105.290;2283,32105.290001976,00000077,-498,141,64178,97,-40,-16852*5f013e2b
%RAWIMUSA,2283,32105.300;2283,32105.300001976,00000077,-523,129,64170,106,-50,-17025*188dd543
%RAWIMUSA,2283,32105.310;2283,32105.310001976,00000077,-522,128,64170,134,-30,-15809*8aabc040
%RAWIMUSA,2283,32105.320;2283,32105.320001976,00000077,-498,142,64168,134,-39,-15160*b1c96dc9
%RAWIMUSA,2283,32105.330;2283,32105.330001976,00000077,-493,145,64170,97,-40,-15910*c9cf412f
%RAWIMUSA,2283,32105.340;2283,32105.340001976,00000077,-518,127,64174,88,-31,-17016*b2a9307e
%RAWIMUSA,2283,32105.350;2283,32105.350001976,00000077,-526,127,64170,134,-40,-16751*b9e81765
%RAWIMUSA,2283,32105.360;2283,32105.360001976,00000077,-501,140,64172,134,-30,-15160*2725d526
%RAWIMUSA,2283,32105.370;2283,32105.370001976,00000077,-492,141,64172,116,-48,-15160*8b60da75
%RAWIMUSA,2283,32105.380;2283,32105.380001976,00000077,-507,135,64170,97,-40,-16797*d3aef625
%RAWIMUSA,2283,32105.390;2283,32105.390001976,00000077,-523,131,64168,106,-31,-17016*515c9a0e
%RAWIMUSA,2283,32105.400;2283,32105.400001977,00000077,-513,140,64172,134,-30,-15864*8dba0c25
%RAWIMUSA,2283,32105.410;2283,32105.410001977,00000077,-494,140,64174,134,-48,-15169*dc59ef2b
%RAWIMUSA,2283,32105.420;2283,32105.420001977,00000077,-498,133,64173,97,-49,-15864*3923505b
%RAWIMUSA,2283,32105.430;2283,32105.430001977,00000077,-524,128,64171,106,-40,-17025*a39b720f
%RAWIMUSA,2283,32105.440;2283,32105.440001977,00000077,-520,136,64168,125,-22,-16815*49d350e2
%RAWIMUSA,2283,32105.450;2283,32105.450001977,00000077,-494,148,64169,134,-30,-15169*971b969b
%RAWIMUSA,2283,32105.460;2283,32105.460001977,00000077,-499,135,64171,116,-48,-15169*fe48f0da
%RAWIMUSA,2283,32105.470;2283,32105.470001977,00000077,-524,126,64176,88,-49,-16751*69508a0b
%RAWIMUSA,2283,32105.480;2283,32105.480001977,00000077,-524,133,64172,115,-31,-17016*d688bfa1
%RAWIMUSA,2283,32105.490;2283,32105.490001977,00000077,-498,146,64165,134,-21,-15901*8fbe0f5b
%RAWIMUSA,2283,32105.500;2283,32105.500001977,00000077,-495,134,64169,125,-48,-15151*4e15e806
%RAWIMUSA,2283,32105.510;2283,32105.510001977,00000077,-520,127,64178,106,-49,-15809*008d0895
%RAWIMUSA,2283,32105.520;2283,32105.520001977,00000077,-525,134,64178,97,-50,-17016*e7fc681f
%RAWIMUSA,2283,32105.530;2283,32105.530001977,00000077,-505,142,64163,125,-13,-16852*3a13076e
%RAWIMUSA,2283,32105.540;2283,32105.540001977,00000077,-493,137,64167,134,-30,-15142*d2fd4de7
%RAWIMUSA,2283,32105.550;2283,32105.550001977,00000077,-510,127,64175,107,-57,-15132*5b403c03
%RAWIMUSA,2283,32105.560;2283,32105.560001977,00000077,-524,134,64180,106,-59,-16705*4b185e56
%RAWIMUSA,2283,32105.570;2283,32105.570001977,00000077,-512,135,64172,106,-22,-17025*f8f455ba
%RAWIMUSA,2283,32105.580;2283,32105.580001977,00000077,-498,138,64164,134,-21,-15965*7f8a746e
%RAWIMUSA,2283,32105.590;2283,32105.590001977,00000077,-499,135,64167,125,-48,-15178*df28b7d1
%RAWIMUSA,2283,32105.600;2283,32105.600001977,00000077,-518,134,64177,106,-58,-15763*c4b65429
%RAWIMUSA,2283,32105.610;2283,32105.610001977,00000077,-520,134,64175,97,-31,-17016*46aff978
%RAWIMUSA,2283,32105.620;2283,32105.620001977,00000077,-500,139,64163,125,-22,-16906*e78223ec
%RAWIMUSA,2283,32105.630;2283,32105.630001977,00000077,-497,140,64171,134,-39,-15160*3af1d65d
%RAWIMUSA,2283,32105.640;2283,32105.640001977,00000077,-517,129,64173,107,-48,-15160*2ee7a0d2
%RAWIMUSA,2283,32105.650;2283,32105.650001977,00000077,-526,128,64177,106,-49,-16641*63d14f5a
%RAWIMUSA,2283,32105.660;2283,32105.660001977,00000077,-505,141,64171,115,-22,-17007*533ee34f
%RAWIMUSA,2283,32105.670;2283,32105.670001977,00000077,-497,142,64167,134,-30,-16001*269a544e
%RAWIMUSA,2283,32105.680;2283,32105.680001977,00000077,-510,130,64168,125,-48,-15169*6d31e755
%RAWIMUSA,2283,32105.690;2283,32105.690001977,00000077,-523,128,64173,97,-49,-15699*20db1268
%RAWIMUSA,2283,32105.700;2283,32105.700001977,00000077,-508,140,64171,97,-31,-17034*83ec402f
%RAWIMUSA,2283,32105.710;2283,32105.710001977,00000077,-496,139,64169,134,-22,-16961*d88d6e16
%RAWIMUSA,2283,32105.720;2283,32105.720001977,00000077,-510,137,64170,134,-39,-15169*57b16422
%RAWIMUSA,2283,32105.730;2283,32105.730001977,00000077,-528,131,64171,107,-57,-15169*1e3391df
%RAWIMUSA,2283,32105.740;2283,32105.740001977,00000077,-518,137,64178,97,-40,-16605*5e7e06aa
%RAWIMUSA,2283,32105.750;2283,32105.750001977,00000077,-498,137,64170,115,-22,-17016*75cd217a
%RAWIMUSA,2283,32105.760;2283,32105.760001977,00000077,-501,138,64166,134,-40,-16056*ce2f3eac
%RAWIMUSA,2283,32105.770;2283,32105.770001977,00000077,-525,132,64172,125,-48,-15160*66aaa0d1
%RAWIMUSA,2283,32105.780;2283,32105.780001977,00000077,-522,134,64176,97,-39,-15635*dcaaa131
%RAWIMUSA,2283,32105.790;2283,32105.790001977,00000077,-503,132,64175,97,-40,-17025*459e30d9
