%RAWIMUSA,2283,32033.730;2283,32033.730001962,00000077,-504,148,64174,9,-17,932*51c0ea6a
%RAWIMUSA,2283,32033.740;2283,32033.740001962,00000077,-486,139,64171,9,0,941*3be85599
%RAWIMUSA,2283,32033.750;2283,32033.750001962,00000077,-493,138,64166,-18,8,-859*f6cda4de
%RAWIMUSA,2283,32033.760;2283,32033.760001962,00000077,-506,148,64170,-18,8,-923*671576b3
%RAWIMUSA,2283,32033.770;2283,32033.770001962,00000077,-501,147,64174,0,-18,393*3f337231
%RAWIMUSA,2283,32033.780;2283,32033.780001962,00000077,-484,139,64171,9,0,932*708404b4
%RAWIMUSA,2283,32033.790;2283,32033.790001962,00000077,-493,137,64167,0,9,100*f089dbda
%RAWIMUSA,2283,32033.800;2283,32033.800001962,00000077,-511,150,64174,-27,0,-932*71ed5d4c
%RAWIMUSA,2283,32033.810;2283,32033.810001962,00000077,-502,144,64172,-18,-9,-566*cb89b7b5
%RAWIMUSA,2283,32033.820;2283,32033.820001962,00000077,-484,138,64172,18,9,932*09acea79
%RAWIMUSA,2283,32033.830;2283,32033.830001962,00000077,-489,141,64169,9,9,923*dba0f04a
%RAWIMUSA,2283,32033.840;2283,32033.840001962,00000077,-510,148,64171,-27,-9,-786*c6353d7e
%RAWIMUSA,2283,32033.850;2283,32033.850001962,00000077,-499,144,64175,-18,-9,-932*93e43b54
%RAWIMUSA,2283,32033.860;2283,32033.860001962,00000077,-478,138,64172,0,18,338*c636b598
%RAWIMUSA,2283,32033.870;2283,32033.870001962,00000077,-491,144,64169,9,0,932*bf62843b
%RAWIMUSA,2283,32033.880;2283,32033.880001962,00000077,-512,147,64174,-9,-18,155*35a0ef7b
%RAWIMUSA,2283,32033.890;2283,32033.890001962,00000077,-504,141,64175,-18,0,-932*81dc26cf
%RAWIMUSA,2283,32033.900;2283,32033.900001962,00000077,-483,137,64170,-9,17,-621*4a040652
%RAWIMUSA,2283,32033.910;2283,32033.910001962,00000077,-489,144,64167,9,9,932*7a84531d
%RAWIMUSA,2283,32033.920;2283,32033.920001962,00000077,-507,149,64172,9,-17,932*be03e333
%RAWIMUSA,2283,32033.930;2283,32033.930001962,00000077,-503,140,64170,-27,-19,-749*89c829f3
%RAWIMUSA,2283,32033.940;2283,32033.940001962,00000077,-486,134,64169,-18,26,-914*138479f0
%RAWIMUSA,2283,32033.950;2283,32033.950001962,00000077,-493,145,64168,9,9,283*c49dee35
%RAWIMUSA,2283,32033.960;2283,32033.960001962,00000077,-506,146,64174,9,-26,914*e4915579
%RAWIMUSA,2283,32033.970;2283,32033.970001962,00000077,-496,141,64174,-9,-9,201*3e7cfd9a
%RAWIMUSA,2283,32033.980;2283,32033.980001962,00000077,-487,140,64166,-27,26,-914*33768fe4
%RAWIMUSA,2283,32033.990;2283,32033.990001962,00000077,-495,149,64172,-9,8,-676*3108e18a
%RAWIMUSA,2283,32034.000;2283,32034.000001962,00000077,-507,147,64174,18,-17,932*9dc57f59
%RAWIMUSA,2283,32034.010;2283,32034.010001962,00000077,-498,136,64171,0,-8,932*3d84c906
%RAWIMUSA,2283,32034.020;2283,32034.020001962,00000077,-484,140,64168,-18,8,-703*16baa591
%RAWIMUSA,2283,32034.030;2283,32034.030001962,00000077,-495,150,64168,-27,8,-923*98d23354
%RAWIMUSA,2283,32034.040;2283,32034.040001962,00000077,-505,146,64171,9,-9,228*4499dac1
%RAWIMUSA,2283,32034.050;2283,32034.050001962,00000077,-496,136,64172,18,-17,923*8ec85219
%RAWIMUSA,2283,32034.060;2283,32034.060001962,00000077,-485,141,64169,-18,9,246*6c122811
%RAWIMUSA,2283,32034.070;2283,32034.070001962,00000077,-498,151,64171,-18,17,-923*6c1341e3
%RAWIMUSA,2283,32034.080;2283,32034.080001962,00000077,-511,142,64171,-9,-9,-713*40205b1a
%RAWIMUSA,2283,32034.090;2283,32034.090001962,00000077,-498,135,64173,18,-8,932*1a7fa4d8
%RAWIMUSA,2283,32034.100;2283,32034.100001962,00000077,-483,141,64169,0,0,932*09e5c729
%RAWIMUSA,2283,32034.110;2283,32034.110001962,00000077,-494,154,64169,-18,8,-658*745825a5
%RAWIMUSA,2283,32034.120;2283,32034.120001962,00000077,-507,143,64175,-27,-9,-923*6fe08c98
%RAWIMUSA,2283,32034.130;2283,32034.130001962,00000077,-501,136,64172,9,0,182*40f83e60
%RAWIMUSA,2283,32034.140;2283,32034.140001962,00000077,-484,146,64169,9,0,914*ce984e83
%RAWIMUSA,2283,32034.150;2283,32034.150001962,00000077,-495,148,64169,-18,0,301*f046945a
%RAWIMUSA,2283,32034.160;2283,32034.160001962,00000077,-507,140,64172,-18,-9,-923*53aa88b6
%RAWIMUSA,2283,32034.170;2283,32034.170001962,00000077,-500,136,64172,-9,8,-767*850b7d8b
%RAWIMUSA,2283,32034.180;2283,32034.180001962,00000077,-485,146,64171,18,9,932*105ba560
%RAWIMUSA,2283,32034.190;2283,32034.190001962,00000077,-494,147,64172,0,-8,923*9d20f7dd
%RAWIMUSA,2283,32034.200;2283,32034.200001962,00000077,-505,137,64172,-27,-9,-603*f3454784
%RAWIMUSA,2283,32034.210;2283,32034.210001962,00000077,-501,139,64170,-18,8,-923*1d15779b
%RAWIMUSA,2283,32034.220;2283,32034.220001962,00000077,-492,150,64166,9,18,128*4c410bcf
%RAWIMUSA,2283,32034.230;2283,32034.230001962,00000077,-490,143,64173,9,-17,932*15be2d9c
%RAWIMUSA,2283,32034.240;2283,32034.240001962,00000077,-507,140,64172,-8,-8,347*2a1dbf17
%RAWIMUSA,2283,32034.250;2283,32034.250001962,00000077,-502,142,64169,-18,8,-923*e4e8244a
%RAWIMUSA,2283,32034.260;2283,32034.260001962,00000077,-488,149,64167,-9,17,-822*324fceb0
%RAWIMUSA,2283,32034.270;2283,32034.270001962,00000077,-490,142,64174,9,-8,932*555155b5
%RAWIMUSA,2283,32034.280;2283,32034.280001962,00000077,-506,139,64173,0,-17,923*1a2fb8b7
%RAWIMUSA,2283,32034.290;2283,32034.290001962,00000077,-505,143,64170,-27,8,-557*d633e4cc
%RAWIMUSA,2283,32034.300;2283,32034.300001962,00000077,-486,149,64168,-18,17,-914*6bd34358
%RAWIMUSA,2283,32034.310;2283,32034.310001962,00000077,-485,142,64170,9,-9,82*e82053c1
%RAWIMUSA,2283,32034.320;2283,32034.320001962,00000077,-505,139,64172,18,-17,923*bfa23f49
%RAWIMUSA,2283,32034.330;2283,32034.330001962,00000077,-509,144,64172,-18,0,402*7bafdca8
%RAWIMUSA,2283,32034.340;2283,32034.340001962,00000077,-490,148,64167,-27,17,-914*15c185b7
%RAWIMUSA,2283,32034.350;2283,32034.350001962,00000077,-482,143,64170,0,0,-877*b63ec09e
%RAWIMUSA,2283,32034.360;2283,32034.360001962,00000077,-503,138,64172,9,-17,923*9f17380b
%RAWIMUSA,2283,32034.370;2283,32034.370001962,00000077,-509,147,64171,0,-8,923*545d0c4d
%RAWIMUSA,2283,32034.380;2283,32034.380001962,00000077,-486,149,64168,-18,17,-502*e403c813
%RAWIMUSA,2283,32034.390;2283,32034.390001962,00000077,-481,141,64171,-18,8,-923*7780ce61
%RAWIMUSA,2283,32034.400;2283,32034.400001962,00000077,-506,139,64173,9,-18,36*ad9b14c3
%RAWIMUSA,2283,32034.410;2283,32034.410001962,00000077,-511,146,64169,9,0,932*0c834600
%RAWIMUSA,2283,32034.420;2283,32034.420001962,00000077,-490,151,64170,-18,9,448*a61beb01
%RAWIMUSA,2283,32034.430;2283,32034.430001962,00000077,-479,141,64171,-18,8,-932*b09cbd16
%RAWIMUSA,2283,32034.440;2283,32034.440001962,00000077,-504,142,64174,0,-9,-914*1e0bd7c0
%RAWIMUSA,2283,32034.450;2283,32034.450001962,00000077,-510,146,64172,9,-8,932*ad59ffd0
%RAWIMUSA,2283,32034.460;2283,32034.460001962,00000077,-492,146,64168,0,9,941*e0588b3e
%RAWIMUSA,2283,32034.470;2283,32034.470001962,00000077,-485,140,64170,-27,8,-447*b78413c2
%RAWIMUSA,2283,32034.480;2283,32034.480001962,00000077,-502,137,64173,-9,-9,-914*e2cf2019
%RAWIMUSA,2283,32034.490;2283,32034.490001962,00000077,-510,148,64173,9,0,-18*342da083
%RAWIMUSA,2283,32034.500;2283,32034.500001962,00000077,-491,146,64166,9,9,923*caf21d7a
%RAWIMUSA,2283,32034.510;2283,32034.510001962,00000077,-484,137,64170,-18,0,512*87e2915d
%RAWIMUSA,2283,32034.520;2283,32034.520001962,00000077,-500,141,64172,-18,-9,-914*ef3e3b60
%RAWIMUSA,2283,32034.530;2283,32034.530001962,00000077,-510,143,64172,0,8,-923*319baa48
%RAWIMUSA,2283,32034.540;2283,32034.540001962,00000077,-494,144,64168,9,0,877*ba7b4d46
%RAWIMUSA,2283,32034.550;2283,32034.550001962,00000077,-488,142,64174,0,-8,941*34397156
%RAWIMUSA,2283,32034.560;2283,32034.560001962,00000077,-499,142,64171,-27,0,-402*e1811ce7
%RAWIMUSA,2283,32034.570;2283,32034.570001962,00000077,-508,148,64172,-18,17,-914*3e35bfcf
%RAWIMUSA,2283,32034.580;2283,32034.580001962,00000077,-497,142,64170,9,-9,-73*760ea9d3
%RAWIMUSA,2283,32034.590;2283,32034.590001962,00000077,-485,136,64173,18,-8,923*a28708d0
%RAWIMUSA,2283,32034.600;2283,32034.600001962,00000077,-497,144,64168,-18,9,548*475aa9ac
%RAWIMUSA,2283,32034.610;2283,32034.610001962,00000077,-508,148,64174,-27,8,-932*4d44ec3d
%RAWIMUSA,2283,32034.620;2283,32034.620001962,00000077,-500,137,64170,0,-9,-914*918b4f7f
%RAWIMUSA,2283,32034.630;2283,32034.630001962,00000077,-482,138,64169,9,-8,823*64fc08e1
%RAWIMUSA,2283,32034.640;2283,32034.640001962,00000077,-490,143,64169,0,0,923*f4dfc79e
%RAWIMUSA,2283,32034.650;2283,32034.650001962,00000077,-516,149,64173,-27,8,-338*5c5eac6f
%RAWIMUSA,2283,32034.660;2283,32034.660001962,00000077,-502,143,64171,-18,0,-923*fcef4408
%RAWIMUSA,2283,32034.670;2283,32034.670001962,00000077,-479,136,64172,18,0,-109*3fc5084a
%RAWIMUSA,2283,32034.680;2283,32034.680001962,00000077,-492,146,64170,9,-8,932*ad551f1a
%RAWIMUSA,2283,32034.690;2283,32034.690001962,00000077,-515,145,64170,-27,9,603*db0f26ae
%RAWIMUSA,2283,32034.700;2283,32034.700001962,00000077,-501,143,64173,-18,8,-923*aa61df59
%RAWIMUSA,2283,32034.710;2283,32034.710001962,00000077,-478,142,64170,0,-9,-923*f60ab6a2
%RAWIMUSA,2283,32034.720;2283,32034.720001962,00000077,-494,144,64170,9,0,777*4c390880
%RAWIMUSA,2283,32034.730;2283,32034.730001962,00000077,-507,142,64173,-8,-8,932*ad8ea672
%RAWIMUSA,2283,32034.740;2283,32034.740001962,00000077,-497,145,64172,-18,8,-292*f8535afa
%RAWIMUSA,2283,32034.750;2283,32034.750001962,00000077,-479,140,64173,-9,8,-914*1e661709
%RAWIMUSA,2283,32034.760;2283,32034.760001962,00000077,-494,147,64170,9,-9,-173*bbc095f1
%RAWIMUSA,2283,32034.770;2283,32034.770001962,00000077,-513,148,64170,9,-8,923*692b6829
%RAWIMUSA,2283,32034.780;2283,32034.780001962,00000077,-498,141,64171,-27,9,640*aa4aa77a
%RAWIMUSA,2283,32034.790;2283,32034.790001962,00000077,-480,142,64169,-18,8,-923*875528b5
%RAWIMUSA,2283,32034.800;2283,32034.800001962,00000077,-489,145,64169,0,0,-914*6cb48267
%RAWIMUSA,2283,32034.810;2283,32034.810001962,00000077,-510,144,64170,9,-8,731*9a608018
%RAWIMUSA,2283,32034.820;2283,32034.820001962,00000077,-498,139,64170,-8,-8,923*81c38b32
%RAWIMUSA,2283,32034.830;2283,32034.830001962,00000077,-487,139,64172,-18,8,-246*c3f546c0
%RAWIMUSA,2283,32034.840;2283,32034.840001962,00000077,-497,148,64169,-9,8,-923*da5289fe
%RAWIMUSA,2283,32034.850;2283,32034.850001962,00000077,-507,146,64172,9,-9,-228*9ca28697
%RAWIMUSA,2283,32034.860;2283,32034.860001962,00000077,-497,137,64173,9,-8,932*9d1ac6b6
%RAWIMUSA,2283,32034.870;2283,32034.870001962,00000077,-483,143,64171,-18,9,704*34e8eb33
%RAWIMUSA,2283,32034.880;2283,32034.880001962,00000077,-499,147,64172,-27,8,-923*72351b2f
%RAWIMUSA,2283,32034.890;2283,32034.890001962,00000077,-508,146,64170,9,-9,-923*544f716d
%RAWIMUSA,2283,32034.900;2283,32034.900001962,00000077,-497,137,64170,9,-8,685*e9ee219d
%RAWIMUSA,2283,32034.910;2283,32034.910001962,00000077,-486,143,64170,-8,9,932*f9e25cb3
%RAWIMUSA,2283,32034.920;2283,32034.920001962,00000077,-495,147,64170,-27,8,-210*f3f7d92b
%RAWIMUSA,2283,32034.930;2283,32034.930001962,00000077,-504,142,64170,-9,0,-923*3d0dd88b
%RAWIMUSA,2283,32034.940;2283,32034.940001962,00000077,-495,138,64171,9,-9,-274*b410ac81
%RAWIMUSA,2283,32034.950;2283,32034.950001962,00000077,-484,141,64170,9,0,923*ef26797f
%RAWIMUSA,2283,32034.960;2283,32034.960001962,00000077,-500,147,64172,-18,9,759*30adc3d0
%RAWIMUSA,2283,32034.970;2283,32034.970001962,00000077,-509,140,64172,-27,0,-914*dc038158
%RAWIMUSA,2283,32034.980;2283,32034.980001962,00000077,-494,139,64171,9,0,-932*ac8fbf41
%RAWIMUSA,2283,32034.990;2283,32034.990001962,00000077,-483,147,64169,18,-8,631*ee85e16a
%RAWIMUSA,2283,32035.000;2283,32035.000001962,00000077,-499,146,64172,-18,0,932*d782744f
%RAWIMUSA,2283,32035.010;2283,32035.010001962,00000077,-507,142,64171,-27,9,-155*44a4ab5d
%RAWIMUSA,2283,32035.020;2283,32035.020001962,00000077,-494,138,64173,0,8,-923*5c8ca8eb
%RAWIMUSA,2283,32035.030;2283,32035.030001962,00000077,-490,146,64173,9,-9,-319*7850e844
%RAWIMUSA,2283,32035.040;2283,32035.040001962,00000077,-500,146,64169,9,-8,932*36d5b677
%RAWIMUSA,2283,32035.050;2283,32035.050001962,00000077,-501,140,64172,-27,9,804*e44aedfe
%RAWIMUSA,2283,32035.060;2283,32035.060001962,00000077,-493,139,64171,-18,8,-923*17ed7d33
%RAWIMUSA,2283,32035.070;2283,32035.070001962,00000077,-497,149,64167,9,-9,-914*04b1cba4
%RAWIMUSA,2283,32035.080;2283,32035.080001962,00000077,-500,142,64169,9,-8,567*47db00b0
%RAWIMUSA,2283,32035.090;2283,32035.090001962,00000077,-498,139,64174,-18,0,923*9c03f4e9
%RAWIMUSA,2283,32035.100;2283,32035.100001962,00000077,-493,141,64169,-18,9,-100*90f66cc9
%RAWIMUSA,2283,32035.110;2283,32035.110001962,00000077,-494,144,64171,-9,0,-923*c11ade81
%RAWIMUSA,2283,32035.120;2283,32035.120001962,00000077,-501,144,64171,9,-9,-365*ac729fc6
%RAWIMUSA,2283,32035.130;2283,32035.130001962,00000077,-501,138,64171,9,0,932*74356bcb
%RAWIMUSA,2283,32035.140;2283,32035.140001962,00000077,-490,145,64169,-27,9,850*ccff7e6d
%RAWIMUSA,2283,32035.150;2283,32035.150001962,00000077,-498,146,64171,-18,8,-923*7e8eef7b
%RAWIMUSA,2283,32035.160;2283,32035.160001962,00000077,-500,141,64170,9,-9,-923*0dce9a18
%RAWIMUSA,2283,32035.170;2283,32035.170001962,00000077,-498,139,64170,9,-8,530*0e9c2c8f
%RAWIMUSA,2283,32035.180;2283,32035.180001962,00000077,-492,144,64173,-18,9,932*50d58c53
%RAWIMUSA,2283,32035.190;2283,32035.190001962,00000077,-491,145,64169,-27,0,-54*bd359bf6
%RAWIMUSA,2283,32035.200;2283,32035.200001962,00000077,-500,142,64170,0,0,-914*414e3f0b
%RAWIMUSA,2283,32035.210;2283,32035.210001962,00000077,-502,139,64172,18,-9,-420*5f6860fc
%RAWIMUSA,2283,32035.220;2283,32035.220001962,00000077,-494,144,64171,0,0,923*26e03f02
%RAWIMUSA,2283,32035.230;2283,32035.230001962,00000077,-493,146,64171,-27,0,905*48b5a420
%RAWIMUSA,2283,32035.240;2283,32035.240001962,00000077,-500,141,64169,-18,8,-932*41f21ebb
%RAWIMUSA,2283,32035.250;2283,32035.250001962,00000077,-498,142,64170,9,-9,-923*49079699
%RAWIMUSA,2283,32035.260;2283,32035.260001962,00000077,-497,142,64169,18,-8,475*3837d476
%RAWIMUSA,2283,32035.270;2283,32035.270001962,00000077,-491,143,64171,-27,9,932*6b58bd2b
%RAWIMUSA,2283,32035.280;2283,32035.280001962,00000077,-497,141,64170,-18,0,18*59de389d
%RAWIMUSA,2283,32035.290;2283,32035.290001962,00000077,-498,142,64171,-9,0,-923*8b95c86b
%RAWIMUSA,2283,32035.300;2283,32035.300001962,00000077,-494,142,64170,18,-9,-475*2f095422
%RAWIMUSA,2283,32035.310;2283,32035.310001962,00000077,-495,146,64174,0,0,932*c435ac9d
%RAWIMUSA,2283,32035.320;2283,32035.320001962,00000077,-503,142,64172,-27,9,932*9b594609
%RAWIMUSA,2283,32035.330;2283,32035.330001962,00000077,-497,140,64171,-18,0,-886*614ed3b7
%RAWIMUSA,2283,32035.340;2283,32035.340001962,00000077,-489,146,64170,18,-9,-923*e6879fb3
%RAWIMUSA,2283,32035.350;2283,32035.350001962,00000077,-501,143,64171,9,0,429*782d8507
%RAWIMUSA,2283,32035.360;2283,32035.360001962,00000077,-505,137,64170,-18,0,923*b09d58a1
%RAWIMUSA,2283,32035.370;2283,32035.370001962,00000077,-493,147,64170,-18,9,45*e731abed
%RAWIMUSA,2283,32035.380;2283,32035.380001962,00000077,-485,145,64172,-9,0,-914*8c125130
%RAWIMUSA,2283,32035.390;2283,32035.390001962,00000077,-501,144,64170,18,-9,-511*4395e832
%RAWIMUSA,2283,32035.400;2283,32035.400001962,00000077,-510,138,64173,0,0,932*a40c5a14
%RAWIMUSA,2283,32035.410;2283,32035.410001962,00000077,-493,144,64171,-27,0,914*76388915
%RAWIMUSA,2283,32035.420;2283,32035.420001962,00000077,-488,144,64168,-18,8,-841*ad2b0223
%RAWIMUSA,2283,32035.430;2283,32035.430001962,00000077,-499,142,64170,18,0,-923*1bff3e7c
%RAWIMUSA,2283,32035.440;2283,32035.440001962,00000077,-506,141,64171,9,-8,384*1188e520
%RAWIMUSA,2283,32035.450;2283,32035.450001962,00000077,-493,145,64172,-18,0,932*4030c401
%RAWIMUSA,2283,32035.460;2283,32035.460001962,00000077,-488,148,64169,-27,18,109*923c8dd9
%RAWIMUSA,2283,32035.470;2283,32035.470001962,00000077,-500,139,64171,0,-9,-932*8ad5fdec
%RAWIMUSA,2283,32035.480;2283,32035.480001962,00000077,-506,143,64169,9,-9,-575*87ea9506
%RAWIMUSA,2283,32035.490;2283,32035.490001962,00000077,-489,145,64171,0,9,932*03605744
%RAWIMUSA,2283,32035.500;2283,32035.500001962,00000077,-487,142,64172,-18,0,932*5aea2738
%RAWIMUSA,2283,32035.510;2283,32035.510001962,00000077,-504,142,64173,-18,0,-804*c661d5e1
%RAWIMUSA,2283,32035.520;2283,32035.520001962,00000077,-506,137,64170,9,-9,-923*016497f9
%RAWIMUSA,2283,32035.530;2283,32035.530001962,00000077,-489,145,64170,9,0,329*8aafd11d
%RAWIMUSA,2283,32035.540;2283,32035.540001962,00000077,-488,148,64169,-18,9,932*1a998efe
%RAWIMUSA,2283,32035.550;2283,32035.550001962,00000077,-506,140,64174,-27,9,155*5a3e4271
%RAWIMUSA,2283,32035.560;2283,32035.560001962,00000077,-503,143,64171,9,-9,-923*5431b25c
%RAWIMUSA,2283,32035.570;2283,32035.570001962,00000077,-491,144,64171,9,-9,-630*97a21632
%RAWIMUSA,2283,32035.580;2283,32035.580001962,00000077,-491,144,64173,-8,9,932*a19771e5
%RAWIMUSA,2283,32035.590;2283,32035.590001962,00000077,-503,142,64170,-27,9,932*32c6b2f0
%RAWIMUSA,2283,32035.600;2283,32035.600001962,00000077,-502,140,64171,-9,0,-749*559b8f9c
%RAWIMUSA,2283,32035.610;2283,32035.610001962,00000077,-493,146,64170,9,-9,-923*d86e8f88
%RAWIMUSA,2283,32035.620;2283,32035.620001962,00000077,-493,150,64170,9,0,283*5c7b171a
%RAWIMUSA,2283,32035.630;2283,32035.630001962,00000077,-499,142,64171,-18,9,932*0d46bd5f
%RAWIMUSA,2283,32035.640;2283,32035.640001962,00000077,-501,137,64172,-27,9,201*cd62ab72
%RAWIMUSA,2283,32035.650;2283,32035.650001962,00000077,-489,146,64171,9,-19,-914*de1584e7
%RAWIMUSA,2283,32035.660;2283,32035.660001962,00000077,-492,145,64170,9,0,-676*ac7c947a
%RAWIMUSA,2283,32035.670;2283,32035.670001962,00000077,-498,143,64172,-8,0,923*5d161116
%RAWIMUSA,2283,32035.680;2283,32035.680001962,00000077,-502,141,64172,-18,9,932*71c3f913
%RAWIMUSA,2283,32035.690;2283,32035.690001962,00000077,-493,145,64170,-9,0,-703*3b9e4a5d
%RAWIMUSA,2283,32035.700;2283,32035.700001962,00000077,-489,148,64168,0,-9,-914*c39f6926
%RAWIMUSA,2283,32035.710;2283,32035.710001962,00000077,-501,136,64173,9,0,228*d348299e
%RAWIMUSA,2283,32035.720;2283,32035.720001962,00000077,-505,140,64169,-18,9,941*98004df4
%RAWIMUSA,2283,32035.730;2283,32035.730001962,00000077,-495,143,64169,-27,9,246*ade7e5a6
%RAWIMUSA,2283,32035.740;2283,32035.740001962,00000077,-488,146,64171,9,-9,-923*6fbd4014
%RAWIMUSA,2283,32035.750;2283,32035.750001962,00000077,-504,143,64171,9,-9,-722*4a222697
%RAWIMUSA,2283,32035.760;2283,32035.760001962,00000077,-505,145,64172,-8,0,932*37db445c
%RAWIMUSA,2283,32035.770;2283,32035.770001962,00000077,-490,146,64171,-27,9,932*3aabcef1
%RAWIMUSA,2283,32035.780;2283,32035.780001962,00000077,-483,142,64173,-9,0,-649*a4fadd18
%RAWIMUSA,2283,32035.790;2283,32035.790001962,00000077,-506,141,64171,9,-9,-932*2e4c5c1a
%RAWIMUSA,2283,32035.800;2283,32035.800001962,00000077,-505,139,64170,9,0,173*564fe9d2
%RAWIMUSA,2283,32035.810;2283,32035.810001962,00000077,-488,142,64173,-27,0,932*420581de
%RAWIMUSA,2283,32035.820;2283,32035.820001962,00000077,-489,146,64172,-18,9,320*f1c8c750
%RAWIMUSA,2283,32035.830;2283,32035.830001962,00000077,-503,142,64170,9,-9,-923*74747736
%RAWIMUSA,2283,32035.840;2283,32035.840001962,00000077,-505,141,64171,9,-9,-786*0a5c6a8f
%RAWIMUSA,2283,32035.850;2283,32035.850001962,00000077,-491,141,64173,-8,9,932*71f48d9d
%RAWIMUSA,2283,32035.860;2283,32035.860001962,00000077,-489,144,64172,-18,9,932*54a8d2c7
%RAWIMUSA,2283,32035.870;2283,32035.870001962,00000077,-498,143,64170,-18,-9,-603*20e5c62b
%RAWIMUSA,2283,32035.880;2283,32035.880001962,00000077,-502,145,64172,18,0,-914*39416abf
%RAWIMUSA,2283,32035.890;2283,32035.890001962,00000077,-494,142,64171,0,0,118*baf5489c
%RAWIMUSA,2283,32035.900;2283,32035.900001962,00000077,-488,140,64169,-18,9,932*2ea3bf6b
%RAWIMUSA,2283,32035.910;2283,32035.910001962,00000077,-499,145,64169,-27,0,365*703f1378
%RAWIMUSA,2283,32035.920;2283,32035.920001962,00000077,-502,144,64170,9,-9,-923*f8ddec42
%RAWIMUSA,2283,32035.930;2283,32035.930001962,00000077,-496,146,64170,9,0,-831*f8723ef3
%RAWIMUSA,2283,32035.940;2283,32035.940001962,00000077,-485,141,64169,-8,9,923*54627e78
%RAWIMUSA,2283,32035.950;2283,32035.950001962,00000077,-497,138,64173,-18,9,923*57fb0222
%RAWIMUSA,2283,32035.960;2283,32035.960001962,00000077,-505,147,64171,-9,-9,-539*c7e0cd8f
%RAWIMUSA,2283,32035.970;2283,32035.970001962,00000077,-494,146,64171,9,-9,-923*1c0708f6
%RAWIMUSA,2283,32035.980;2283,32035.980001962,00000077,-493,139,64173,0,0,73*2873e5c0
%RAWIMUSA,2283,32035.990;2283,32035.990001962,00000077,-501,138,64168,-18,9,923*6b4993a7
%RAWIMUSA,2283,32036.000;2283,32036.000001962,00000077,-502,151,64170,-27,0,402*cb26787a
%RAWIMUSA,2283,32036.010;2283,32036.010001962,00000077,-497,148,64171,9,-9,-932*b3155187
%RAWIMUSA,2283,32036.020;2283,32036.020001962,00000077,-491,138,64170,9,0,-868*58fd6abf
%RAWIMUSA,2283,32036.030;2283,32036.030001962,00000077,-498,136,64170,-8,0,932*ebf9ddf0
%RAWIMUSA,2283,32036.040;2283,32036.040001962,00000077,-502,148,64172,-27,9,923*d689005a
%RAWIMUSA,2283,32036.050;2283,32036.050001962,00000077,-496,147,64171,0,-9,-502*ef07addb
%RAWIMUSA,2283,32036.060;2283,32036.060001962,00000077,-494,137,64171,9,-9,-923*1ba14636
%RAWIMUSA,2283,32036.070;2283,32036.070001962,00000077,-499,141,64172,0,9,36*38d6fe6d
%RAWIMUSA,2283,32036.080;2283,32036.080001962,00000077,-502,148,64171,-18,9,923*70bfe62d
%RAWIMUSA,2283,32036.090;2283,32036.090001962,00000077,-495,149,64171,-27,0,457*2756815e
%RAWIMUSA,2283,32036.100;2283,32036.100001962,00000077,-491,138,64169,9,-9,-923*5f3b5d3a
%RAWIMUSA,2283,32036.110;2283,32036.110001962,00000077,-497,138,64169,18,0,-914*678d0fa3
%RAWIMUSA,2283,32036.120;2283,32036.120001962,00000077,-503,150,64171,-18,9,932*e17568b1
%RAWIMUSA,2283,32036.130;2283,32036.130001962,00000077,-496,145,64172,-27,0,923*790839ca
%RAWIMUSA,2283,32036.140;2283,32036.140001962,00000077,-491,138,64171,-9,0,-447*e8632679
%RAWIMUSA,2283,32036.150;2283,32036.150001962,00000077,-493,139,64172,18,-9,-923*378cd2e1
%RAWIMUSA,2283,32036.160;2283,32036.160001962,00000077,-502,147,64170,-9,9,-27*6ad60d3d
%RAWIMUSA,2283,32036.170;2283,32036.170001962,00000077,-498,147,64173,-18,0,932*22705c4b
%RAWIMUSA,2283,32036.180;2283,32036.180001962,00000077,-491,134,64170,-18,0,503*b0e971d0
%RAWIMUSA,2283,32036.190;2283,32036.190001962,00000077,-492,137,64171,9,0,-923*d9b58a2f
%RAWIMUSA,2283,32036.200;2283,32036.200001962,00000077,-500,148,64169,9,0,-923*e7ccead3
%RAWIMUSA,2283,32036.210;2283,32036.210001962,00000077,-499,145,64172,-18,0,877*88283b68
%RAWIMUSA,2283,32036.220;2283,32036.220001962,00000077,-492,136,64172,-18,9,923*037c24d8
%RAWIMUSA,2283,32036.230;2283,32036.230001962,00000077,-494,144,64171,-9,-9,-383*a899334d
%RAWIMUSA,2283,32036.240;2283,32036.240001962,00000077,-500,146,64170,18,0,-923*eae96a4e
%RAWIMUSA,2283,32036.250;2283,32036.250001962,00000077,-500,144,64170,-9,0,-73*2ae8e36a
%RAWIMUSA,2283,32036.260;2283,32036.260001962,00000077,-493,143,64170,-18,9,932*3488a953
%RAWIMUSA,2283,32036.270;2283,32036.270001962,00000077,-497,139,64172,-18,0,548*bf127352
%RAWIMUSA,2283,32036.280;2283,32036.280001962,00000077,-501,146,64172,9,-9,-923*a81d60d8
%RAWIMUSA,2283,32036.290;2283,32036.290001962,00000077,-490,144,64168,9,0,-923*367e3dcf
%RAWIMUSA,2283,32036.300;2283,32036.300001962,00000077,-490,137,64171,-18,9,823*5dbdb0ed
%RAWIMUSA,2283,32036.310;2283,32036.310001962,00000077,-501,146,64171,-18,0,941*9ce2c226
%RAWIMUSA,2283,32036.320;2283,32036.320001962,00000077,-501,147,64173,0,-9,-347*7778d1e3
%RAWIMUSA,2283,32036.330;2283,32036.330001962,00000077,-492,140,64170,9,0,-923*b2efcc63
%RAWIMUSA,2283,32036.340;2283,32036.340001962,00000077,-491,141,64170,0,9,-127*270e4dfb
%RAWIMUSA,2283,32036.350;2283,32036.350001962,00000077,-503,148,64169,-27,0,923*532977ac
%RAWIMUSA,2283,32036.360;2283,32036.360001962,00000077,-502,146,64170,-18,0,603*3d56d124
%RAWIMUSA,2283,32036.370;2283,32036.370001962,00000077,-492,136,64169,18,-9,-923*e7bee634
%RAWIMUSA,2283,32036.380;2283,32036.380001962,00000077,-487,146,64169,9,0,-932*028f82b4
%RAWIMUSA,2283,32036.390;2283,32036.390001962,00000077,-502,139,64174,-18,9,777*b80acb2c
%RAWIMUSA,2283,32036.400;2283,32036.400001962,00000077,-506,154,64170,-8,0,932*31bd39e4
%RAWIMUSA,2283,32036.410;2283,32036.410001962,00000077,-492,126,64175,-18,-9,-301*eade41dd
%RAWIMUSA,2283,32036.420;2283,32036.420001962,00000077,-490,160,64168,27,0,-923*b3a9715c
%RAWIMUSA,2283,32036.430;2283,32036.430001962,00000077,-502,136,64174,-18,9,-182*d63acb6e
%RAWIMUSA,2283,32036.440;2283,32036.440001962,00000077,-504,154,64162,0,9,932*853c359b
%RAWIMUSA,2283,32036.450;2283,32036.450001962,00000077,-492,128,64172,-45,-8,658*f5e0e018
%RAWIMUSA,2283,32036.460;2283,32036.460001962,00000077,-491,158,64168,36,-10,-923*55683908
%RAWIMUSA,2283,32036.470;2283,32036.470001962,00000077,-500,132,64177,-18,0,-923*17fb3ad4
%RAWIMUSA,2283,32036.480;2283,32036.480001962,00000077,-500,156,64164,9,9,722*d845395b
%RAWIMUSA,2283,32036.490;2283,32036.490001962,00000077,-493,126,64176,-45,0,941*aeade462
%RAWIMUSA,2283,32036.500;2283,32036.500001962,00000077,-494,157,64165,27,-9,-246*8d27e1ce
%RAWIMUSA,2283,32036.510;2283,32036.510001962,00000077,-502,132,64176,-18,0,-932*a38c940f
%RAWIMUSA,2283,32036.520;2283,32036.520001962,00000077,-496,152,64165,27,8,-228*caba3954
%RAWIMUSA,2283,32036.530;2283,32036.530001962,00000077,-490,123,64175,-54,0,923*0338d426
%RAWIMUSA,2283,32036.540;2283,32036.540001962,00000077,-494,161,64164,9,-8,713*b14d6fce
%RAWIMUSA,2283,32036.550;2283,32036.550001962,00000077,-503,131,64172,-9,0,-923*16c42e2a
%RAWIMUSA,2283,32036.560;2283,32036.560001962,00000077,-498,154,64165,36,0,-932*f7867309
%RAWIMUSA,2283,32036.570;2283,32036.570001962,00000077,-491,130,64175,-45,9,685*d4e989ef
%RAWIMUSA,2283,32036.580;2283,32036.580001962,00000077,-495,164,64169,-8,0,932*255661b6
%RAWIMUSA,2283,32036.590;2283,32036.590001962,00000077,-504,128,64175,-9,-9,-191*a287bdd5
%RAWIMUSA,2283,32036.600;2283,32036.600001962,00000077,-496,147,64168,18,0,-923*338114be
%RAWIMUSA,2283,32036.610;2283,32036.610001962,00000077,-488,134,64177,-18,8,-283*91836f00
%RAWIMUSA,2283,32036.620;2283,32036.620001962,00000077,-494,162,64168,-8,0,932*1c02a7ec
%RAWIMUSA,2283,32036.630;2283,32036.630001962,00000077,-505,132,64175,-27,-8,759*d6e1f6d5
%RAWIMUSA,2283,32036.640;2283,32036.640001962,00000077,-502,147,64165,27,-9,-923*ea41e83e
%RAWIMUSA,2283,32036.650;2283,32036.650001962,00000077,-484,130,64173,-9,8,-923*e115f9f0
%RAWIMUSA,2283,32036.660;2283,32036.660001962,00000077,-496,162,64166,0,9,621*baf50f88
%RAWIMUSA,2283,32036.670;2283,32036.670001962,00000077,-503,128,64179,-45,0,923*05d02875
%RAWIMUSA,2283,32036.680;2283,32036.680001963,00000077,-503,158,64166,18,-9,-127*5a1e6138
%RAWIMUSA,2283,32036.690;2283,32036.690001963,00000077,-485,124,64175,0,-9,-923*865283cf
%RAWIMUSA,2283,32036.700;2283,32036.700001963,00000077,-491,157,64166,0,8,-329*df7d6a90
%RAWIMUSA,2283,32036.710;2283,32036.710001963,00000077,-501,133,64175,-27,9,932*62e97722
%RAWIMUSA,2283,32036.720;2283,32036.720001963,00000077,-501,155,64167,-8,-8,804*d805c6f6
%RAWIMUSA,2283,32036.730;2283,32036.730001963,00000077,-492,128,64172,9,-9,-914*341a9914
%RAWIMUSA,2283,32036.740;2283,32036.740001963,00000077,-490,153,64172,9,0,-923*d8f8963f
%RAWIMUSA,2283,32036.750;2283,32036.750001963,00000077,-500,137,64174,-18,9,576*d6b7d32b
%RAWIMUSA,2283,32036.760;2283,32036.760001963,00000077,-502,147,64171,-36,0,932*c6df6f87
%RAWIMUSA,2283,32036.770;2283,32036.770001963,00000077,-495,137,64172,27,-9,-91*d16738b6
%RAWIMUSA,2283,32036.780;2283,32036.780001963,00000077,-494,144,64170,-9,8,-923*c13399cc
%RAWIMUSA,2283,32036.790;2283,32036.790001963,00000077,-499,150,64171,9,0,-374*58851092
%RAWIMUSA,2283,32036.800;2283,32036.800001963,00000077,-501,136,64171,-45,9,932*81748350
%RAWIMUSA,2283,32036.810;2283,32036.810001963,00000077,-492,143,64167,9,-8,859*4d48e577
%RAWIMUSA,2283,32036.820;2283,32036.820001963,00000077,-494,142,64170,0,-9,-923*49eb4526
%RAWIMUSA,2283,32036.830;2283,32036.830001963,00000077,-498,151,64170,27,8,-932*77ab2f39
%RAWIMUSA,2283,32036.840;2283,32036.840001963,00000077,-502,135,64171,-45,9,521*ab269343
%RAWIMUSA,2283,32036.850;2283,32036.850001963,00000077,-492,141,64169,0,-8,923*05d0ff38
%RAWIMUSA,2283,32036.860;2283,32036.860001963,00000077,-489,137,64174,-18,0,-36*6bab182d
%RAWIMUSA,2283,32036.870;2283,32036.870001963,00000077,-498,159,64169,36,0,-923*a313d5c1
%RAWIMUSA,2283,32036.880;2283,32036.880001963,00000077,-501,129,64175,-36,8,-429*835516b2
%RAWIMUSA,2283,32036.890;2283,32036.890001963,00000077,-491,152,64166,0,0,932*5dcb132f
%RAWIMUSA,2283,32036.900;2283,32036.900001963,00000077,-492,131,64177,-27,-8,914*59db5cc0
%RAWIMUSA,2283,32036.910;2283,32036.910001963,00000077,-500,162,64166,27,0,-923*8a815f16
%RAWIMUSA,2283,32036.920;2283,32036.920001963,00000077,-497,119,64174,-9,0,-923*3624f8c7
%RAWIMUSA,2283,32036.930;2283,32036.930001963,00000077,-492,155,64165,-18,9,466*fe0db957
%RAWIMUSA,2283,32036.940;2283,32036.940001963,00000077,-495,133,64173,-18,-8,932*367b3e02
%RAWIMUSA,2283,32036.950;2283,32036.950001963,00000077,-502,159,64170,0,-9,9*7d0a249a
%RAWIMUSA,2283,32036.960;2283,32036.960001963,00000077,-494,130,64173,18,8,-923*e1b0e384
%RAWIMUSA,2283,32036.970;2283,32036.970001963,00000077,-491,142,64169,-18,8,-484*92e28056
%RAWIMUSA,2283,32036.980;2283,32036.980001963,00000077,-499,158,64168,-8,-8,932*ace27c73
%RAWIMUSA,2283,32036.990;2283,32036.990001963,00000077,-500,129,64177,-27,-8,923*7bed8389
%RAWIMUSA,2283,32037.000;2283,32037.000001963,00000077,-491,144,64165,36,0,-886*f8726e98
%RAWIMUSA,2283,32037.010;2283,32037.010001963,00000077,-494,137,64171,-18,8,-923*db4ec62f
%RAWIMUSA,2283,32037.020;2283,32037.020001963,00000077,-500,157,64168,0,9,429*aca800b5
%RAWIMUSA,2283,32037.030;2283,32037.030001963,00000077,-501,133,64172,-36,-8,923*a80cf5a7
%RAWIMUSA,2283,32037.040;2283,32037.040001963,00000077,-495,151,64172,18,-9,64*9b324a28
%RAWIMUSA,2283,32037.050;2283,32037.050001963,00000077,-493,129,64178,9,8,-923*74fd1ce7
%RAWIMUSA,2283,32037.060;2283,32037.060001963,00000077,-499,166,64165,-18,8,-530*8eeab9c9
%RAWIMUSA,2283,32037.070;2283,32037.070001963,00000077,-499,128,64174,-18,-8,932*ac9b9767
%RAWIMUSA,2283,32037.080;2283,32037.080001963,00000077,-492,142,64172,-18,0,923*45a2241b
%RAWIMUSA,2283,32037.090;2283,32037.090001963,00000077,-501,151,64168,27,0,-841*815cee89
%RAWIMUSA,2283,32037.100;2283,32037.100001963,00000077,-498,134,64173,-9,0,-932*85c96dfa
%RAWIMUSA,2283,32037.110;2283,32037.110001963,00000077,-494,148,64165,-8,9,374*7cf1c36b
%RAWIMUSA,2283,32037.120;2283,32037.120001963,00000077,-493,139,64170,-27,-8,932*99707a13
%RAWIMUSA,2283,32037.130;2283,32037.130001963,00000077,-498,147,64174,9,0,118*df5d5edc
%RAWIMUSA,2283,32037.140;2283,32037.140001963,00000077,-500,148,64172,18,0,-923*430791aa
%RAWIMUSA,2283,32037.150;2283,32037.150001963,00000077,-499,131,64173,-27,8,-585*45cf7774
%RAWIMUSA,2283,32037.160;2283,32037.160001963,00000077,-492,148,64168,-18,0,923*ec144ae8
%RAWIMUSA,2283,32037.170;2283,32037.170001963,00000077,-499,150,64170,0,-8,932*4ba5076c
%RAWIMUSA,2283,32037.180;2283,32037.180001963,00000077,-499,133,64172,9,0,-795*46ac58f4
%RAWIMUSA,2283,32037.190;2283,32037.190001963,00000077,-497,147,64170,0,8,-923*a995b8a6
%RAWIMUSA,2283,32037.200;2283,32037.200001963,00000077,-495,144,64171,-18,9,320*5c799010
%RAWIMUSA,2283,32037.210;2283,32037.210001963,00000077,-497,140,64172,-27,-8,923*261aa8f0
%RAWIMUSA,2283,32037.220;2283,32037.220001963,00000077,-500,146,64168,9,-9,164*24f17483
%RAWIMUSA,2283,32037.230;2283,32037.230001963,00000077,-502,143,64171,18,8,-914*5ed6004d
%RAWIMUSA,2283,32037.240;2283,32037.240001963,00000077,-496,142,64172,-18,8,-630*1b4577db
%RAWIMUSA,2283,32037.250;2283,32037.250001963,00000077,-488,143,64168,-27,-8,941*33d395e8
%RAWIMUSA,2283,32037.260;2283,32037.260001963,00000077,-494,140,64173,0,-8,932*75230f28
%RAWIMUSA,2283,32037.270;2283,32037.270001963,00000077,-510,142,64174,9,0,-740*bfe0b203
%RAWIMUSA,2283,32037.280;2283,32037.280001963,00000077,-498,150,64171,0,8,-914*11982846
%RAWIMUSA,2283,32037.290;2283,32037.290001963,00000077,-489,138,64173,-18,0,265*3d8aea39
%RAWIMUSA,2283,32037.300;2283,32037.300001963,00000077,-492,143,64174,-27,0,932*e6daffe9
%RAWIMUSA,2283,32037.310;2283,32037.310001963,00000077,-503,146,64171,18,-9,219*a1624281
%RAWIMUSA,2283,32037.320;2283,32037.320001963,00000077,-496,145,64170,9,8,-932*96709645
%RAWIMUSA,2283,32037.330;2283,32037.330001963,00000077,-490,139,64171,-27,8,-676*a62b9a5d
%RAWIMUSA,2283,32037.340;2283,32037.340001963,00000077,-494,139,64169,-18,-8,932*f609e578
%RAWIMUSA,2283,32037.350;2283,32037.350001963,00000077,-503,145,64171,0,-8,932*3bae9fe9
%RAWIMUSA,2283,32037.360;2283,32037.360001963,00000077,-500,144,64171,9,0,-685*048e9775
%RAWIMUSA,2283,32037.370;2283,32037.370001963,00000077,-490,140,64169,0,8,-923*b1a8ba5c
%RAWIMUSA,2283,32037.380;2283,32037.380001963,00000077,-491,143,64171,-27,9,219*84ff4045
%RAWIMUSA,2283,32037.390;2283,32037.390001963,00000077,-504,150,64169,-8,-8,932*b36d03b3
%RAWIMUSA,2283,32037.400;2283,32037.400001963,00000077,-498,141,64167,9,-9,256*cc409844
%RAWIMUSA,2283,32037.410;2283,32037.410001963,00000077,-489,138,64170,9,8,-914*d854b2b0
%RAWIMUSA,2283,32037.420;2283,32037.420001963,00000077,-496,149,64173,-18,8,-731*77218e20
%RAWIMUSA,2283,32037.430;2283,32037.430001963,00000077,-504,146,64170,-27,-8,932*c2569353
%RAWIMUSA,2283,32037.440;2283,32037.440001963,00000077,-497,137,64171,0,-8,932*10e9edf2
%RAWIMUSA,2283,32037.450;2283,32037.450001963,00000077,-490,143,64172,18,8,-630*279cc24d
%RAWIMUSA,2283,32037.460;2283,32037.460001963,00000077,-495,141,64171,-9,8,-923*fbb5d84c
%RAWIMUSA,2283,32037.470;2283,32037.470001963,00000077,-503,146,64171,-27,-9,173*2b618946
%RAWIMUSA,2283,32037.480;2283,32037.480001963,00000077,-500,144,64172,-8,-8,932*1df7e59f
%RAWIMUSA,2283,32037.490;2283,32037.490001963,00000077,-491,136,64169,9,0,310*b344e954
%RAWIMUSA,2283,32037.500;2283,32037.500001963,00000077,-490,143,64170,9,8,-923*3c2398b0
%RAWIMUSA,2283,32037.510;2283,32037.510001963,00000077,-499,144,64171,-18,8,-777*6c3d910e
%RAWIMUSA,2283,32037.520;2283,32037.520001963,00000077,-502,142,64171,-27,-8,932*6e1a9641
%RAWIMUSA,2283,32037.530;2283,32037.530001963,00000077,-494,144,64171,0,-8,923*c48bbd5d
%RAWIMUSA,2283,32037.540;2283,32037.540001963,00000077,-492,142,64168,18,8,-585*186b2067
%RAWIMUSA,2283,32037.550;2283,32037.550001963,00000077,-504,145,64171,-9,8,-923*3e6fd0be
%RAWIMUSA,2283,32037.560;2283,32037.560001963,00000077,-504,144,64170,-27,-9,118*5ff12a1f
%RAWIMUSA,2283,32037.570;2283,32037.570001963,00000077,-491,143,64173,-8,-8,923*63369f82
%RAWIMUSA,2283,32037.580;2283,32037.580001963,00000077,-490,142,64170,9,0,374*79b0e8c1
%RAWIMUSA,2283,32037.590;2283,32037.590001963,00000077,-499,146,64170,9,8,-914*3fddeff0
%RAWIMUSA,2283,32037.600;2283,32037.600001963,00000077,-500,144,64171,-18,8,-841*d9d3110d
%RAWIMUSA,2283,32037.610;2283,32037.610001963,00000077,-496,141,64173,-27,-17,941*17c9ef1a
%RAWIMUSA,2283,32037.620;2283,32037.620001963,00000077,-490,138,64173,0,0,923*14c1288e
%RAWIMUSA,2283,32037.630;2283,32037.630001963,00000077,-496,142,64170,9,8,-530*4b52736f
%RAWIMUSA,2283,32037.640;2283,32037.640001963,00000077,-503,151,64171,-9,0,-923*886f1897
%RAWIMUSA,2283,32037.650;2283,32037.650001963,00000077,-497,139,64170,-18,0,73*b6f95ff4
%RAWIMUSA,2283,32037.660;2283,32037.660001963,00000077,-491,136,64168,-8,-8,923*61dcef73
%RAWIMUSA,2283,32037.670;2283,32037.670001963,00000077,-495,146,64170,9,0,402*0ef553ad
%RAWIMUSA,2283,32037.680;2283,32037.680001963,00000077,-502,152,64170,9,8,-932*cc2ba47a
%RAWIMUSA,2283,32037.690;2283,32037.690001963,00000077,-496,139,64171,-27,8,-886*b9570516
%RAWIMUSA,2283,32037.700;2283,32037.700001963,00000077,-487,138,64171,-18,-8,932*8178aedb
%RAWIMUSA,2283,32037.710;2283,32037.710001963,00000077,-495,146,64172,9,-8,932*240ba97f
%RAWIMUSA,2283,32037.720;2283,32037.720001963,00000077,-504,148,64170,9,8,-484*7165f3fe
%RAWIMUSA,2283,32037.730;2283,32037.730001963,00000077,-499,142,64169,-9,8,-923*9a722ef6
%RAWIMUSA,2283,32037.740;2283,32037.740001963,00000077,-493,130,64167,-18,0,18*8ba4d538
%RAWIMUSA,2283,32037.750;2283,32037.750001963,00000077,-495,148,64170,-8,-8,932*8045b170
%RAWIMUSA,2283,32037.760;2283,32037.760001963,00000077,-502,152,64172,9,0,466*00bdab46
%RAWIMUSA,2283,32037.770;2283,32037.770001963,00000077,-496,136,64172,0,8,-914*4171809a
%RAWIMUSA,2283,32037.780;2283,32037.780001963,00000077,-492,136,64172,-18,0,-923*ad1efe43
%RAWIMUSA,2283,32037.790;2283,32037.790001963,00000077,-495,145,64174,-27,-8,914*4de665c9
%RAWIMUSA,2283,32037.800;2283,32037.800001963,00000077,-497,152,64171,9,0,932*efa09c19
%RAWIMUSA,2283,32037.810;2283,32037.810001963,00000077,-498,136,64172,9,8,-438*72d56678
%RAWIMUSA,2283,32037.820;2283,32037.820001963,00000077,-494,136,64169,-9,0,-914*0f85bad1
%RAWIMUSA,2283,32037.830;2283,32037.830001963,00000077,-493,150,64169,-18,0,-27*f67e1435
%RAWIMUSA,2283,32037.840;2283,32037.840001963,00000077,-498,148,64170,-8,-8,923*b0924d26
%RAWIMUSA,2283,32037.850;2283,32037.850001963,00000077,-497,135,64172,9,0,512*f059f30c
%RAWIMUSA,2283,32037.860;2283,32037.860001963,00000077,-499,137,64169,0,8,-914*09bdccc8
%RAWIMUSA,2283,32037.870;2283,32037.870001963,00000077,-502,148,64174,-18,0,-923*21a97b0f
%RAWIMUSA,2283,32037.880;2283,32037.880001963,00000077,-494,146,64170,-27,0,859*20cd1677
%RAWIMUSA,2283,32037.890;2283,32037.890001963,00000077,-495,137,64172,9,-8,932*3df64cb2
%RAWIMUSA,2283,32037.900;2283,32037.900001963,00000077,-496,140,64170,9,8,-383*21a32bb7
%RAWIMUSA,2283,32037.910;2283,32037.910001963,00000077,-500,151,64172,-9,8,-923*fb045d21
%RAWIMUSA,2283,32037.920;2283,32037.920001963,00000077,-496,144,64172,-27,-9,-91*b44c2a9b
%RAWIMUSA,2283,32037.930;2283,32037.930001963,00000077,-495,134,64170,0,0,941*07ee57dd
%RAWIMUSA,2283,32037.940;2283,32037.940001963,00000077,-498,138,64170,9,0,548*84598032
%RAWIMUSA,2283,32037.950;2283,32037.950001963,00000077,-497,149,64171,9,8,-914*a1265c01
%RAWIMUSA,2283,32037.960;2283,32037.960001963,00000077,-495,146,64170,-27,0,-914*5fe08c9e
%RAWIMUSA,2283,32037.970;2283,32037.970001963,00000077,-494,137,64172,-18,-8,823*caf9775f
%RAWIMUSA,2283,32037.980;2283,32037.980001963,00000077,-500,142,64171,9,0,932*280d74e1
%RAWIMUSA,2283,32037.990;2283,32037.990001963,00000077,-497,151,64173,9,8,-347*19b7fbf7
%RAWIMUSA,2283,32038.000;2283,32038.000001963,00000077,-497,145,64168,-18,8,-914*4b46c39f
%RAWIMUSA,2283,32038.010;2283,32038.010001963,00000077,-495,135,64170,-18,-9,-137*9b5b4815
%RAWIMUSA,2283,32038.020;2283,32038.020001963,00000077,-497,143,64172,-8,-8,941*dd7dd515
%RAWIMUSA,2283,32038.030;2283,32038.030001963,00000077,-500,150,64170,18,9,603*5cec65bd
%RAWIMUSA,2283,32038.040;2283,32038.040001963,00000077,-495,140,64173,0,8,-914*480acdcd
%RAWIMUSA,2283,32038.050;2283,32038.050001963,00000077,-493,134,64171,-27,-9,-923*8eef438d
%RAWIMUSA,2283,32038.060;2283,32038.060001963,00000077,-497,144,64168,-18,-8,777*33e47c37
%RAWIMUSA,2283,32038.070;2283,32038.070001963,00000077,-501,154,64172,9,0,923*fa1fdd4b
%RAWIMUSA,2283,32038.080;2283,32038.080001963,00000077,-497,144,64170,9,8,-283*4046950b
%RAWIMUSA,2283,32038.090;2283,32038.090001963,00000077,-490,132,64171,-9,8,-941*24946bb2
%RAWIMUSA,2283,32038.100;2283,32038.100001963,00000077,-495,147,64169,-27,-9,-182*9900c12f
%RAWIMUSA,2283,32038.110;2283,32038.110001963,00000077,-501,149,64171,0,-8,932*fb02c041
%RAWIMUSA,2283,32038.120;2283,32038.120001963,00000077,-498,138,64171,9,9,658*92469584
%RAWIMUSA,2283,32038.130;2283,32038.130001963,00000077,-492,138,64171,0,0,-923*bbadc861
%RAWIMUSA,2283,32038.140;2283,32038.140001963,00000077,-496,141,64169,-27,0,-923*01e38e61
%RAWIMUSA,2283,32038.150;2283,32038.150001963,00000077,-501,149,64171,-18,-8,722*b06af07c
%RAWIMUSA,2283,32038.160;2283,32038.160001963,00000077,-497,145,64172,9,0,932*01ef51bd
%RAWIMUSA,2283,32038.170;2283,32038.170001963,00000077,-492,134,64170,9,8,-246*4adc5463
%RAWIMUSA,2283,32038.180;2283,32038.180001963,00000077,-493,143,64169,-9,0,-923*f8246e79
%RAWIMUSA,2283,32038.190;2283,32038.190001963,00000077,-498,149,64169,-27,-9,-228*bb41bbdd
%RAWIMUSA,2283,32038.200;2283,32038.200001963,00000077,-499,141,64173,-8,0,923*b966cc94
%RAWIMUSA,2283,32038.210;2283,32038.210001963,00000077,-493,134,64170,18,9,722*f190ae0b
%RAWIMUSA,2283,32038.220;2283,32038.220001963,00000077,-496,145,64174,0,8,-923*32a42aaa
%RAWIMUSA,2283,32038.230;2283,32038.230001963,00000077,-498,151,64171,-27,-9,-923*c0b8ef54
%RAWIMUSA,2283,32038.240;2283,32038.240001963,00000077,-499,144,64171,-18,-8,658*86437f71
%RAWIMUSA,2283,32038.250;2283,32038.250001963,00000077,-494,133,64171,9,9,932*c0694344
%RAWIMUSA,2283,32038.260;2283,32038.260001963,00000077,-494,144,64171,18,0,-191*ecb93675
%RAWIMUSA,2283,32038.270;2283,32038.270001963,00000077,-494,153,64168,-18,0,-923*555c8331
%RAWIMUSA,2283,32038.280;2283,32038.280001963,00000077,-497,139,64170,-27,0,-292*0f65421b
%RAWIMUSA,2283,32038.290;2283,32038.290001963,00000077,-502,139,64171,9,-8,932*bb621580
%RAWIMUSA,2283,32038.300;2283,32038.300001963,00000077,-496,147,64173,9,9,768*5ad8edca
%RAWIMUSA,2283,32038.310;2283,32038.310001963,00000077,-494,146,64172,-9,0,-923*b31ecc4b
%RAWIMUSA,2283,32038.320;2283,32038.320001963,00000077,-497,141,64172,-18,0,-914*45191375
%RAWIMUSA,2283,32038.330;2283,32038.330001963,00000077,-499,138,64171,-18,-8,612*367772a1
%RAWIMUSA,2283,32038.340;2283,32038.340001963,00000077,-497,146,64171,18,0,932*c5e1ddd8
%RAWIMUSA,2283,32038.350;2283,32038.350001963,00000077,-493,148,64173,9,9,-137*2a431bf0
%RAWIMUSA,2283,32038.360;2283,32038.360001963,00000077,-500,135,64171,-27,0,-923*6e9062f4
%RAWIMUSA,2283,32038.370;2283,32038.370001963,00000077,-497,139,64171,-18,-9,-329*5d52fa58
%RAWIMUSA,2283,32038.380;2283,32038.380001963,00000077,-495,147,64173,0,0,932*472563ae
%RAWIMUSA,2283,32038.390;2283,32038.390001963,00000077,-494,144,64173,9,9,813*d086b759
%RAWIMUSA,2283,32038.400;2283,32038.400001963,00000077,-496,141,64170,0,8,-923*fc833d44
%RAWIMUSA,2283,32038.410;2283,32038.410001963,00000077,-496,142,64170,-27,-9,-932*72541058
%RAWIMUSA,2283,32038.420;2283,32038.420001963,00000077,-496,147,64170,-8,-8,567*8cdf13f6
%RAWIMUSA,2283,32038.430;2283,32038.430001963,00000077,-495,142,64172,9,9,932*a3e816c3
%RAWIMUSA,2283,32038.440;2283,32038.440001963,00000077,-500,139,64170,9,9,-91*9b01dba5
%RAWIMUSA,2283,32038.450;2283,32038.450001963,00000077,-497,141,64170,-18,-9,-923*c602f92d
%RAWIMUSA,2283,32038.460;2283,32038.460001963,00000077,-495,149,64172,-27,0,-374*e3662bd8
%RAWIMUSA,2283,32038.470;2283,32038.470001963,00000077,-498,144,64172,0,0,932*763efa33
%RAWIMUSA,2283,32038.480;2283,32038.480001963,00000077,-501,139,64170,18,9,859*5b0006f8
%RAWIMUSA,2283,32038.490;2283,32038.490001963,00000077,-494,146,64172,-9,0,-914*ebb443a4
%RAWIMUSA,2283,32038.500;2283,32038.500001963,00000077,-492,144,64170,-18,0,-923*f898a456
%RAWIMUSA,2283,32038.510;2283,32038.510001963,00000077,-497,140,64171,-18,-8,512*e96cecc4
%RAWIMUSA,2283,32038.520;2283,32038.520001963,00000077,-501,139,64168,18,9,932*0124d966
%RAWIMUSA,2283,32038.530;2283,32038.530001963,00000077,-493,146,64172,9,0,-45*86d0917c
%RAWIMUSA,2283,32038.540;2283,32038.540001963,00000077,-491,148,64172,-18,0,-914*b338cd43
%RAWIMUSA,2283,32038.550;2283,32038.550001963,00000077,-502,140,64167,-27,-9,-438*47cab500
%RAWIMUSA,2283,32038.560;2283,32038.560001963,00000077,-503,137,64170,9,0,932*9480520d
%RAWIMUSA,2283,32038.570;2283,32038.570001963,00000077,-491,148,64169,9,9,914*3640588a
%RAWIMUSA,2283,32038.580;2283,32038.580001963,00000077,-492,148,64170,-9,8,-923*e99cecda
%RAWIMUSA,2283,32038.590;2283,32038.590001963,00000077,-504,138,64172,-27,-9,-923*e48743c5
%RAWIMUSA,2283,32038.600;2283,32038.600001963,00000077,-503,140,64168,0,-8,466*cc76c154
%RAWIMUSA,2283,32038.610;2283,32038.610001963,00000077,-488,145,64175,9,9,932*ff4f9b2b
%RAWIMUSA,2283,32038.620;2283,32038.620001963,00000077,-493,149,64170,0,9,9*7f9b0bab
%RAWIMUSA,2283,32038.630;2283,32038.630001963,00000077,-506,140,64172,-18,-9,-923*9ece29d0
%RAWIMUSA,2283,32038.640;2283,32038.640001963,00000077,-501,139,64171,-27,-9,-493*a6556e0c
%RAWIMUSA,2283,32038.650;2283,32038.650001963,00000077,-489,148,64174,9,9,941*4d1f35de
%RAWIMUSA,2283,32038.660;2283,32038.660001963,00000077,-495,145,64168,9,9,932*a7b9561c
%RAWIMUSA,2283,32038.670;2283,32038.670001963,00000077,-503,135,64171,-9,0,-886*56fe44a2
%RAWIMUSA,2283,32038.680;2283,32038.680001963,00000077,-496,139,64171,-27,-9,-914*d879a59b
%RAWIMUSA,2283,32038.690;2283,32038.690001963,00000077,-491,146,64173,-8,-8,411*9a3cc9b1
%RAWIMUSA,2283,32038.700;2283,32038.700001963,00000077,-496,145,64173,18,9,932*6b9db191
%RAWIMUSA,2283,32038.710;2283,32038.710001963,00000077,-505,136,64169,0,9,73*4ce3c41f
%RAWIMUSA,2283,32038.720;2283,32038.720001963,00000077,-497,138,64172,-18,-9,-923*31da2ad5
%RAWIMUSA,2283,32038.730;2283,32038.730001963,00000077,-488,152,64170,-18,-9,-539*ec25bb38
%RAWIMUSA,2283,32038.740;2283,32038.740001963,00000077,-499,141,64170,0,9,941*eebbaf09
%RAWIMUSA,2283,32038.750;2283,32038.750001963,00000077,-502,139,64172,18,9,932*7568f271
%RAWIMUSA,2283,32038.760;2283,32038.760001963,00000077,-495,144,64173,-9,0,-831*62e8721c
%RAWIMUSA,2283,32038.770;2283,32038.770001963,00000077,-487,149,64173,-27,-9,-923*fac409f0
%RAWIMUSA,2283,32038.780;2283,32038.780001963,00000077,-496,142,64170,-8,-8,356*5231e7e7
%RAWIMUSA,2283,32038.790;2283,32038.790001963,00000077,-502,139,64173,9,9,923*61cc60f7
%RAWIMUSA,2283,32038.800;2283,32038.800001963,00000077,-500,145,64171,9,9,128*42d5297d
%RAWIMUSA,2283,32038.810;2283,32038.810001963,00000077,-494,144,64170,-27,-9,-914*5be3a8c2
%RAWIMUSA,2283,32038.820;2283,32038.820001963,00000077,-494,143,64171,-18,-9,-585*92b6bad0
%RAWIMUSA,2283,32038.830;2283,32038.830001963,00000077,-503,136,64170,9,9,932*a119c5c4
%RAWIMUSA,2283,32038.840;2283,32038.840001963,00000077,-506,144,64170,9,0,923*bdd7881b
%RAWIMUSA,2283,32038.850;2283,32038.850001963,00000077,-488,146,64170,-9,0,-777*48d191c2
%RAWIMUSA,2283,32038.860;2283,32038.860001963,00000077,-488,140,64170,-27,-9,-923*954f526a
%RAWIMUSA,2283,32038.870;2283,32038.870001963,00000077,-502,142,64170,-8,0,310*9adcbfd9
%RAWIMUSA,2283,32038.880;2283,32038.880001963,00000077,-511,142,64169,18,9,932*0451c5df
%RAWIMUSA,2283,32038.890;2283,32038.890001963,00000077,-493,149,64169,0,0,164*5e003198
%RAWIMUSA,2283,32038.900;2283,32038.900001963,00000077,-482,139,64171,-27,0,-914*b46cb812
%RAWIMUSA,2283,32038.910;2283,32038.910001963,00000077,-502,135,64172,-18,-9,-639*0c600bbc
%RAWIMUSA,2283,32038.920;2283,32038.920001963,00000077,-508,143,64172,9,0,923*f0aff117
%RAWIMUSA,2283,32038.930;2283,32038.930001963,00000077,-493,147,64173,9,9,932*4e723780
%RAWIMUSA,2283,32038.940;2283,32038.940001963,00000077,-485,142,64169,-18,0,-731*22faa1c2
%RAWIMUSA,2283,32038.950;2283,32038.950001963,00000077,-498,142,64172,-18,0,-914*a251a532
%RAWIMUSA,2283,32038.960;2283,32038.960001963,00000077,-509,143,64170,-8,0,265*743e68b3
%RAWIMUSA,2283,32038.970;2283,32038.970001963,00000077,-498,147,64170,9,0,932*88977d87
%RAWIMUSA,2283,32038.980;2283,32038.980001963,00000077,-484,146,64171,9,9,219*a2305a8e
%RAWIMUSA,2283,32038.990;2283,32038.990001963,00000077,-496,139,64170,-27,-9,-923*caa4cb7f
%RAWIMUSA,2283,32039.000;2283,32039.000001963,00000077,-507,141,64170,-18,-9,-685*1cf181fe
%RAWIMUSA,2283,32039.010;2283,32039.010001963,00000077,-497,147,64170,9,9,923*08f23b35
%RAWIMUSA,2283,32039.020;2283,32039.020001963,00000077,-488,141,64170,9,9,932*2e542620
%RAWIMUSA,2283,32039.030;2283,32039.030001963,00000077,-498,144,64169,-18,-9,-676*637ffe05
%RAWIMUSA,2283,32039.040;2283,32039.040001963,00000077,-505,143,64169,-18,0,-923*866d4121
%RAWIMUSA,2283,32039.050;2283,32039.050001963,00000077,-498,144,64170,-9,0,219*52ecdba5
%RAWIMUSA,2283,32039.060;2283,32039.060001963,00000077,-490,141,64171,9,9,923*637a9ae8
%RAWIMUSA,2283,32039.070;2283,32039.070001963,00000077,-496,142,64171,9,0,265*eed63774
%RAWIMUSA,2283,32039.080;2283,32039.080001963,00000077,-503,147,64170,-27,-9,-923*db9db375
%RAWIMUSA,2283,32039.090;2283,32039.090001963,00000077,-499,142,64172,-18,-9,-731*14a6e6fa
%RAWIMUSA,2283,32039.100;2283,32039.100001963,00000077,-485,138,64171,9,19,932*e912e5ea
%RAWIMUSA,2283,32039.110;2283,32039.110001963,00000077,-495,145,64169,9,9,941*da7714ec
%RAWIMUSA,2283,32039.120;2283,32039.120001963,00000077,-505,148,64173,-18,-9,-639*9721eb01
%RAWIMUSA,2283,32039.130;2283,32039.130001963,00000077,-498,142,64174,-18,-19,-923*f381c6c2
%RAWIMUSA,2283,32039.140;2283,32039.140001963,00000077,-496,140,64168,0,0,164*5cd27652
%RAWIMUSA,2283,32039.150;2283,32039.150001963,00000077,-494,142,64171,9,19,932*52e41979
%RAWIMUSA,2283,32039.160;2283,32039.160001963,00000077,-502,143,64170,0,9,329*420dfdcc
%RAWIMUSA,2283,32039.170;2283,32039.170001963,00000077,-496,147,64171,-27,-19,-932*460ab748
%RAWIMUSA,2283,32039.180;2283,32039.180001963,00000077,-495,141,64172,-18,-19,-795*d9cc8753
%RAWIMUSA,2283,32039.190;2283,32039.190001963,00000077,-499,143,64171,9,19,932*ebe58dab
%RAWIMUSA,2283,32039.200;2283,32039.200001963,00000077,-496,143,64166,9,19,923*ffa244f9
%RAWIMUSA,2283,32039.210;2283,32039.210001963,00000077,-492,139,64171,-18,-9,-575*503fb33e
%RAWIMUSA,2283,32039.220;2283,32039.220001963,00000077,-497,148,64171,-18,-19,-923*ac6ade6f
%RAWIMUSA,2283,32039.230;2283,32039.230001963,00000077,-504,141,64173,0,0,109*62468205
%RAWIMUSA,2283,32039.240;2283,32039.240001963,00000077,-494,141,64168,9,9,932*56e40ffa
%RAWIMUSA,2283,32039.250;2283,32039.250001963,00000077,-489,144,64169,0,9,365*d60f8eff
%RAWIMUSA,2283,32039.260;2283,32039.260001963,00000077,-498,142,64171,-27,-9,-914*f927b250
%RAWIMUSA,2283,32039.270;2283,32039.270001963,00000077,-504,144,64173,-18,-9,-831*c6959251
%RAWIMUSA,2283,32039.280;2283,32039.280001963,00000077,-499,139,64171,9,9,932*f94ee6f3
%RAWIMUSA,2283,32039.290;2283,32039.290001963,00000077,-492,143,64172,9,9,923*1399e4f9
%RAWIMUSA,2283,32039.300;2283,32039.300001963,00000077,-496,141,64168,-18,0,-530*407c3dd2
%RAWIMUSA,2283,32039.310;2283,32039.310001963,00000077,-498,147,64171,-18,-9,-923*3c629d23
%RAWIMUSA,2283,32039.320;2283,32039.320001963,00000077,-496,141,64169,-9,0,54*8e48ed46
%RAWIMUSA,2283,32039.330;2283,32039.330001963,00000077,-494,146,64173,18,0,923*e6dbfeea
%RAWIMUSA,2283,32039.340;2283,32039.340001963,00000077,-499,147,64171,-8,0,420*e5ccdde7
%RAWIMUSA,2283,32039.350;2283,32039.350001963,00000077,-498,133,64167,-18,0,-923*053fbbbc
%RAWIMUSA,2283,32039.360;2283,32039.360001963,00000077,-497,144,64169,-18,0,-886*06be8c47
%RAWIMUSA,2283,32039.370;2283,32039.370001963,00000077,-491,142,64172,9,9,932*bac5ef57
%RAWIMUSA,2283,32039.380;2283,32039.380001963,00000077,-499,148,64173,9,-8,923*cf76b48f
%RAWIMUSA,2283,32039.390;2283,32039.390001963,00000077,-503,140,64168,-18,0,-475*88ffd9b2
%RAWIMUSA,2283,32039.400;2283,32039.400001963,00000077,-491,142,64169,-18,0,-923*cec3bdb8
%RAWIMUSA,2283,32039.410;2283,32039.410001963,00000077,-489,144,64174,0,9,9*b4dc3192
%RAWIMUSA,2283,32039.420;2283,32039.420001963,00000077,-502,144,64170,9,0,932*0f3fb5d8
%RAWIMUSA,2283,32039.430;2283,32039.430001963,00000077,-501,143,64173,0,-8,475*b8c952fb
%RAWIMUSA,2283,32039.440;2283,32039.440001963,00000077,-494,142,64170,-27,-9,-923*bb39e4ed
%RAWIMUSA,2283,32039.450;2283,32039.450001963,00000077,-491,147,64170,-9,17,-914*bdedb59c
%RAWIMUSA,2283,32039.460;2283,32039.460001963,00000077,-499,142,64169,9,9,905*43e36287
%RAWIMUSA,2283,32039.470;2283,32039.470001963,00000077,-499,142,64172,9,-8,932*44cf494b
%RAWIMUSA,2283,32039.480;2283,32039.480001963,00000077,-496,146,64171,-18,-18,-438*5ba4d8e4
%RAWIMUSA,2283,32039.490;2283,32039.490001963,00000077,-500,144,64171,-27,0,-923*953c1a12
%RAWIMUSA,2283,32039.500;2283,32039.500001963,00000077,-498,141,64170,0,18,-36*6701d4b7
%RAWIMUSA,2283,32039.510;2283,32039.510001963,00000077,-492,141,64172,9,0,932*cc12ab71
%RAWIMUSA,2283,32039.520;2283,32039.520001963,00000077,-495,142,64172,0,-8,503*f17f211c
%RAWIMUSA,2283,32039.530;2283,32039.530001963,00000077,-501,145,64171,-27,-9,-923*3b152488
%RAWIMUSA,2283,32039.540;2283,32039.540001963,00000077,-498,149,64170,-9,8,-914*3413b84d
%RAWIMUSA,2283,32039.550;2283,32039.550001963,00000077,-494,142,64169,9,9,859*b8f1c62f
%RAWIMUSA,2283,32039.560;2283,32039.560001963,00000077,-492,140,64173,9,0,923*18b98f2a
%RAWIMUSA,2283,32039.570;2283,32039.570001963,00000077,-502,142,64174,-18,-18,-383*dc7aea59
%RAWIMUSA,2283,32039.580;2283,32039.580001963,00000077,-499,146,64173,-27,0,-923*86e7a5e0
%RAWIMUSA,2283,32039.590;2283,32039.590001963,00000077,-494,144,64171,9,9,-82*1f108d04
%RAWIMUSA,2283,32039.600;2283,32039.600001963,00000077,-490,142,64169,9,19,932*c120420c
%RAWIMUSA,2283,32039.610;2283,32039.610001963,00000077,-501,144,64175,-8,-8,576*ffd96267
%RAWIMUSA,2283,32039.620;2283,32039.620001963,00000077,-498,146,64170,-27,-19,-923*ab72188b
%RAWIMUSA,2283,32039.630;2283,32039.630001963,00000077,-492,142,64171,-9,0,-923*545c991d
%RAWIMUSA,2283,32039.640;2283,32039.640001963,00000077,-490,137,64171,9,18,813*50c96cac
%RAWIMUSA,2283,32039.650;2283,32039.650001963,00000077,-501,142,64168,9,9,941*25926123
%RAWIMUSA,2283,32039.660;2283,32039.660001963,00000077,-503,148,64170,-27,-9,-329*ff37f4c8
%RAWIMUSA,2283,32039.670;2283,32039.670001963,00000077,-490,144,64171,-18,-19,-923*5175b5cd
%RAWIMUSA,2283,32039.680;2283,32039.680001963,00000077,-493,139,64174,9,9,-137*63f65639
%RAWIMUSA,2283,32039.690;2283,32039.690001963,00000077,-503,140,64168,9,9,932*c678819f
%RAWIMUSA,2283,32039.700;2283,32039.700001963,00000077,-498,149,64169,-8,0,621*edc53a77
%RAWIMUSA,2283,32039.710;2283,32039.710001963,00000077,-490,147,64171,-27,-9,-914*c37bf1fa
%RAWIMUSA,2283,32039.720;2283,32039.720001963,00000077,-493,140,64172,-9,0,-923*321f43a7
%RAWIMUSA,2283,32039.730;2283,32039.730001963,00000077,-506,143,64173,9,0,759*c77c7a6d
%RAWIMUSA,2283,32039.740;2283,32039.740001963,00000077,-500,148,64171,9,0,932*75834625
%RAWIMUSA,2283,32039.750;2283,32039.750001963,00000077,-493,149,64168,-27,0,-274*7621b12a
%RAWIMUSA,2283,32039.760;2283,32039.760001963,00000077,-488,141,64168,-18,8,-923*8ffd5709
%RAWIMUSA,2283,32039.770;2283,32039.770001963,00000077,-497,137,64172,9,0,-182*694b91bf
%RAWIMUSA,2283,32039.780;2283,32039.780001963,00000077,-501,145,64173,9,0,932*99090c56
%RAWIMUSA,2283,32039.790;2283,32039.790001963,00000077,-497,146,64172,-8,-8,676*02a4aa57
%RAWIMUSA,2283,32039.800;2283,32039.800001963,00000077,-492,141,64168,-27,0,-914*732f7faa
%RAWIMUSA,2283,32039.810;2283,32039.810001963,00000077,-493,141,64168,-9,8,-932*10b1c732
%RAWIMUSA,2283,32039.820;2283,32039.820001963,00000077,-503,145,64171,18,0,704*09e5d18b
%RAWIMUSA,2283,32039.830;2283,32039.830001963,00000077,-498,148,64171,0,-8,932*06989e2f
%RAWIMUSA,2283,32039.840;2283,32039.840001963,00000077,-495,143,64171,-18,-9,-228*079fb288
%RAWIMUSA,2283,32039.850;2283,32039.850001963,00000077,-499,141,64171,-27,8,-923*d0b64f3b
%RAWIMUSA,2283,32039.860;2283,32039.860001963,00000077,-498,145,64168,9,8,-246*82d2c94b
%RAWIMUSA,2283,32039.870;2283,32039.870001963,00000077,-492,144,64172,18,0,923*b77b7670
%RAWIMUSA,2283,32039.880;2283,32039.880001963,00000077,-496,143,64171,-18,-8,731*3e397d71
%RAWIMUSA,2283,32039.890;2283,32039.890001963,00000077,-501,141,64172,-18,-9,-914*f5e76b7f
%RAWIMUSA,2283,32039.900;2283,32039.900001963,00000077,-498,144,64171,0,8,-932*a3185db9
%RAWIMUSA,2283,32039.910;2283,32039.910001963,00000077,-490,146,64170,9,18,658*0b6c5341
%RAWIMUSA,2283,32039.920;2283,32039.920001963,00000077,-495,143,64170,0,-8,932*49c10dfd
%RAWIMUSA,2283,32039.930;2283,32039.930001963,00000077,-505,139,64174,-27,-18,-182*cccf6be7
%RAWIMUSA,2283,32039.940;2283,32039.940001963,00000077,-502,144,64171,-27,0,-914*b932e9bf
%RAWIMUSA,2283,32039.950;2283,32039.950001963,00000077,-491,146,64168,18,18,-283*f25e8138
%RAWIMUSA,2283,32039.960;2283,32039.960001963,00000077,-494,140,64167,9,9,932*f57fde43
%RAWIMUSA,2283,32039.970;2283,32039.970001963,00000077,-499,143,64170,-18,-17,768*577d2dba
%RAWIMUSA,2283,32039.980;2283,32039.980001963,00000077,-501,146,64176,-18,-9,-914*554111f2
%RAWIMUSA,2283,32039.990;2283,32039.990001963,00000077,-494,142,64171,-9,8,-923*6521372c
%RAWIMUSA,2283,32040.000;2283,32040.000001963,00000077,-493,138,64168,9,18,612*8296f8ee
%RAWIMUSA,2283,32040.010;2283,32040.010001963,00000077,-497,141,64168,0,-8,923*f83d1ff7
%RAWIMUSA,2283,32040.020;2283,32040.020001963,00000077,-500,146,64172,-18,-9,-127*9df0fbec
%RAWIMUSA,2283,32040.030;2283,32040.030001963,00000077,-501,145,64173,-27,-9,-923*06d792f4
%RAWIMUSA,2283,32040.040;2283,32040.040001963,00000077,-495,139,64170,9,8,-347*1b69af0a
%RAWIMUSA,2283,32040.050;2283,32040.050001963,00000077,-493,139,64169,18,9,932*ad603e4f
%RAWIMUSA,2283,32040.060;2283,32040.060001963,00000077,-495,146,64172,-18,0,823*7a7ce4de
%RAWIMUSA,2283,32040.070;2283,32040.070001963,00000077,-498,143,64171,-27,-9,-932*2ec3bd13
%RAWIMUSA,2283,32040.080;2283,32040.080001963,00000077,-499,143,64173,0,0,-914*4c845504
%RAWIMUSA,2283,32040.090;2283,32040.090001963,00000077,-492,141,64174,9,0,557*c4696114
%RAWIMUSA,2283,32040.100;2283,32040.100001963,00000077,-493,148,64170,0,9,923*28719628
%RAWIMUSA,2283,32040.110;2283,32040.110001963,00000077,-500,146,64168,-18,0,-82*bb8632df
%RAWIMUSA,2283,32040.120;2283,32040.120001963,00000077,-497,142,64172,-18,-9,-923*94b99455
%RAWIMUSA,2283,32040.130;2283,32040.130001963,00000077,-494,141,64172,9,0,-393*6b674b47
%RAWIMUSA,2283,32040.140;2283,32040.140001963,00000077,-499,144,64170,18,0,923*c12be233
%RAWIMUSA,2283,32040.150;2283,32040.150001963,00000077,-499,141,64169,-27,9,877*c6bc7fe3
%RAWIMUSA,2283,32040.160;2283,32040.160001963,00000077,-492,140,64168,-18,-9,-923*0a93aebe
%RAWIMUSA,2283,32040.170;2283,32040.170001963,00000077,-494,145,64172,0,0,-932*408e407b
%RAWIMUSA,2283,32040.180;2283,32040.180001963,00000077,-505,141,64175,9,9,512*9f9961ad
%RAWIMUSA,2283,32040.190;2283,32040.190001963,00000077,-500,140,64168,0,-8,932*0c4e9334
%RAWIMUSA,2283,32040.200;2283,32040.200001963,00000077,-488,140,64170,-27,0,-27*67badb62
%RAWIMUSA,2283,32040.210;2283,32040.210001963,00000077,-493,143,64170,-18,8,-923*9dcd2987
%RAWIMUSA,2283,32040.220;2283,32040.220001963,00000077,-502,148,64171,9,0,-438*f83cd449
%RAWIMUSA,2283,32040.230;2283,32040.230001963,00000077,-500,145,64175,18,-8,932*c3da904e
%RAWIMUSA,2283,32040.240;2283,32040.240001963,00000077,-489,140,64169,-27,-8,914*2ab0236b
%RAWIMUSA,2283,32040.250;2283,32040.250001963,00000077,-491,144,64168,-18,8,-923*be7aa0b8
%RAWIMUSA,2283,32040.260;2283,32040.260001963,00000077,-499,147,64170,0,8,-923*13834e9b
%RAWIMUSA,2283,32040.270;2283,32040.270001963,00000077,-501,141,64174,9,-8,466*f1f64015
%RAWIMUSA,2283,32040.280;2283,32040.280001963,00000077,-497,144,64174,0,-8,932*abcfd6ef
%RAWIMUSA,2283,32040.290;2283,32040.290001963,00000077,-495,143,64171,-27,0,36*6f6e8e57
%RAWIMUSA,2283,32040.300;2283,32040.300001963,00000077,-496,144,64167,-18,8,-923*d0d420d2
%RAWIMUSA,2283,32040.310;2283,32040.310001963,00000077,-500,141,64172,18,8,-484*40e2da9d
%RAWIMUSA,2283,32040.320;2283,32040.320001963,00000077,-496,142,64174,9,-8,923*a45dca22
%RAWIMUSA,2283,32040.330;2283,32040.330001963,00000077,-493,146,64172,-18,-17,941*17e9cd00
%RAWIMUSA,2283,32040.340;2283,32040.340001963,00000077,-496,142,64166,-27,17,-886*f563a6e6
%RAWIMUSA,2283,32040.350;2283,32040.350001963,00000077,-497,143,64171,0,8,-914*f8a43174
%RAWIMUSA,2283,32040.360;2283,32040.360001963,00000077,-498,146,64174,9,-8,402*44950ddf
%RAWIMUSA,2283,32040.370;2283,32040.370001963,00000077,-492,145,64172,0,-8,932*fe6e3199
%RAWIMUSA,2283,32040.380;2283,32040.380001963,00000077,-497,142,64169,-27,0,73*81861209
%RAWIMUSA,2283,32040.390;2283,32040.390001963,00000077,-498,143,64168,-9,8,-923*dbfe07c5
%RAWIMUSA,2283,32040.400;2283,32040.400001963,00000077,-493,143,64175,9,0,-539*06532b52
%RAWIMUSA,2283,32040.410;2283,32040.410001963,00000077,-493,142,64174,9,-8,932*be273505
%RAWIMUSA,2283,32040.420;2283,32040.420001963,00000077,-499,146,64170,-18,0,932*c6488e79
%RAWIMUSA,2283,32040.430;2283,32040.430001963,00000077,-500,143,64167,-18,8,-832*330a6a03
%RAWIMUSA,2283,32040.440;2283,32040.440001963,00000077,-494,140,64171,0,8,-923*a414206e
%RAWIMUSA,2283,32040.450;2283,32040.450001963,00000077,-491,144,64172,9,-8,365*a40abf40
%RAWIMUSA,2283,32040.460;2283,32040.460001963,00000077,-500,139,64173,0,-8,923*f0564215
%RAWIMUSA,2283,32040.470;2283,32040.470001963,00000077,-501,142,64170,-27,0,128*18fdf058
