%RAWIMUSA,2283,43271.020;2283,43271.019998463,00000077,-506,176,64168,9,9,548*92c37b4d
%RAWIMUSA,2283,43271.030;2283,43271.029998463,00000077,-496,134,64172,0,9,969*22f2e4aa
%RAWIMUSA,2283,43271.040;2283,43271.039998463,00000077,-483,134,64174,-64,-9,-63*e18c99bc
%RAWIMUSA,2283,43271.050;2283,43271.049998463,00000077,-498,154,64165,55,-10,-950*967f6ce4
%RAWIMUSA,2283,43271.060;2283,43271.059998463,00000077,-506,122,64177,-36,8,-402*20b1284f
%RAWIMUSA,2283,43271.070;2283,43271.069998463,00000077,-498,180,64163,28,0,951*b689e7e1
%RAWIMUSA,2283,43271.080;2283,43271.079998463,00000077,-482,99,64180,-45,0,914*23b0cbbb
%RAWIMUSA,2283,43271.090;2283,43271.089998463,00000077,-496,171,64165,-9,-9,-950*908e42a0
%RAWIMUSA,2283,43271.100;2283,43271.099998463,00000077,-508,131,64175,36,0,-950*a4a19179
%RAWIMUSA,2283,43271.110;2283,43271.109998463,00000077,-496,144,64173,-36,0,512*4dd45bfd
%RAWIMUSA,2283,43271.120;2283,43271.119998463,00000077,-483,151,64169,37,9,951*a080bcee
%RAWIMUSA,2283,43271.130;2283,43271.129998463,00000077,-496,118,64179,-82,-9,-9*420e716b
%RAWIMUSA,2283,43271.140;2283,43271.139998463,00000077,-508,175,64162,55,-10,-950*d6525fe3
%RAWIMUSA,2283,43271.150;2283,43271.149998463,00000077,-494,106,64182,-18,8,-475*e5a6bcc5
%RAWIMUSA,2283,43271.160;2283,43271.159998463,00000077,-484,172,64163,9,9,960*74a5cc13
%RAWIMUSA,2283,43271.170;2283,43271.169998463,00000077,-497,121,64177,-27,0,951*252e66a6
%RAWIMUSA,2283,43271.180;2283,43271.179998463,00000077,-508,157,64169,-27,-9,-941*5839075a
%RAWIMUSA,2283,43271.190;2283,43271.189998463,00000077,-496,137,64171,46,0,-950*0a2cafcf
%RAWIMUSA,2283,43271.200;2283,43271.199998463,00000077,-482,134,64177,-36,9,457*6e670925
%RAWIMUSA,2283,43271.210;2283,43271.209998463,00000077,-498,165,64165,28,0,960*240b7bd1
%RAWIMUSA,2283,43271.220;2283,43271.219998463,00000077,-504,113,64180,-73,-9,45*f48cc368
%RAWIMUSA,2283,43271.230;2283,43271.229998463,00000077,-491,173,64161,46,0,-950*f229924b
%RAWIMUSA,2283,43271.240;2283,43271.239998463,00000077,-486,107,64180,-9,0,-521*340d53c7
%RAWIMUSA,2283,43271.250;2283,43271.249998463,00000077,-499,167,64170,-8,9,969*50d48978
%RAWIMUSA,2283,43271.260;2283,43271.259998463,00000077,-503,127,64175,0,-8,960*0a8751ab
%RAWIMUSA,2283,43271.270;2283,43271.269998463,00000077,-491,139,64174,-55,-9,-896*b1fe30e9
%RAWIMUSA,2283,43271.280;2283,43271.279998463,00000077,-488,155,64166,64,0,-950*1cc4e289
%RAWIMUSA,2283,43271.290;2283,43271.289998463,00000077,-499,118,64181,-45,18,411*b813719f
%RAWIMUSA,2283,43271.300;2283,43271.299998463,00000077,-503,175,64163,18,0,960*7f1e7f78
%RAWIMUSA,2283,43271.310;2283,43271.309998463,00000077,-491,108,64179,-45,-9,82*452a0c0a
%RAWIMUSA,2283,43271.320;2283,43271.319998463,00000077,-487,167,64163,18,-10,-950*74b413fe
%RAWIMUSA,2283,43271.330;2283,43271.329998463,00000077,-501,122,64176,27,8,-575*0382a46f
%RAWIMUSA,2283,43271.340;2283,43271.339998463,00000077,-503,157,64170,-45,9,960*173e6285
%RAWIMUSA,2283,43271.350;2283,43271.349998463,00000077,-492,138,64169,18,-8,960*452f73fb
%RAWIMUSA,2283,43271.360;2283,43271.359998463,00000077,-488,127,64175,-55,-9,-841*d2260813
%RAWIMUSA,2283,43271.370;2283,43271.369998463,00000077,-498,171,64163,64,8,-950*c2db35b0
%RAWIMUSA,2283,43271.380;2283,43271.379998463,00000077,-506,109,64183,-36,9,347*00d52719
%RAWIMUSA,2283,43271.390;2283,43271.389998463,00000077,-495,179,64163,0,0,960*90f8212a
%RAWIMUSA,2283,43271.400;2283,43271.399998463,00000077,-487,108,64178,-27,-9,137*90b2b5fa
%RAWIMUSA,2283,43271.410;2283,43271.409998463,00000077,-494,161,64168,-9,-9,-960*64f86218
%RAWIMUSA,2283,43271.420;2283,43271.419998463,00000077,-506,143,64171,55,8,-612*270711b5
%RAWIMUSA,2283,43271.430;2283,43271.429998463,00000077,-500,129,64175,-73,9,960*9b61d9c5
%RAWIMUSA,2283,43271.440;2283,43271.439998463,00000077,-493,168,64164,37,-8,960*ea8748db
%RAWIMUSA,2283,43271.450;2283,43271.449998463,00000077,-493,101,64180,-46,-9,-795*027387be
%RAWIMUSA,2283,43271.460;2283,43271.459998463,00000077,-502,187,64164,27,8,-960*b774216f
%RAWIMUSA,2283,43271.470;2283,43271.469998463,00000077,-505,112,64175,9,9,292*96197181
%RAWIMUSA,2283,43271.480;2283,43271.479998463,00000077,-487,151,64171,-54,0,969*30fa3e0e
%RAWIMUSA,2283,43271.490;2283,43271.489998463,00000077,-488,156,64167,37,-9,192*45115680
%RAWIMUSA,2283,43271.500;2283,43271.499998463,00000077,-504,115,64178,-55,0,-950*fc16ba2c
%RAWIMUSA,2283,43271.510;2283,43271.509998463,00000077,-502,176,64163,64,0,-685*3bdf4ab8
%RAWIMUSA,2283,43271.520;2283,43271.519998463,00000077,-491,97,64181,-45,9,960*2e78c464
%RAWIMUSA,2283,43271.530;2283,43271.529998463,00000077,-488,184,64164,-18,-8,951*3bc62bfd
%RAWIMUSA,2283,43271.540;2283,43271.539998463,00000077,-500,122,64174,18,-9,-740*db7f52e4
%RAWIMUSA,2283,43271.550;2283,43271.549998463,00000077,-503,141,64176,-36,8,-950*11b9687b
%RAWIMUSA,2283,43271.560;2283,43271.559998463,00000077,-491,153,64167,55,9,256*440a6f71
%RAWIMUSA,2283,43271.570;2283,43271.569998463,00000077,-489,121,64175,-73,-8,960*b63b436d
%RAWIMUSA,2283,43271.580;2283,43271.579998463,00000077,-499,180,64163,27,0,246*c8959410
%RAWIMUSA,2283,43271.590;2283,43271.589998463,00000077,-505,97,64182,-18,0,-950*2791b445
%RAWIMUSA,2283,43271.600;2283,43271.599998463,00000077,-492,173,64165,9,0,-731*6b9b2ffe
%RAWIMUSA,2283,43271.610;2283,43271.609998463,00000077,-490,132,64173,9,9,960*f7889767
%RAWIMUSA,2283,43271.620;2283,43271.619998463,00000077,-499,144,64174,-64,-8,960*a37925f3
%RAWIMUSA,2283,43271.630;2283,43271.629998463,00000077,-502,153,64168,46,-9,-676*c823262b
%RAWIMUSA,2283,43271.640;2283,43271.639998463,00000077,-491,111,64179,-46,8,-960*a735ce69
%RAWIMUSA,2283,43271.650;2283,43271.649998463,00000077,-491,183,64163,46,9,201*9e624efb
%RAWIMUSA,2283,43271.660;2283,43271.659998463,00000077,-500,109,64180,-45,0,960*cddf2af1
%RAWIMUSA,2283,43271.670;2283,43271.669998463,00000077,-499,171,64168,-27,-8,301*7740e3ae
%RAWIMUSA,2283,43271.680;2283,43271.679998463,00000077,-491,124,64172,36,0,-950*c3d155f9
%RAWIMUSA,2283,43271.690;2283,43271.689998463,00000077,-490,144,64169,-27,8,-786*680ca407
%RAWIMUSA,2283,43271.700;2283,43271.699998463,00000077,-500,158,64168,28,0,951*ac5a2f86
%RAWIMUSA,2283,43271.710;2283,43271.709998463,00000077,-502,117,64179,-73,0,960*6d27ad17
%RAWIMUSA,2283,43271.720;2283,43271.719998463,00000077,-491,176,64163,46,-9,-630*47f0cd9a
%RAWIMUSA,2283,43271.730;2283,43271.729998463,00000077,-490,108,64180,-18,8,-950*7a463ad6
%RAWIMUSA,2283,43271.740;2283,43271.739998463,00000077,-499,175,64166,0,9,137*ce055e75
%RAWIMUSA,2283,43271.750;2283,43271.749998463,00000077,-501,123,64175,0,-8,969*914171bd
%RAWIMUSA,2283,43271.760;2283,43271.759998463,00000077,-492,145,64172,-64,-8,347*f6df1776
%RAWIMUSA,2283,43271.770;2283,43271.769998463,00000077,-490,158,64165,73,0,-950*ad40634c
%RAWIMUSA,2283,43271.780;2283,43271.779998463,00000077,-502,118,64179,-46,8,-841*77ce215a
%RAWIMUSA,2283,43271.790;2283,43271.789998463,00000077,-501,178,64162,28,9,960*e30a8cca
%RAWIMUSA,2283,43271.800;2283,43271.799998463,00000077,-491,104,64182,-54,-8,951*e4498266
%RAWIMUSA,2283,43271.810;2283,43271.809998463,00000077,-490,177,64165,9,-9,-575*a57128fc
%RAWIMUSA,2283,43271.820;2283,43271.819998463,00000077,-501,123,64174,27,8,-960*e46873a8
%RAWIMUSA,2283,43271.830;2283,43271.829998463,00000077,-496,149,64168,-45,9,100*eaeb23fd
%RAWIMUSA,2283,43271.840;2283,43271.839998463,00000077,-489,148,64168,28,-8,960*a4f8f55b
%RAWIMUSA,2283,43271.850;2283,43271.849998463,00000077,-494,124,64177,-73,-8,411*1f436b16
%RAWIMUSA,2283,43271.860;2283,43271.859998463,00000077,-501,173,64164,64,8,-941*86bb0a30
%RAWIMUSA,2283,43271.870;2283,43271.869998463,00000077,-496,110,64179,-27,8,-886*9dd38bc3
%RAWIMUSA,2283,43271.880;2283,43271.879998463,00000077,-490,175,64162,0,0,951*06bd32b5
%RAWIMUSA,2283,43271.890;2283,43271.889998463,00000077,-493,115,64177,-27,-8,960*91293549
%RAWIMUSA,2283,43271.900;2283,43271.899998462,00000077,-498,168,64166,-9,-9,-521*8eee935c
%RAWIMUSA,2283,43271.910;2283,43271.909998462,00000077,-496,134,64175,46,8,-950*68c87ebb
%RAWIMUSA,2283,43271.920;2283,43271.919998462,00000077,-497,130,64171,-55,9,36*859e16a7
%RAWIMUSA,2283,43271.930;2283,43271.929998462,00000077,-491,166,64164,28,-8,951*acc5af18
%RAWIMUSA,2283,43271.940;2283,43271.939998462,00000077,-495,110,64182,-55,-8,457*e8099d59
%RAWIMUSA,2283,43271.950;2283,43271.949998462,00000077,-498,184,64160,36,0,-959*d612e6a3
%RAWIMUSA,2283,43271.960;2283,43271.959998462,00000077,-496,110,64179,9,8,-932*33286cd0
%RAWIMUSA,2283,43271.970;2283,43271.969998462,00000077,-495,162,64166,-45,0,960*6f10df85
%RAWIMUSA,2283,43271.980;2283,43271.979998462,00000077,-495,140,64173,18,-8,960*6f00094d
%RAWIMUSA,2283,43271.990;2283,43271.989998462,00000077,-497,132,64173,-46,8,-475*2dde9223
%RAWIMUSA,2283,43272.000;2283,43271.999998462,00000077,-500,171,64164,64,0,-950*cb2158ff
%RAWIMUSA,2283,43272.010;2283,43272.009998462,00000077,-499,106,64181,-55,9,-18*855edafa
%RAWIMUSA,2283,43272.020;2283,43272.019998462,00000077,-493,180,64164,9,-8,951*2ceae9a3
%RAWIMUSA,2283,43272.030;2283,43272.029998462,00000077,-493,117,64177,-18,-8,512*4cc40e86
%RAWIMUSA,2283,43272.040;2283,43272.039998462,00000077,-497,160,64169,-9,8,-960*99b6190a
%RAWIMUSA,2283,43272.050;2283,43272.049998462,00000077,-497,131,64168,36,8,-950*648ff48e
%RAWIMUSA,2283,43272.060;2283,43272.059998462,00000077,-494,142,64175,-73,-8,923*d0b64cd7
%RAWIMUSA,2283,43272.070;2283,43272.069998462,00000077,-492,165,64163,28,-8,969*dbef318b
%RAWIMUSA,2283,43272.080;2283,43272.079998462,00000077,-495,108,64180,-36,0,-429*3c5a9c9e
%RAWIMUSA,2283,43272.090;2283,43272.089998462,00000077,-501,182,64161,46,8,-950*51d8d586
%RAWIMUSA,2283,43272.100;2283,43272.099998462,00000077,-492,111,64181,-27,9,-54*1e3d6774
%RAWIMUSA,2283,43272.110;2283,43272.109998462,00000077,-494,167,64168,-27,-8,951*803e7189
%RAWIMUSA,2283,43272.120;2283,43272.119998462,00000077,-496,128,64172,9,-8,557*d325dcf6
%RAWIMUSA,2283,43272.130;2283,43272.129998462,00000077,-502,142,64172,-27,8,-960*768be5a4
%RAWIMUSA,2283,43272.140;2283,43272.139998462,00000077,-493,164,64165,55,8,-950*9413f734
%RAWIMUSA,2283,43272.150;2283,43272.149998462,00000077,-492,119,64179,-73,0,868*c576a486
%RAWIMUSA,2283,43272.160;2283,43272.159998462,00000077,-499,172,64161,18,-8,960*7fbbed6b
%RAWIMUSA,2283,43272.170;2283,43272.169998462,00000077,-500,105,64180,-9,0,-374*3e326a66
%RAWIMUSA,2283,43272.180;2283,43272.179998462,00000077,-492,179,64165,18,0,-941*fc0b65f5
%RAWIMUSA,2283,43272.190;2283,43272.189998462,00000077,-492,123,64175,0,9,-109*1da5dd18
%RAWIMUSA,2283,43272.200;2283,43272.199998462,00000077,-501,145,64175,-64,-8,960*8f44805f
%RAWIMUSA,2283,43272.210;2283,43272.209998462,00000077,-497,151,64170,46,-8,603*2e660d1e
%RAWIMUSA,2283,43272.220;2283,43272.219998462,00000077,-492,127,64178,-36,8,-941*27cabf06
%RAWIMUSA,2283,43272.230;2283,43272.229998462,00000077,-494,174,64162,46,8,-950*5e7971c4
%RAWIMUSA,2283,43272.240;2283,43272.239998462,00000077,-498,101,64182,-54,-8,813*31d159dd
%RAWIMUSA,2283,43272.250;2283,43272.249998462,00000077,-499,179,64161,-8,-8,951*4254d2bb
%RAWIMUSA,2283,43272.260;2283,43272.259998462,00000077,-493,126,64175,18,8,-329*7a9eaa64
%RAWIMUSA,2283,43272.270;2283,43272.269998462,00000077,-495,151,64171,-18,8,-960*51151587
%RAWIMUSA,2283,43272.280;2283,43272.279998462,00000077,-498,147,64171,36,0,-164*dcad815e
%RAWIMUSA,2283,43272.290;2283,43272.289998462,00000077,-493,125,64175,-82,-8,969*1951233d
%RAWIMUSA,2283,43272.300;2283,43272.299998462,00000077,-494,176,64160,37,-8,667*e8a8b73c
%RAWIMUSA,2283,43272.310;2283,43272.309998462,00000077,-499,100,64183,-18,8,-960*c1fafa95
%RAWIMUSA,2283,43272.320;2283,43272.319998462,00000077,-496,176,64165,18,8,-950*35e202ff
%RAWIMUSA,2283,43272.330;2283,43272.329998462,00000077,-493,121,64176,-18,-8,759*4fddf692
%RAWIMUSA,2283,43272.340;2283,43272.339998462,00000077,-492,152,64172,-54,-8,951*9d7ac03c
%RAWIMUSA,2283,43272.350;2283,43272.349998462,00000077,-500,144,64165,64,8,-265*afb9700a
%RAWIMUSA,2283,43272.360;2283,43272.359998462,00000077,-498,121,64180,-46,8,-941*8f8ffa32
%RAWIMUSA,2283,43272.370;2283,43272.369998462,00000077,-491,180,64163,36,0,-219*887e7ee0
%RAWIMUSA,2283,43272.380;2283,43272.379998462,00000077,-489,106,64183,-64,-8,960*669aae25
%RAWIMUSA,2283,43272.390;2283,43272.389998462,00000077,-501,176,64164,9,0,713*47ded819
%RAWIMUSA,2283,43272.400;2283,43272.399998462,00000077,-498,117,64177,18,8,-941*d5c83537
%RAWIMUSA,2283,43272.410;2283,43272.409998462,00000077,-492,155,64169,-18,0,-960*747e4d8c
%RAWIMUSA,2283,43272.420;2283,43272.419998462,00000077,-493,149,64169,18,-8,713*36cd6b09
%RAWIMUSA,2283,43272.430;2283,43272.429998462,00000077,-499,123,64176,-73,0,969*bf036439
%RAWIMUSA,2283,43272.440;2283,43272.439998462,00000077,-496,168,64165,64,0,-210*c7e2905b
%RAWIMUSA,2283,43272.450;2283,43272.449998462,00000077,-494,107,64182,-36,8,-950*7df45731
%RAWIMUSA,2283,43272.460;2283,43272.459998462,00000077,-497,185,64162,9,0,-265*4cf7c143
%RAWIMUSA,2283,43272.470;2283,43272.469998462,00000077,-499,112,64177,-27,-8,951*ca4dd6ff
%RAWIMUSA,2283,43272.480;2283,43272.479998462,00000077,-495,155,64170,-18,0,777*b2170af3
%RAWIMUSA,2283,43272.490;2283,43272.489998462,00000077,-492,146,64173,46,0,-969*3a17d8b0
%RAWIMUSA,2283,43272.500;2283,43272.499998462,00000077,-496,136,64175,-46,8,-950*2eee5ba8
%RAWIMUSA,2283,43272.510;2283,43272.509998462,00000077,-496,165,64168,27,-8,667*c6fd2d94
%RAWIMUSA,2283,43272.520;2283,43272.519998462,00000077,-497,107,64181,-64,-8,951*de0da157
%RAWIMUSA,2283,43272.530;2283,43272.529998462,00000077,-493,187,64161,36,8,-173*ebfa8f20
%RAWIMUSA,2283,43272.540;2283,43272.539998462,00000077,-498,109,64179,0,0,-941*f12e4373
%RAWIMUSA,2283,43272.550;2283,43272.549998462,00000077,-499,163,64168,-27,0,-329*4677bea3
%RAWIMUSA,2283,43272.560;2283,43272.559998462,00000077,-498,136,64172,9,-8,960*3a9cc4cc
%RAWIMUSA,2283,43272.570;2283,43272.569998462,00000077,-490,140,64174,-54,0,813*af7f358f
%RAWIMUSA,2283,43272.580;2283,43272.579998462,00000077,-493,161,64166,73,8,-950*681d7ad3
%RAWIMUSA,2283,43272.590;2283,43272.589998462,00000077,-502,108,64181,-55,8,-950*730edae6
%RAWIMUSA,2283,43272.600;2283,43272.599998462,00000077,-502,184,64164,18,-8,603*ab56f548
%RAWIMUSA,2283,43272.610;2283,43272.609998462,00000077,-489,113,64178,-36,-8,960*e1310e65
%RAWIMUSA,2283,43272.620;2283,43272.619998462,00000077,-493,165,64163,9,9,-109*1ee61781
%RAWIMUSA,2283,43272.630;2283,43272.629998462,00000077,-503,130,64171,27,8,-941*9e9e184c
%RAWIMUSA,2283,43272.640;2283,43272.639998462,00000077,-498,149,64173,-55,-9,-374*b7c6fc46
%RAWIMUSA,2283,43272.650;2283,43272.649998462,00000077,-491,154,64169,28,-8,951*8e259a19
%RAWIMUSA,2283,43272.660;2283,43272.659998462,00000077,-493,118,64179,-54,9,868*fe70ab83
%RAWIMUSA,2283,43272.670;2283,43272.669998462,00000077,-504,171,64164,64,0,-950*4b77e7c2
%RAWIMUSA,2283,43272.680;2283,43272.679998462,00000077,-499,111,64182,-46,8,-941*9220f7dc
%RAWIMUSA,2283,43272.690;2283,43272.689998462,00000077,-492,178,64163,0,-8,548*44a3537e
%RAWIMUSA,2283,43272.700;2283,43272.699998462,00000077,-493,116,64177,-8,-8,951*7ece0b29
%RAWIMUSA,2283,43272.710;2283,43272.709998462,00000077,-503,157,64171,-18,9,-54*c9d1473d
%RAWIMUSA,2283,43272.720;2283,43272.719998462,00000077,-498,145,64171,55,8,-950*85f71639
%RAWIMUSA,2283,43272.730;2283,43272.729998462,00000077,-490,122,64173,-73,0,-429*23820b8d
%RAWIMUSA,2283,43272.740;2283,43272.739998462,00000077,-490,174,64165,28,-8,960*862b3a92
%RAWIMUSA,2283,43272.750;2283,43272.749998462,00000077,-502,107,64182,-36,0,923*07591a46
%RAWIMUSA,2283,43272.760;2283,43272.759998462,00000077,-503,181,64164,27,8,-960*edb7e2cc
%RAWIMUSA,2283,43272.770;2283,43272.769998462,00000077,-496,117,64177,0,8,-950*a337c77e
%RAWIMUSA,2283,43272.780;2283,43272.779998462,00000077,-489,158,64170,-45,-8,493*332730e0
%RAWIMUSA,2283,43272.790;2283,43272.789998462,00000077,-496,143,64170,28,-8,969*a7db71e4
%RAWIMUSA,2283,43272.800;2283,43272.799998462,00000077,-502,132,64177,-45,18,-9*dbbf0849
%RAWIMUSA,2283,43272.810;2283,43272.809998462,00000077,-494,169,64163,73,8,-941*a0331a44
%RAWIMUSA,2283,43272.820;2283,43272.819998462,00000077,-488,101,64179,-73,-9,-475*e6fd06cd
%RAWIMUSA,2283,43272.830;2283,43272.829998462,00000077,-496,186,64163,9,-8,960*d8162b96
%RAWIMUSA,2283,43272.840;2283,43272.839998462,00000077,-504,112,64177,-8,0,951*b6a0936b
%RAWIMUSA,2283,43272.850;2283,43272.849998462,00000077,-492,164,64169,0,8,-923*8b2cc69e
%RAWIMUSA,2283,43272.860;2283,43272.859998462,00000077,-486,137,64171,27,0,-950*7a427980
%RAWIMUSA,2283,43272.870;2283,43272.869998462,00000077,-500,132,64176,-73,-8,448*97495521
%RAWIMUSA,2283,43272.880;2283,43272.879998462,00000077,-508,165,64165,46,0,960*9e2788a9
%RAWIMUSA,2283,43272.890;2283,43272.889998462,00000077,-493,108,64184,-36,0,45*a3687f87
%RAWIMUSA,2283,43272.900;2283,43272.899998462,00000077,-487,182,64163,36,8,-950*e17dc9e5
%RAWIMUSA,2283,43272.910;2283,43272.909998462,00000077,-495,110,64179,-27,-9,-521*766f8004
%RAWIMUSA,2283,43272.920;2283,43272.919998462,00000077,-502,159,64168,-36,0,960*1539e28a
%RAWIMUSA,2283,43272.930;2283,43272.929998462,00000077,-499,137,64170,37,0,960*2374a0ed
%RAWIMUSA,2283,43272.940;2283,43272.939998462,00000077,-493,133,64175,-36,8,-886*19ce57dd
%RAWIMUSA,2283,43272.950;2283,43272.949998462,00000077,-494,163,64163,46,0,-950*e737dd85
%RAWIMUSA,2283,43272.960;2283,43272.959998462,00000077,-500,108,64180,-73,-8,393*0973fe9f
%RAWIMUSA,2283,43272.970;2283,43272.969998462,00000077,-498,180,64162,18,0,960*1f9e0ef7
%RAWIMUSA,2283,43272.980;2283,43272.979998462,00000077,-493,111,64180,0,0,91*3a84ed2b
%RAWIMUSA,2283,43272.990;2283,43272.989998462,00000077,-491,165,64165,0,8,-950*5e326852
%RAWIMUSA,2283,43273.000;2283,43272.999998462,00000077,-497,130,64172,9,-9,-585*a099d055
%RAWIMUSA,2283,43273.010;2283,43273.009998462,00000077,-503,137,64173,-73,-8,960*be11b0f2
%RAWIMUSA,2283,43273.020;2283,43273.019998462,00000077,-491,163,64165,64,9,960*0569dca3
%RAWIMUSA,2283,43273.030;2283,43273.029998462,00000077,-487,112,64183,-36,8,-832*36cb2039
%RAWIMUSA,2283,43273.040;2283,43273.039998462,00000077,-507,179,64160,27,-10,-959*f8d43dea
%RAWIMUSA,2283,43273.050;2283,43273.049998462,00000077,-498,109,64182,-45,0,347*9db5ffd9
%RAWIMUSA,2283,43273.060;2283,43273.059998462,00000077,-488,173,64166,-8,0,951*d93d85fe
%RAWIMUSA,2283,43273.070;2283,43273.069998462,00000077,-491,123,64174,27,9,146*a6fd68d5
%RAWIMUSA,2283,43273.080;2283,43273.079998462,00000077,-502,144,64171,-18,0,-941*6309d346
%RAWIMUSA,2283,43273.090;2283,43273.089998462,00000077,-509,160,64171,18,-9,-630*564dae25
%RAWIMUSA,2283,43273.100;2283,43273.099998462,00000077,-489,128,64177,-73,-8,960*bb9127be
%RAWIMUSA,2283,43273.110;2283,43273.109998462,00000077,-487,154,64162,55,9,960*0dec8465
%RAWIMUSA,2283,43273.120;2283,43273.119998462,00000077,-504,118,64177,-27,8,-786*4c5fe782
%RAWIMUSA,2283,43273.130;2283,43273.129998462,00000077,-503,184,64163,9,-10,-950*ad6ad7f2
%RAWIMUSA,2283,43273.140;2283,43273.139998462,00000077,-491,108,64177,-18,-9,292*9aa86377
%RAWIMUSA,2283,43273.150;2283,43273.149998462,00000077,-486,152,64168,-36,9,960*999093a4
%RAWIMUSA,2283,43273.160;2283,43273.159998462,00000077,-505,147,64168,64,9,201*e704a103
%RAWIMUSA,2283,43273.170;2283,43273.169998462,00000077,-500,133,64177,-55,0,-950*b179ee88
%RAWIMUSA,2283,43273.180;2283,43273.179998462,00000077,-488,168,64164,36,-9,-685*9f91832d
%RAWIMUSA,2283,43273.190;2283,43273.189998462,00000077,-488,104,64181,-73,0,951*5bb67365
%RAWIMUSA,2283,43273.200;2283,43273.199998462,00000077,-506,183,64165,37,9,960*f73fe3f3
%RAWIMUSA,2283,43273.210;2283,43273.209998462,00000077,-501,117,64178,18,0,-722*1b23af78
%RAWIMUSA,2283,43273.220;2283,43273.219998462,00000077,-486,155,64169,-36,0,-960*42a7b525
%RAWIMUSA,2283,43273.230;2283,43273.229998462,00000077,-491,140,64171,9,-9,246*f73eb3fa
%RAWIMUSA,2283,43273.240;2283,43273.239998462,00000077,-501,135,64178,-54,0,960*e4756482
%RAWIMUSA,2283,43273.250;2283,43273.249998462,00000077,-504,175,64164,64,9,256*701a3ccd
%RAWIMUSA,2283,43273.260;2283,43273.259998462,00000077,-490,101,64181,-46,0,-960*31dfadea
%RAWIMUSA,2283,43273.270;2283,43273.269998462,00000077,-491,177,64164,0,0,-731*7947b1a3
%RAWIMUSA,2283,43273.280;2283,43273.279998462,00000077,-502,117,64177,-18,-8,960*0955482e
%RAWIMUSA,2283,43273.290;2283,43273.289998462,00000077,-499,157,64169,-8,9,951*1851d4f9
%RAWIMUSA,2283,43273.300;2283,43273.299998462,00000077,-494,138,64171,46,8,-667*47460598
%RAWIMUSA,2283,43273.310;2283,43273.309998462,00000077,-493,133,64175,-64,-9,-960*b3b6b7e0
%RAWIMUSA,2283,43273.320;2283,43273.319998462,00000077,-499,165,64164,27,-9,192*8256a4f9
%RAWIMUSA,2283,43273.330;2283,43273.329998462,00000077,-500,112,64180,-54,0,960*7107cc5a
%RAWIMUSA,2283,43273.340;2283,43273.339998462,00000077,-490,171,64163,46,9,320*86b39d2a
%RAWIMUSA,2283,43273.350;2283,43273.349998462,00000077,-494,108,64178,-18,0,-960*ab874503
%RAWIMUSA,2283,43273.360;2283,43273.359998462,00000077,-497,174,64164,-18,-9,-786*c92bc532
%RAWIMUSA,2283,43273.370;2283,43273.369998462,00000077,-500,125,64177,-8,0,960*4c7d3593
%RAWIMUSA,2283,43273.380;2283,43273.379998462,00000077,-494,141,64172,-18,9,960*216102c0
%RAWIMUSA,2283,43273.390;2283,43273.389998462,00000077,-495,147,64170,55,8,-621*119320b7
%RAWIMUSA,2283,43273.400;2283,43273.399998462,00000077,-500,130,64177,-64,-9,-941*65367d10
%RAWIMUSA,2283,43273.410;2283,43273.409998462,00000077,-501,170,64164,18,-18,137*9f3bcac9
%RAWIMUSA,2283,43273.420;2283,43273.419998462,00000077,-489,105,64179,-45,9,960*49743f6c
%RAWIMUSA,2283,43273.430;2283,43273.429998462,00000077,-489,180,64166,46,9,356*ebd2ef02
%RAWIMUSA,2283,43273.440;2283,43273.439998462,00000077,-502,115,64178,-9,0,-941*9952d066
%RAWIMUSA,2283,43273.450;2283,43273.449998462,00000077,-501,164,64171,-36,-9,-859*812a78cb
%RAWIMUSA,2283,43273.460;2283,43273.459998462,00000077,-491,136,64172,9,0,960*3c9dae08
%RAWIMUSA,2283,43273.470;2283,43273.469998462,00000077,-490,134,64173,-27,9,960*91448eb3
%RAWIMUSA,2283,43273.480;2283,43273.479998462,00000077,-502,160,64167,55,8,-585*c42148d6
%RAWIMUSA,2283,43273.490;2283,43273.489998462,00000077,-504,121,64177,-64,-9,-950*da15adb5
%RAWIMUSA,2283,43273.500;2283,43273.499998462,00000077,-488,175,64164,18,-9,91*096cfa3d
%RAWIMUSA,2283,43273.510;2283,43273.509998462,00000077,-492,104,64180,-27,9,951*0607ca5f
%RAWIMUSA,2283,43273.520;2283,43273.519998462,00000077,-504,174,64165,18,9,411*360a81ac
%RAWIMUSA,2283,43273.530;2283,43273.529998462,00000077,-497,123,64175,18,-10,-950*3162f421
%RAWIMUSA,2283,43273.540;2283,43273.539998462,00000077,-489,147,64169,-64,0,-905*9a002be0
%RAWIMUSA,2283,43273.550;2283,43273.549998462,00000077,-487,149,64169,37,0,960*cc36dde6
%RAWIMUSA,2283,43273.560;2283,43273.559998462,00000077,-506,121,64178,-45,9,960*16094699
%RAWIMUSA,2283,43273.570;2283,43273.569998462,00000077,-503,179,64164,64,0,-530*e4f8dd9d
%RAWIMUSA,2283,43273.580;2283,43273.579998462,00000077,-489,107,64182,-55,-9,-960*a12c40d0
%RAWIMUSA,2283,43273.590;2283,43273.589998462,00000077,-488,172,64164,-9,-9,36*a56ec991
%RAWIMUSA,2283,43273.600;2283,43273.599998462,00000077,-499,119,64176,9,9,969*7af201e5
%RAWIMUSA,2283,43273.610;2283,43273.609998462,00000077,-507,154,64172,-27,9,457*87f89fe7
%RAWIMUSA,2283,43273.620;2283,43273.619998462,00000077,-488,154,64169,55,-10,-950*835561fb
%RAWIMUSA,2283,43273.630;2283,43273.629998462,00000077,-488,109,64179,-83,0,-941*ac66c2ae
%RAWIMUSA,2283,43273.640;2283,43273.639998462,00000077,-503,183,64162,28,0,969*93d0adfc
%RAWIMUSA,2283,43273.650;2283,43273.649998462,00000077,-504,108,64182,-8,9,951*f934343e
%RAWIMUSA,2283,43273.660;2283,43273.659998462,00000077,-491,166,64166,9,0,-457*834e6813
%RAWIMUSA,2283,43273.670;2283,43273.669998462,00000077,-488,127,64175,0,0,-950*64de6d4a
%RAWIMUSA,2283,43273.680;2283,43273.679998462,00000077,-500,144,64173,-64,-9,-18*72f55e6b
%RAWIMUSA,2283,43273.690;2283,43273.689998462,00000077,-499,163,64168,55,9,969*10996880
%RAWIMUSA,2283,43273.700;2283,43273.699998462,00000077,-494,109,64183,-45,9,512*325b19e8
%RAWIMUSA,2283,43273.710;2283,43273.709998462,00000077,-491,174,64163,36,-10,-959*ebcce4d2
%RAWIMUSA,2283,43273.720;2283,43273.719998462,00000077,-495,114,64178,-36,-9,-960*bee410dd
%RAWIMUSA,2283,43273.730;2283,43273.729998462,00000077,-501,172,64163,-18,9,914*a1f7f7df
%RAWIMUSA,2283,43273.740;2283,43273.739998462,00000077,-496,123,64176,28,9,960*224cbf77
%RAWIMUSA,2283,43273.750;2283,43273.749998462,00000077,-489,148,64169,-18,0,-420*d7304045
%RAWIMUSA,2283,43273.760;2283,43273.759998462,00000077,-493,152,64167,27,-10,-941*ef60ebc3
%RAWIMUSA,2283,43273.770;2283,43273.769998462,00000077,-501,125,64178,-82,-9,-63*a0072b86
%RAWIMUSA,2283,43273.780;2283,43273.779998462,00000077,-498,173,64161,55,9,960*0b1a2b1e
%RAWIMUSA,2283,43273.790;2283,43273.789998462,00000077,-488,100,64183,-18,9,557*75299946
%RAWIMUSA,2283,43273.800;2283,43273.799998462,00000077,-492,179,64160,0,-9,-950*6038e7af
%RAWIMUSA,2283,43273.810;2283,43273.809998461,00000077,-502,120,64175,-9,-9,-950*3702d083
%RAWIMUSA,2283,43273.820;2283,43273.819998461,00000077,-494,150,64173,-45,9,850*fcbe291d
%RAWIMUSA,2283,43273.830;2283,43273.829998461,00000077,-487,148,64171,55,0,951*7e47fbe3
%RAWIMUSA,2283,43273.840;2283,43273.839998461,00000077,-496,121,64176,-36,8,-356*6b94985b
%RAWIMUSA,2283,43273.850;2283,43273.849998461,00000077,-502,176,64162,27,-19,-959*7e0dadc5
%RAWIMUSA,2283,43273.860;2283,43273.859998461,00000077,-494,103,64181,-55,0,-127*91dfa155
%RAWIMUSA,2283,43273.870;2283,43273.869998461,00000077,-489,180,64162,9,9,960*3838cfa8
%RAWIMUSA,2283,43273.880;2283,43273.879998461,00000077,-494,122,64175,27,9,621*f4b34734
%RAWIMUSA,2283,43273.890;2283,43273.889998461,00000077,-504,142,64171,-55,-9,-950*79005ee3
%RAWIMUSA,2283,43273.900;2283,43273.899998461,00000077,-497,154,64168,36,-10,-959*4b815a38
%RAWIMUSA,2283,43273.910;2283,43273.909998461,00000077,-489,113,64180,-73,9,813*652b1b31
%RAWIMUSA,2283,43273.920;2283,43273.919998461,00000077,-494,183,64159,55,0,960*d1291ec4
%RAWIMUSA,2283,43273.930;2283,43273.929998461,00000077,-503,107,64180,-9,0,-310*c7c818ac
%RAWIMUSA,2283,43273.940;2283,43273.939998461,00000077,-500,167,64163,-27,-9,-960*e1ce2c0d
%RAWIMUSA,2283,43273.950;2283,43273.949998461,00000077,-487,131,64175,0,0,-164*e50080fa
%RAWIMUSA,2283,43273.960;2283,43273.959998461,00000077,-488,146,64173,-36,9,960*0333c20a
%RAWIMUSA,2283,43273.970;2283,43273.969998461,00000077,-502,154,64167,64,0,667*b3921b0a
%RAWIMUSA,2283,43273.980;2283,43273.979998461,00000077,-500,106,64179,-64,-9,-950*2477aaab
%RAWIMUSA,2283,43273.990;2283,43273.989998461,00000077,-489,186,64161,18,-10,-959*3872bb50
%RAWIMUSA,2283,43274.000;2283,43273.999998461,00000077,-492,109,64180,-27,9,759*1a166417
%RAWIMUSA,2283,43274.010;2283,43274.009998461,00000077,-503,166,64166,0,9,951*a884f3ff
%RAWIMUSA,2283,43274.020;2283,43274.019998461,00000077,-501,130,64175,36,-9,-265*88a2eaed
%RAWIMUSA,2283,43274.030;2283,43274.029998461,00000077,-493,137,64176,-73,-9,-950*5142b753
%RAWIMUSA,2283,43274.040;2283,43274.039998461,00000077,-487,168,64162,27,8,-219*30ab05d2
%RAWIMUSA,2283,43274.050;2283,43274.049998461,00000077,-498,110,64178,-36,9,960*5ae84103
%RAWIMUSA,2283,43274.060;2283,43274.059998461,00000077,-503,176,64160,46,0,722*3f0420a9
%RAWIMUSA,2283,43274.070;2283,43274.069998461,00000077,-490,113,64182,-27,-9,-950*ff084125
%RAWIMUSA,2283,43274.080;2283,43274.079998461,00000077,-492,171,64167,-27,0,-950*e8aef1bc
%RAWIMUSA,2283,43274.090;2283,43274.089998461,00000077,-502,122,64173,9,0,713*2d15c58c
%RAWIMUSA,2283,43274.100;2283,43274.099998461,00000077,-496,149,64169,-27,9,960*4d8c0d49
%RAWIMUSA,2283,43274.110;2283,43274.109998461,00000077,-493,152,64170,64,0,-201*49071622
%RAWIMUSA,2283,43274.120;2283,43274.119998461,00000077,-499,121,64178,-83,-9,-950*314aab60
%RAWIMUSA,2283,43274.130;2283,43274.129998461,00000077,-498,175,64161,27,0,-283*35650f4e
%RAWIMUSA,2283,43274.140;2283,43274.139998461,00000077,-492,95,64182,-27,9,951*d0aa747b
%RAWIMUSA,2283,43274.150;2283,43274.149998461,00000077,-495,180,64162,27,0,777*9dff29f3
%RAWIMUSA,2283,43274.160;2283,43274.159998461,00000077,-498,123,64175,-9,-9,-950*c4b9d7d6
%RAWIMUSA,2283,43274.170;2283,43274.169998461,00000077,-496,147,64173,-55,-9,-960*d560452e
%RAWIMUSA,2283,43274.180;2283,43274.179998461,00000077,-492,145,64166,46,9,658*30729aaa
%RAWIMUSA,2283,43274.190;2283,43274.189998461,00000077,-494,126,64179,-45,9,951*cc1f87a1
%RAWIMUSA,2283,43274.200;2283,43274.199998461,00000077,-499,180,64165,55,-9,-155*79a57234
%RAWIMUSA,2283,43274.210;2283,43274.209998461,00000077,-500,102,64182,-64,-9,-950*09ea69be
%RAWIMUSA,2283,43274.220;2283,43274.219998461,00000077,-490,166,64162,0,8,-329*2495d37f
%RAWIMUSA,2283,43274.230;2283,43274.229998461,00000077,-493,127,64176,18,0,960*aa12ee7a
%RAWIMUSA,2283,43274.240;2283,43274.239998461,00000077,-499,163,64169,-18,9,823*115d30c7
%RAWIMUSA,2283,43274.250;2283,43274.249998461,00000077,-499,139,64167,27,-19,-950*c88884dd
%RAWIMUSA,2283,43274.260;2283,43274.259998461,00000077,-489,114,64176,-73,0,-950*5489e323
%RAWIMUSA,2283,43274.270;2283,43274.269998461,00000077,-495,177,64164,46,9,603*aecc37cd
%RAWIMUSA,2283,43274.280;2283,43274.279998461,00000077,-502,116,64178,-27,9,960*ffea2c49
%RAWIMUSA,2283,43274.290;2283,43274.289998461,00000077,-493,172,64163,27,-9,-118*d93088ca
%RAWIMUSA,2283,43274.300;2283,43274.299998461,00000077,-494,110,64177,-27,0,-950*fd7d4a87
%RAWIMUSA,2283,43274.310;2283,43274.309998461,00000077,-495,164,64169,-36,0,-383*1775ba7c
%RAWIMUSA,2283,43274.320;2283,43274.319998461,00000077,-500,146,64172,46,9,960*fa8c2ecc
%RAWIMUSA,2283,43274.330;2283,43274.329998461,00000077,-497,128,64175,-36,0,868*e60261a4
%RAWIMUSA,2283,43274.340;2283,43274.339998461,00000077,-491,157,64165,36,-10,-950*67a116d9
%RAWIMUSA,2283,43274.350;2283,43274.349998461,00000077,-499,119,64180,-73,0,-950*2f226d14
%RAWIMUSA,2283,43274.360;2283,43274.359998461,00000077,-498,182,64162,37,9,548*b35dfd63
%RAWIMUSA,2283,43274.370;2283,43274.369998461,00000077,-497,99,64181,-18,0,951*f24efec4
%RAWIMUSA,2283,43274.380;2283,43274.379998461,00000077,-494,168,64167,9,-9,-54*a48010c4
%RAWIMUSA,2283,43274.390;2283,43274.389998461,00000077,-498,136,64174,-9,0,-950*be97c277
%RAWIMUSA,2283,43274.400;2283,43274.399998461,00000077,-493,146,64175,-55,0,-420*ca0993b3
%RAWIMUSA,2283,43274.410;2283,43274.409998461,00000077,-494,144,64165,64,9,960*3c9bd5df
%RAWIMUSA,2283,43274.420;2283,43274.419998461,00000077,-499,121,64177,-45,0,932*aae583ef
%RAWIMUSA,2283,43274.430;2283,43274.429998461,00000077,-497,183,64164,27,-10,-950*0c9c536b
%RAWIMUSA,2283,43274.440;2283,43274.439998461,00000077,-488,104,64183,-55,0,-960*649a730a
%RAWIMUSA,2283,43274.450;2283,43274.449998461,00000077,-490,170,64165,9,9,503*ee37c581
%RAWIMUSA,2283,43274.460;2283,43274.459998461,00000077,-504,125,64174,28,0,960*56310aed
%RAWIMUSA,2283,43274.470;2283,43274.469998461,00000077,-498,156,64170,-36,0,0*bc921245
%RAWIMUSA,2283,43274.480;2283,43274.479998461,00000077,-490,147,64172,18,-10,-950*d0a60c18
%RAWIMUSA,2283,43274.490;2283,43274.489998461,00000077,-497,120,64176,-73,8,-484*6b79cc37
%RAWIMUSA,2283,43274.500;2283,43274.499998461,00000077,-501,168,64162,64,9,960*eb837e80
%RAWIMUSA,2283,43274.510;2283,43274.509998461,00000077,-487,113,64181,-27,-8,960*e6dd433f
%RAWIMUSA,2283,43274.520;2283,43274.519998461,00000077,-492,177,64160,9,-9,-923*22651a42
%RAWIMUSA,2283,43274.530;2283,43274.529998461,00000077,-500,108,64182,-36,0,-950*26f28814
%RAWIMUSA,2283,43274.540;2283,43274.539998461,00000077,-496,162,64163,-8,9,448*9fb9a97e
%RAWIMUSA,2283,43274.550;2283,43274.549998461,00000077,-491,136,64173,46,0,951*2148b3cf
%RAWIMUSA,2283,43274.560;2283,43274.559998461,00000077,-494,139,64174,-55,-9,54*8257ac69
%RAWIMUSA,2283,43274.570;2283,43274.569998461,00000077,-502,158,64168,27,0,-960*1a3e7fdb
%RAWIMUSA,2283,43274.580;2283,43274.579998461,00000077,-498,115,64179,-64,8,-539*514737e8
%RAWIMUSA,2283,43274.590;2283,43274.589998461,00000077,-488,176,64161,46,0,960*0d4f952c
%RAWIMUSA,2283,43274.600;2283,43274.599998461,00000077,-493,109,64176,-8,0,960*2ed3683d
%RAWIMUSA,2283,43274.610;2283,43274.609998461,00000077,-503,171,64165,-18,-9,-868*d54ee787
%RAWIMUSA,2283,43274.620;2283,43274.619998461,00000077,-503,122,64174,-9,8,-960*f0cbe86b
%RAWIMUSA,2283,43274.630;2283,43274.629998461,00000077,-491,151,64171,-27,0,393*6c3ba41d
%RAWIMUSA,2283,43274.640;2283,43274.639998461,00000077,-489,149,64169,64,0,960*2ba9d036
%RAWIMUSA,2283,43274.650;2283,43274.649998461,00000077,-497,122,64180,-64,0,109*3f10d96a
%RAWIMUSA,2283,43274.660;2283,43274.659998461,00000077,-506,175,64161,27,-10,-959*f7a2f071
%RAWIMUSA,2283,43274.670;2283,43274.669998461,00000077,-492,104,64181,-55,8,-594*38d10bdb
%RAWIMUSA,2283,43274.680;2283,43274.679998461,00000077,-489,179,64162,28,9,960*4269e958
%RAWIMUSA,2283,43274.690;2283,43274.689998461,00000077,-500,116,64173,18,-8,960*87f2a487
%RAWIMUSA,2283,43274.700;2283,43274.699998461,00000077,-501,153,64171,-55,0,-822*10e00397
%RAWIMUSA,2283,43274.710;2283,43274.709998461,00000077,-491,150,64168,27,0,-950*a125401f
%RAWIMUSA,2283,43274.720;2283,43274.719998461,00000077,-489,117,64177,-55,9,338*cafa88da
%RAWIMUSA,2283,43274.730;2283,43274.729998461,00000077,-500,178,64161,55,0,960*267d6bcc
%RAWIMUSA,2283,43274.740;2283,43274.739998461,00000077,-502,101,64180,-36,-9,155*23e8a966
%RAWIMUSA,2283,43274.750;2283,43274.749998461,00000077,-493,176,64163,-18,0,-950*a67b667e
%RAWIMUSA,2283,43274.760;2283,43274.759998461,00000077,-491,124,64174,9,0,-639*c7a328c5
%RAWIMUSA,2283,43274.770;2283,43274.769998461,00000077,-495,146,64171,-27,9,969*50c2d1f9
%RAWIMUSA,2283,43274.780;2283,43274.779998461,00000077,-501,153,64169,64,0,951*9e44b060
%RAWIMUSA,2283,43274.790;2283,43274.789998461,00000077,-494,119,64178,-82,-9,-777*f6c13dc7
%RAWIMUSA,2283,43274.800;2283,43274.799998461,00000077,-487,179,64162,18,0,-950*82d78474
%RAWIMUSA,2283,43274.810;2283,43274.809998461,00000077,-494,105,64183,-18,9,292*b50a7b1f
%RAWIMUSA,2283,43274.820;2283,43274.819998461,00000077,-505,171,64165,9,0,960*f58e5b96
%RAWIMUSA,2283,43274.830;2283,43274.829998461,00000077,-503,129,64174,18,-9,210*a1605d34
%RAWIMUSA,2283,43274.840;2283,43274.839998461,00000077,-488,143,64174,-64,0,-960*6a40623b
%RAWIMUSA,2283,43274.850;2283,43274.849998461,00000077,-495,153,64170,46,0,-685*745f7352
%RAWIMUSA,2283,43274.860;2283,43274.859998461,00000077,-504,116,64181,-45,9,960*2b5ad8a0
%RAWIMUSA,2283,43274.870;2283,43274.869998461,00000077,-495,186,64162,55,-8,960*f611c430
%RAWIMUSA,2283,43274.880;2283,43274.879998461,00000077,-489,101,64182,-55,0,-722*20ba36cd
%RAWIMUSA,2283,43274.890;2283,43274.889998461,00000077,-496,168,64166,-18,8,-960*40ebdbd2
%RAWIMUSA,2283,43274.900;2283,43274.899998461,00000077,-506,128,64179,27,0,246*680072d7
%RAWIMUSA,2283,43274.910;2283,43274.909998461,00000077,-494,149,64174,-27,0,951*31ff53fe
%RAWIMUSA,2283,43274.920;2283,43274.919998461,00000077,-480,153,64167,37,-9,265*ccb3144d
%RAWIMUSA,2283,43274.930;2283,43274.929998461,00000077,-497,116,64180,-73,0,-950*ce6f3ff1
%RAWIMUSA,2283,43274.940;2283,43274.939998461,00000077,-515,177,64160,36,8,-740*2a0938b1
%RAWIMUSA,2283,43274.950;2283,43274.949998461,00000077,-494,106,64181,-18,0,960*5025c0aa
%RAWIMUSA,2283,43274.960;2283,43274.959998461,00000077,-478,175,64165,18,-8,960*f200382e
%RAWIMUSA,2283,43274.970;2283,43274.969998461,00000077,-499,116,64175,-9,-9,-676*b1752617
%RAWIMUSA,2283,43274.980;2283,43274.979998461,00000077,-514,152,64175,-64,8,-950*beba1efe
%RAWIMUSA,2283,43274.990;2283,43274.989998461,00000077,-493,160,64169,64,9,182*8620f1da
%RAWIMUSA,2283,43275.000;2283,43274.999998461,00000077,-480,109,64180,-45,0,960*fba6e6f1
%RAWIMUSA,2283,43275.010;2283,43275.009998461,00000077,-499,179,64160,37,-9,311*b46e057c
%RAWIMUSA,2283,43275.020;2283,43275.019998461,00000077,-511,108,64180,-46,0,-941*589dfb2d
%RAWIMUSA,2283,43275.030;2283,43275.029998461,00000077,-493,175,64166,-9,8,-795*5a308593
%RAWIMUSA,2283,43275.040;2283,43275.039998461,00000077,-483,126,64175,37,0,960*97354da0
%RAWIMUSA,2283,43275.050;2283,43275.049998461,00000077,-492,144,64172,-36,-8,960*c26e347f
%RAWIMUSA,2283,43275.060;2283,43275.059998461,00000077,-509,158,64167,27,-9,-612*9103c921
%RAWIMUSA,2283,43275.070;2283,43275.069998461,00000077,-499,114,64181,-83,8,-950*a8c7c1e5
%RAWIMUSA,2283,43275.080;2283,43275.079998461,00000077,-486,181,64160,55,9,137*696d7b74
%RAWIMUSA,2283,43275.090;2283,43275.089998461,00000077,-497,109,64182,-8,-8,960*4e8c4f98
%RAWIMUSA,2283,43275.100;2283,43275.099998461,00000077,-509,170,64164,-18,-8,365*82a9b1ef
%RAWIMUSA,2283,43275.110;2283,43275.109998461,00000077,-495,126,64174,0,0,-950*fbd6c664
%RAWIMUSA,2283,43275.120;2283,43275.119998461,00000077,-486,146,64174,-46,8,-841*5d6d2d50
%RAWIMUSA,2283,43275.130;2283,43275.129998461,00000077,-501,152,64168,55,0,960*ff6d9786
%RAWIMUSA,2283,43275.140;2283,43275.139998461,00000077,-503,123,64177,-45,0,960*80b07e90
%RAWIMUSA,2283,43275.150;2283,43275.149998461,00000077,-491,172,64163,27,-9,-575*46de8c54
%RAWIMUSA,2283,43275.160;2283,43275.159998461,00000077,-490,106,64181,-55,17,-950*ee623fa3
%RAWIMUSA,2283,43275.170;2283,43275.169998461,00000077,-501,178,64164,27,9,82*d7f8f740
%RAWIMUSA,2283,43275.180;2283,43275.179998461,00000077,-501,120,64178,9,-8,969*8a74899a
%RAWIMUSA,2283,43275.190;2283,43275.189998461,00000077,-489,160,64168,-27,-8,411*60448754
%RAWIMUSA,2283,43275.200;2283,43275.199998461,00000077,-488,138,64169,18,0,-941*81886e69
%RAWIMUSA,2283,43275.210;2283,43275.209998461,00000077,-502,133,64175,-64,8,-905*e6d7dab8
%RAWIMUSA,2283,43275.220;2283,43275.219998461,00000077,-503,171,64166,64,0,960*117ea071
%RAWIMUSA,2283,43275.230;2283,43275.229998461,00000077,-495,106,64182,-36,-8,960*c649d53d
%RAWIMUSA,2283,43275.240;2283,43275.239998461,00000077,-488,180,64163,0,0,-521*38a27890
%RAWIMUSA,2283,43275.250;2283,43275.249998461,00000077,-499,114,64177,-18,8,-950*0c2292cb
%RAWIMUSA,2283,43275.260;2283,43275.259998461,00000077,-502,160,64169,-18,0,36*16bc7b2a
%RAWIMUSA,2283,43275.270;2283,43275.269998461,00000077,-493,151,64170,55,-8,960*0c9718ab
%RAWIMUSA,2283,43275.280;2283,43275.279998461,00000077,-487,120,64176,-73,-8,475*3dbee61a
%RAWIMUSA,2283,43275.290;2283,43275.289998461,00000077,-499,175,64162,36,8,-950*3f8f1dce
%RAWIMUSA,2283,43275.300;2283,43275.299998461,00000077,-501,108,64181,-46,8,-960*de2f5105
%RAWIMUSA,2283,43275.310;2283,43275.309998461,00000077,-491,179,64164,37,0,969*76b929a8
%RAWIMUSA,2283,43275.320;2283,43275.319998461,00000077,-494,118,64177,0,-8,960*d9d8f022
%RAWIMUSA,2283,43275.330;2283,43275.329998461,00000077,-495,157,64169,-46,0,-466*c8cf6786
%RAWIMUSA,2283,43275.340;2283,43275.339998461,00000077,-497,142,64168,18,0,-960*bbda4db1
%RAWIMUSA,2283,43275.350;2283,43275.349998461,00000077,-497,132,64174,-36,9,-18*e8821f8c
%RAWIMUSA,2283,43275.360;2283,43275.359998461,00000077,-497,169,64167,64,-8,960*78044b24
%RAWIMUSA,2283,43275.370;2283,43275.369998461,00000077,-494,110,64182,-64,-8,512*dc2f19ae
%RAWIMUSA,2283,43275.380;2283,43275.379998461,00000077,-491,183,64160,9,8,-950*6aa81610
%RAWIMUSA,2283,43275.390;2283,43275.389998461,00000077,-497,104,64178,-18,8,-960*535bb1d2
%RAWIMUSA,2283,43275.400;2283,43275.399998461,00000077,-498,166,64167,0,0,914*0485e03e
%RAWIMUSA,2283,43275.410;2283,43275.409998461,00000077,-494,140,64174,37,-8,960*831102ea
%RAWIMUSA,2283,43275.420;2283,43275.419998461,00000077,-494,135,64173,-82,0,-411*53ab0e9e
%RAWIMUSA,2283,43275.430;2283,43275.429998461,00000077,-498,166,64167,36,8,-950*25aac4c5
%RAWIMUSA,2283,43275.440;2283,43275.439998461,00000077,-498,107,64180,-36,0,-73*5ca0ffb4
%RAWIMUSA,2283,43275.450;2283,43275.449998461,00000077,-489,178,64162,55,-8,960*f98fd2b5
%RAWIMUSA,2283,43275.460;2283,43275.459998461,00000077,-496,117,64183,-36,-8,576*41cf15ae
%RAWIMUSA,2283,43275.470;2283,43275.469998461,00000077,-503,168,64166,-27,8,-960*112ad264
%RAWIMUSA,2283,43275.480;2283,43275.479998461,00000077,-492,122,64173,18,8,-950*28d94147
%RAWIMUSA,2283,43275.490;2283,43275.489998461,00000077,-492,146,64171,-27,0,859*8ea6fd76
%RAWIMUSA,2283,43275.500;2283,43275.499998461,00000077,-502,162,64167,46,-17,960*1b3e246f
%RAWIMUSA,2283,43275.510;2283,43275.509998461,00000077,-502,120,64179,-73,8,-374*e59b4266
%RAWIMUSA,2283,43275.520;2283,43275.519998461,00000077,-489,172,64161,27,0,-950*c3704e39
%RAWIMUSA,2283,43275.530;2283,43275.529998461,00000077,-489,102,64181,-18,9,-118*16cd5af4
%RAWIMUSA,2283,43275.540;2283,43275.539998461,00000077,-502,178,64164,18,-8,960*6f3fa26e
%RAWIMUSA,2283,43275.550;2283,43275.549998461,00000077,-501,127,64175,-8,-8,631*ee4e93f7
%RAWIMUSA,2283,43275.560;2283,43275.559998461,00000077,-490,144,64173,-55,8,-950*d23b72e5
%RAWIMUSA,2283,43275.570;2283,43275.569998461,00000077,-492,149,64171,46,8,-950*b6b1d6fe
%RAWIMUSA,2283,43275.580;2283,43275.579998461,00000077,-505,126,64181,-36,-8,795*5562f3a3
%RAWIMUSA,2283,43275.590;2283,43275.589998461,00000077,-500,178,64162,46,-8,960*b2a4893d
%RAWIMUSA,2283,43275.600;2283,43275.599998461,00000077,-486,102,64180,-64,8,-310*5c9a4114
%RAWIMUSA,2283,43275.610;2283,43275.609998461,00000077,-492,175,64162,0,0,-950*917e3a3a
%RAWIMUSA,2283,43275.620;2283,43275.619998461,00000077,-505,123,64174,27,0,-173*ecb4ac91
%RAWIMUSA,2283,43275.630;2283,43275.629998461,00000077,-501,148,64173,-27,-8,960*c1a7e809
%RAWIMUSA,2283,43275.640;2283,43275.639998461,00000077,-492,145,64170,27,0,667*7f461478
%RAWIMUSA,2283,43275.650;2283,43275.649998461,00000077,-490,127,64177,-73,8,-960*38254dd2
%RAWIMUSA,2283,43275.660;2283,43275.659998461,00000077,-497,172,64161,46,0,-959*5c58bcaa
%RAWIMUSA,2283,43275.670;2283,43275.669998461,00000077,-499,106,64179,-27,0,749*878b9825
%RAWIMUSA,2283,43275.680;2283,43275.679998461,00000077,-495,176,64162,18,-8,960*c2a47684
%RAWIMUSA,2283,43275.690;2283,43275.689998461,00000077,-492,121,64178,-27,0,-255*46f50833
%RAWIMUSA,2283,43275.700;2283,43275.699998461,00000077,-494,162,64167,-36,8,-950*8c66c3db
%RAWIMUSA,2283,43275.710;2283,43275.709998461,00000077,-500,129,64172,55,-9,-228*63ae8c76
%RAWIMUSA,2283,43275.720;2283,43275.719998460,00000077,-498,135,64175,-45,0,951*8efc6411
%RAWIMUSA,2283,43275.730;2283,43275.729998460,00000077,-495,166,64167,37,-8,731*cd36296d
%RAWIMUSA,2283,43275.740;2283,43275.739998460,00000077,-497,114,64178,-73,17,-960*06bf83aa
%RAWIMUSA,2283,43275.750;2283,43275.749998460,00000077,-500,178,64159,36,0,-950*a8e7b785
%RAWIMUSA,2283,43275.760;2283,43275.759998460,00000077,-492,104,64181,0,-8,685*c9986f46
%RAWIMUSA,2283,43275.770;2283,43275.769998460,00000077,-492,169,64165,-18,-8,960*4a976726
%RAWIMUSA,2283,43275.780;2283,43275.779998460,00000077,-502,136,64173,9,8,-191*f79637c2
%RAWIMUSA,2283,43275.790;2283,43275.789998460,00000077,-499,134,64179,-64,8,-950*fb680849
%RAWIMUSA,2283,43275.800;2283,43275.799998460,00000077,-493,155,64167,64,-9,-283*3605830f
%RAWIMUSA,2283,43275.810;2283,43275.809998460,00000077,-492,119,64180,-36,0,951*20a79865
%RAWIMUSA,2283,43275.820;2283,43275.819998460,00000077,-491,180,64161,18,0,786*0c851ac0
%RAWIMUSA,2283,43275.830;2283,43275.829998460,00000077,-499,106,64180,-55,8,-960*29c80c2c
%RAWIMUSA,2283,43275.840;2283,43275.839998460,00000077,-504,171,64165,18,0,-960*30107b97
%RAWIMUSA,2283,43275.850;2283,43275.849998460,00000077,-494,121,64175,18,-8,658*0f8d65c9
%RAWIMUSA,2283,43275.860;2283,43275.859998460,00000077,-480,154,64169,-36,-8,960*77333e78
%RAWIMUSA,2283,43275.870;2283,43275.869998460,00000077,-499,145,64168,18,8,-155*277775da
%RAWIMUSA,2283,43275.880;2283,43275.879998460,00000077,-510,126,64177,-55,8,-950*6e814cdd
%RAWIMUSA,2283,43275.890;2283,43275.889998460,00000077,-491,170,64163,64,-9,-329*fa729e09
%RAWIMUSA,2283,43275.900;2283,43275.899998460,00000077,-479,105,64181,-36,-8,951*40ddc71c
%RAWIMUSA,2283,43275.910;2283,43275.909998460,00000077,-500,183,64162,0,0,832*89ce7a59
%RAWIMUSA,2283,43275.920;2283,43275.919998460,00000077,-509,114,64178,-27,8,-941*638f9944
%RAWIMUSA,2283,43275.930;2283,43275.929998460,00000077,-487,158,64168,-9,0,-960*a72f64b8
%RAWIMUSA,2283,43275.940;2283,43275.939998460,00000077,-484,136,64172,37,-8,594*6afde070
%RAWIMUSA,2283,43275.950;2283,43275.949998460,00000077,-501,140,64174,-54,-8,969*ed29ee02
%RAWIMUSA,2283,43275.960;2283,43275.959998460,00000077,-508,161,64169,27,9,-100*314e90a5
%RAWIMUSA,2283,43275.970;2283,43275.969998460,00000077,-487,115,64178,-55,8,-941*5417eeae
%RAWIMUSA,2283,43275.980;2283,43275.979998460,00000077,-483,174,64163,55,-9,-383*f02a8d34
%RAWIMUSA,2283,43275.990;2283,43275.989998460,00000077,-503,107,64181,-27,-8,951*e2001d1a
%RAWIMUSA,2283,43276.000;2283,43275.999998460,00000077,-507,173,64166,-18,0,887*a2e877f7
%RAWIMUSA,2283,43276.010;2283,43276.009998460,00000077,-490,128,64173,0,8,-941*c8f0391a
%RAWIMUSA,2283,43276.020;2283,43276.019998460,00000077,-480,142,64173,-27,0,-950*bc884b32
%RAWIMUSA,2283,43276.030;2283,43276.029998460,00000077,-501,153,64166,64,0,548*0a7e682e
%RAWIMUSA,2283,43276.040;2283,43276.039998460,00000077,-511,116,64182,-73,-8,960*a418b508
%RAWIMUSA,2283,43276.050;2283,43276.049998460,00000077,-490,180,64166,27,9,-54*13d952e3
%RAWIMUSA,2283,43276.060;2283,43276.059998460,00000077,-481,104,64180,-36,8,-960*37a6b983
%RAWIMUSA,2283,43276.070;2283,43276.069998460,00000077,-506,172,64163,9,-9,-475*78d9b139
%RAWIMUSA,2283,43276.080;2283,43276.079998460,00000077,-515,125,64172,37,-8,832*f196e2d5
%RAWIMUSA,2283,43276.090;2283,43276.089998460,00000077,-501,122,64173,-64,9,621*550da9ce
%RAWIMUSA,2283,43276.100;2283,43276.099998460,00000077,-487,153,64166,27,8,-1389*b1360050
%RAWIMUSA,2283,43276.110;2283,43276.109998460,00000077,-508,105,64182,-27,-1,-1526*1e203dcb
%RAWIMUSA,2283,43276.120;2283,43276.119998460,00000077,-514,170,64164,55,-9,-182*132c6159
%RAWIMUSA,2283,43276.130;2283,43276.129998460,00000077,-494,112,64178,-27,-9,228*16eead99
%RAWIMUSA,2283,43276.140;2283,43276.139998460,00000077,-477,164,64163,-18,8,-804*d789cc2a
%RAWIMUSA,2283,43276.150;2283,43276.149998460,00000077,-499,131,64174,18,7,-1837*c72e3729
%RAWIMUSA,2283,43276.160;2283,43276.159998460,00000077,-524,134,64171,-27,-10,-1435*68f518c6
%RAWIMUSA,2283,43276.170;2283,43276.169998460,00000077,-502,155,64166,64,-9,-63*8e012a0a
%RAWIMUSA,2283,43276.180;2283,43276.179998460,00000077,-479,113,64181,-64,0,-146*f720551d
%RAWIMUSA,2283,43276.190;2283,43276.189998460,00000077,-492,176,64163,27,7,-2093*6a030312
%RAWIMUSA,2283,43276.200;2283,43276.199998460,00000077,-525,94,64182,-9,-1,-2240*613866f3
%RAWIMUSA,2283,43276.210;2283,43276.209998460,00000077,-507,163,64164,27,-9,-905*4531a6e0
%RAWIMUSA,2283,43276.220;2283,43276.219998460,00000077,-482,127,64172,18,-9,-475*b40246a8
%RAWIMUSA,2283,43276.230;2283,43276.229998460,00000077,-488,147,64171,-55,8,-1472*ef9e5aca
%RAWIMUSA,2283,43276.240;2283,43276.239998460,00000077,-517,151,64170,54,-2,-2551*8eab955a
%RAWIMUSA,2283,43276.250;2283,43276.249998460,00000077,-515,101,64181,-28,-10,-2231*c47dbc40
%RAWIMUSA,2283,43276.260;2283,43276.259998460,00000077,-486,172,64163,64,-9,-813*f1785a05
%RAWIMUSA,2283,43276.270;2283,43276.269998460,00000077,-485,110,64181,-36,0,-868*ca993e62
%RAWIMUSA,2283,43276.280;2283,43276.279998460,00000077,-507,162,64161,-9,6,-2834*0df1e589
%RAWIMUSA,2283,43276.290;2283,43276.289998460,00000077,-513,125,64168,54,-11,-2962*69d4f640
%RAWIMUSA,2283,43276.300;2283,43276.299998460,00000077,-490,138,64168,-18,-10,-1682*983377e1
%RAWIMUSA,2283,43276.310;2283,43276.309998460,00000077,-484,161,64171,55,-10,-1206*ab0db481
%RAWIMUSA,2283,43276.320;2283,43276.319998460,00000077,-507,103,64184,-55,7,-2130*14039efc
%RAWIMUSA,2283,43276.330;2283,43276.329998460,00000077,-519,160,64163,45,-2,-3273*f229a3ab
%RAWIMUSA,2283,43276.340;2283,43276.339998460,00000077,-498,106,64178,27,-11,-3017*29045a17
%RAWIMUSA,2283,43276.350;2283,43276.349998460,00000077,-484,173,64158,0,-10,-1517*ac4f8bde
%RAWIMUSA,2283,43276.360;2283,43276.359998460,00000077,-499,122,64172,27,-1,-1636*5a143625
%RAWIMUSA,2283,43276.370;2283,43276.369998460,00000077,-509,123,64178,-46,6,-3511*b4f9a899
%RAWIMUSA,2283,43276.380;2283,43276.379998460,00000077,-504,166,64165,91,-21,-3675*3191d66b
%RAWIMUSA,2283,43276.390;2283,43276.389998460,00000077,-487,110,64178,-18,-11,-2459*b27b13fb
%RAWIMUSA,2283,43276.400;2283,43276.399998460,00000077,-493,173,64163,36,-10,-1920*4c700080
%RAWIMUSA,2283,43276.410;2283,43276.409998460,00000077,-512,97,64179,-18,6,-2797*d0712f10
%RAWIMUSA,2283,43276.420;2283,43276.419998460,00000077,-506,163,64165,17,-12,-4023*40c7d2cf
%RAWIMUSA,2283,43276.430;2283,43276.429998460,00000077,-488,136,64172,63,-12,-3785*2933a687
%RAWIMUSA,2283,43276.440;2283,43276.439998460,00000077,-491,134,64171,-18,-10,-2240*06110082
%RAWIMUSA,2283,43276.450;2283,43276.449998460,00000077,-508,146,64167,54,-1,-2368*c2478d8a
%RAWIMUSA,2283,43276.460;2283,43276.459998460,00000077,-506,104,64179,-46,-3,-4151*203ed700
%RAWIMUSA,2283,43276.470;2283,43276.469998460,00000077,-499,173,64162,82,-12,-4416*0c97a162
%RAWIMUSA,2283,43276.480;2283,43276.479998460,00000077,-487,108,64178,17,-20,-3255*30b2f362
%RAWIMUSA,2283,43276.490;2283,43276.489998460,00000077,-502,168,64164,0,-2,-2633*15aece97
%RAWIMUSA,2283,43276.500;2283,43276.499998460,00000077,-510,123,64170,36,6,-3483*8761c6d6
%RAWIMUSA,2283,43276.510;2283,43276.509998460,00000077,-491,134,64174,-19,-12,-4736*e8b4e607
%RAWIMUSA,2283,43276.520;2283,43276.519998460,00000077,-490,151,64168,91,-12,-4544*ba053b5a
%RAWIMUSA,2283,43276.530;2283,43276.529998460,00000077,-501,110,64179,-18,-20,-2989*74821b84
%RAWIMUSA,2283,43276.540;2283,43276.539998460,00000077,-509,174,64165,45,6,-3035*ff49e495
%RAWIMUSA,2283,43276.550;2283,43276.549998460,00000077,-499,105,64180,-10,-3,-4800*6e703615
%RAWIMUSA,2283,43276.560;2283,43276.559998460,00000077,-491,166,64165,45,-22,-5147*eea27c97
%RAWIMUSA,2283,43276.570;2283,43276.569998460,00000077,-497,128,64174,63,-12,-4014*5373500d
%RAWIMUSA,2283,43276.580;2283,43276.579998460,00000077,-508,148,64172,-19,-2,-3373*05b36ef8
%RAWIMUSA,2283,43276.590;2283,43276.589998460,00000077,-508,134,64168,45,-3,-4169*51ea56bb
%RAWIMUSA,2283,43276.600;2283,43276.599998460,00000077,-491,127,64173,-10,-13,-5422*2dc2360c
%RAWIMUSA,2283,43276.610;2283,43276.609998460,00000077,-491,144,64169,100,-13,-5312*87110ff9
%RAWIMUSA,2283,43276.620;2283,43276.619998460,00000077,-505,115,64182,-19,-21,-3703*e8943067
%RAWIMUSA,2283,43276.630;2283,43276.629998460,00000077,-511,175,64154,45,6,-3767*2fe9a51b
%RAWIMUSA,2283,43276.640;2283,43276.639998460,00000077,-495,99,64173,8,-4,-5477*e5b09105
%RAWIMUSA,2283,43276.650;2283,43276.649998460,00000077,-482,170,64172,44,-23,-5842*ed24f7ce
%RAWIMUSA,2283,43276.660;2283,43276.659998460,00000077,-511,124,64172,72,-13,-4763*d88f4734
%RAWIMUSA,2283,43276.670;2283,43276.669998460,00000077,-512,134,64174,-19,-12,-4123*3dcc1343
%RAWIMUSA,2283,43276.680;2283,43276.679998460,00000077,-498,149,64171,54,-3,-4818*fc0de9f5
%RAWIMUSA,2283,43276.690;2283,43276.689998460,00000077,-483,129,64180,-1,-14,-6162*aa4cec7e
%RAWIMUSA,2283,43276.700;2283,43276.699998460,00000077,-504,154,64162,100,-14,-6126*c824b34a
%RAWIMUSA,2283,43276.710;2283,43276.709998460,00000077,-513,111,64169,-10,-12,-4425*2ecf6bd3
%RAWIMUSA,2283,43276.720;2283,43276.719998460,00000077,-496,163,64167,45,-12,-4498*7ad9aef6
%RAWIMUSA,2283,43276.730;2283,43276.729998460,00000077,-488,116,64183,17,-4,-6153*47418009
%RAWIMUSA,2283,43276.740;2283,43276.739998460,00000077,-501,157,64168,44,-14,-6556*4b84b096
%RAWIMUSA,2283,43276.750;2283,43276.749998460,00000077,-510,123,64168,90,-22,-5577*ca5ece18
%RAWIMUSA,2283,43276.760;2283,43276.759998460,00000077,-499,139,64174,-28,-3,-4818*35134ad9
%RAWIMUSA,2283,43276.770;2283,43276.769998460,00000077,-489,157,64164,72,-13,-5486*4067a3e3
%RAWIMUSA,2283,43276.780;2283,43276.779998460,00000077,-499,109,64182,-1,-14,-6912*4838528c
%RAWIMUSA,2283,43276.790;2283,43276.789998460,00000077,-508,165,64161,90,-23,-6857*89d0f6da
%RAWIMUSA,2283,43276.800;2283,43276.799998460,00000077,-499,114,64176,26,-13,-5120*16c04936
%RAWIMUSA,2283,43276.810;2283,43276.809998460,00000077,-490,165,64166,17,-4,-5221*5c69b149
%RAWIMUSA,2283,43276.820;2283,43276.819998460,00000077,-504,120,64173,53,-5,-6821*cb4a29ce
%RAWIMUSA,2283,43276.830;2283,43276.829998460,00000077,-509,134,64174,35,-24,-7287*b3d79f70
%RAWIMUSA,2283,43276.840;2283,43276.839998460,00000077,-499,141,64168,100,-32,-6345*b89ae625
%RAWIMUSA,2283,43276.850;2283,43276.849998460,00000077,-492,123,64176,-28,-4,-5531*91230164
%RAWIMUSA,2283,43276.860;2283,43276.859998460,00000077,-500,165,64163,72,-4,-6162*13f289bf
%RAWIMUSA,2283,43276.870;2283,43276.869998460,00000077,-507,99,64178,25,-15,-7625*578789b1
%RAWIMUSA,2283,43276.880;2283,43276.879998460,00000077,-495,175,64160,72,-24,-7625*ac2c8165
%RAWIMUSA,2283,43276.890;2283,43276.889998460,00000077,-496,121,64173,63,-13,-5870*44daffc5
%RAWIMUSA,2283,43276.900;2283,43276.899998460,00000077,-501,142,64176,-19,-4,-5952*f29a1693
%RAWIMUSA,2283,43276.910;2283,43276.909998460,00000077,-504,153,64165,99,-15,-7461*d143d8af
%RAWIMUSA,2283,43276.920;2283,43276.919998460,00000077,-503,109,64177,7,-24,-8028*0dcc579f
%RAWIMUSA,2283,43276.930;2283,43276.929998460,00000077,-497,177,64161,109,-24,-7104*30a17e1f
%RAWIMUSA,2283,43276.940;2283,43276.939998460,00000077,-497,99,64184,-1,-4,-6263*ac4db439
%RAWIMUSA,2283,43276.950;2283,43276.949998460,00000077,-503,155,64170,35,-14,-6848*9b516ff0
%RAWIMUSA,2283,43276.960;2283,43276.959998460,00000077,-502,118,64176,81,-15,-8320*b2ba95b5
%RAWIMUSA,2283,43276.970;2283,43276.969998460,00000077,-499,151,64169,35,-24,-8384*b237240e
%RAWIMUSA,2283,43276.980;2283,43276.979998460,00000077,-495,133,64170,90,-23,-6583*5c85d59d
%RAWIMUSA,2283,43276.990;2283,43276.989998460,00000077,-502,122,64178,-19,-5,-6638*6896146f
%RAWIMUSA,2283,43277.000;2283,43276.999998460,00000077,-500,165,64156,99,-15,-8156*c1d0b744
%RAWIMUSA,2283,43277.010;2283,43277.009998460,00000077,-505,102,64178,34,-25,-8768*45d6fbba
%RAWIMUSA,2283,43277.020;2283,43277.019998460,00000077,-499,164,64164,81,-24,-7909*83d13a8b
%RAWIMUSA,2283,43277.030;2283,43277.029998460,00000077,-500,113,64179,44,-14,-6985*4edffa38
%RAWIMUSA,2283,43277.040;2283,43277.039998460,00000077,-498,145,64174,7,-5,-7497*e5a41117
%RAWIMUSA,2283,43277.050;2283,43277.049998460,00000077,-502,148,64167,117,-25,-9052*61a2bb23
%RAWIMUSA,2283,43277.060;2283,43277.059998460,00000077,-501,120,64173,16,-25,-9162*fca5dcbf
%RAWIMUSA,2283,43277.070;2283,43277.069998460,00000077,-496,165,64166,108,-15,-7360*dcbc141e
%RAWIMUSA,2283,43277.080;2283,43277.079998460,00000077,-504,97,64182,-1,-14,-7406*4e2eda71
%RAWIMUSA,2283,43277.090;2283,43277.089998460,00000077,-503,176,64163,80,-16,-8842*7f7e1827
%RAWIMUSA,2283,43277.100;2283,43277.099998460,00000077,-497,117,64179,71,-25,-9427*ef390ca3
%RAWIMUSA,2283,43277.110;2283,43277.109998460,00000077,-498,148,64168,53,-25,-8668*28b2eac7
%RAWIMUSA,2283,43277.120;2283,43277.119998460,00000077,-501,134,64167,81,-15,-7726*4ce88907
%RAWIMUSA,2283,43277.130;2283,43277.129998460,00000077,-507,128,64178,-11,-6,-8156*f28dba0b
%RAWIMUSA,2283,43277.140;2283,43277.139998460,00000077,-502,159,64166,136,-35,-9802*c472013b
%RAWIMUSA,2283,43277.150;2283,43277.149998460,00000077,-495,101,64180,25,-26,-9866*a0cb0179
%RAWIMUSA,2283,43277.160;2283,43277.159998460,00000077,-501,166,64161,81,-15,-8119*6adc8ce3
%RAWIMUSA,2283,43277.170;2283,43277.169998460,00000077,-509,109,64175,35,-6,-8119*7132e8e1
%RAWIMUSA,2283,43277.180;2283,43277.179998460,00000077,-501,163,64168,62,-25,-9500*61204719
%RAWIMUSA,2283,43277.190;2283,43277.189998460,00000077,-496,121,64176,99,-35,-10176*dbfc11a3
%RAWIMUSA,2283,43277.200;2283,43277.199998460,00000077,-497,138,64171,34,-16,-9454*a6db6225
%RAWIMUSA,2283,43277.210;2283,43277.209998460,00000077,-503,150,64165,99,-15,-8412*baf03dad
%RAWIMUSA,2283,43277.220;2283,43277.219998460,00000077,-510,103,64182,-1,-16,-8842*3a9ae137
%RAWIMUSA,2283,43277.230;2283,43277.229998460,00000077,-496,179,64169,126,-35,-10515*6c444ae9
%RAWIMUSA,2283,43277.240;2283,43277.239998460,00000077,-496,100,64175,52,-26,-10570*9c9e6f51
%RAWIMUSA,2283,43277.250;2283,43277.249998460,00000077,-506,163,64159,71,-7,-8933*7b635a95
%RAWIMUSA,2283,43277.260;2283,43277.259998460,00000077,-505,120,64180,62,-16,-8851*c72cd01e
%RAWIMUSA,2283,43277.270;2283,43277.269998460,00000077,-499,139,64178,34,-26,-10158*a86e4964
%RAWIMUSA,2283,43277.280;2283,43277.279998460,00000077,-501,137,64172,135,-36,-10926*362fdd59
%RAWIMUSA,2283,43277.290;2283,43277.289998460,00000077,-506,119,64175,25,-26,-10213*ef24782a
%RAWIMUSA,2283,43277.300;2283,43277.299998460,00000077,-501,175,64163,99,-7,-9134*0f53ff5f
%RAWIMUSA,2283,43277.310;2283,43277.309998460,00000077,-498,97,64175,16,-16,-9509*b7e158dc
%RAWIMUSA,2283,43277.320;2283,43277.319998460,00000077,-499,171,64168,108,-36,-11210*5c6c34e4
%RAWIMUSA,2283,43277.330;2283,43277.329998460,00000077,-505,109,64178,98,-27,-11310*6f19c9a3
%RAWIMUSA,2283,43277.340;2283,43277.339998460,00000077,-506,141,64172,34,-16,-9719*238ba062
%RAWIMUSA,2283,43277.350;2283,43277.349998460,00000077,-497,145,64169,90,-16,-9536*992d0040
%RAWIMUSA,2283,43277.360;2283,43277.359998460,00000077,-501,121,64178,34,-26,-10853*d0f1cf97
%RAWIMUSA,2283,43277.370;2283,43277.369998460,00000077,-502,157,64161,135,-36,-11630*c416b9b6
%RAWIMUSA,2283,43277.380;2283,43277.379998460,00000077,-504,109,64179,34,-17,-10990*8d02bc39
%RAWIMUSA,2283,43277.390;2283,43277.389998460,00000077,-502,171,64163,99,-16,-9875*f40f7388
%RAWIMUSA,2283,43277.400;2283,43277.399998460,00000077,-498,105,64182,43,-26,-10177*6c624496
%RAWIMUSA,2283,43277.410;2283,43277.409998460,00000077,-499,157,64166,89,-36,-11950*3ee50504
%RAWIMUSA,2283,43277.420;2283,43277.419998460,00000077,-505,119,64174,126,-37,-12051*65868f39
%RAWIMUSA,2283,43277.430;2283,43277.429998460,00000077,-501,139,64176,16,-17,-10460*491d7654
%RAWIMUSA,2283,43277.440;2283,43277.439998460,00000077,-503,140,64167,117,-17,-10295*1bf6e001
%RAWIMUSA,2283,43277.450;2283,43277.449998460,00000077,-504,118,64174,34,-27,-11548*32445035
%RAWIMUSA,2283,43277.460;2283,43277.459998460,00000077,-499,172,64158,135,-28,-12344*6d626863
%RAWIMUSA,2283,43277.470;2283,43277.469998460,00000077,-501,100,64182,52,-18,-11768*68761b5e
%RAWIMUSA,2283,43277.480;2283,43277.479998460,00000077,-500,165,64165,80,-17,-10615*fe47bf34
%RAWIMUSA,2283,43277.490;2283,43277.489998460,00000077,-507,109,64173,71,-36,-10844*367650b4
%RAWIMUSA,2283,43277.500;2283,43277.499998460,00000077,-509,150,64167,80,-46,-12700*52640fe1
%RAWIMUSA,2283,43277.510;2283,43277.509998460,00000077,-500,138,64176,135,-28,-12755*b6465988
%RAWIMUSA,2283,43277.520;2283,43277.519998460,00000077,-501,123,64175,15,-17,-11210*28652599
%RAWIMUSA,2283,43277.530;2283,43277.529998460,00000077,-503,148,64161,126,-8,-11009*6a092715
%RAWIMUSA,2283,43277.540;2283,43277.539998460,00000077,-500,114,64179,43,-37,-12179*5358986e
%RAWIMUSA,2283,43277.550;2283,43277.549998460,00000077,-499,175,64152,135,-37,-13093*a6457386
%RAWIMUSA,2283,43277.560;2283,43277.559998460,00000077,-503,103,64182,89,-28,-12572*4637ee15
%RAWIMUSA,2283,43277.570;2283,43277.569998460,00000077,-508,150,64173,43,-27,-11301*cc1db49d
%RAWIMUSA,2283,43277.580;2283,43277.579998460,00000077,-507,141,64168,117,-36,-11521*0575079e
%RAWIMUSA,2283,43277.590;2283,43277.589998460,00000077,-497,121,64175,52,-28,-13413*f17b6969
%RAWIMUSA,2283,43277.600;2283,43277.599998460,00000077,-498,160,64160,162,-29,-13468*21692499
%RAWIMUSA,2283,43277.610;2283,43277.609998460,00000077,-510,98,64181,24,-18,-12005*baf09b23
%RAWIMUSA,2283,43277.620;2283,43277.619998460,00000077,-502,169,64162,98,-18,-11731*51d6fde4
%RAWIMUSA,2283,43277.630;2283,43277.629998459,00000077,-500,110,64177,107,-37,-12856*a5c921b8
%RAWIMUSA,2283,43277.640;2283,43277.639998459,00000077,-495,147,64165,79,-38,-13797*8633c52e
%RAWIMUSA,2283,43277.650;2283,43277.649998459,00000077,-509,143,64173,135,-28,-13322*ac295e4a
%RAWIMUSA,2283,43277.660;2283,43277.659998459,00000077,-515,109,64174,15,-18,-12033*ce5d04e6
%RAWIMUSA,2283,43277.670;2283,43277.669998459,00000077,-503,168,64164,144,-37,-12225*919b5744
%RAWIMUSA,2283,43277.680;2283,43277.679998459,00000077,-492,104,64178,70,-29,-14136*3feb4669
