%RAWIMUSA,2283,43389.730;2283,43389.729998401,00000077,-492,152,64167,-18,0,960*b2cd344e
%RAWIMUSA,2283,43389.740;2283,43389.739998401,00000077,-498,149,64170,55,-8,951*d615d1ff
%RAWIMUSA,2283,43389.750;2283,43389.749998401,00000077,-498,125,64177,-82,0,-530*b113b694
%RAWIMUSA,2283,43389.760;2283,43389.759998401,00000077,-490,176,64164,27,0,-941*1876a76a
%RAWIMUSA,2283,43389.770;2283,43389.769998401,00000077,-498,101,64184,-9,9,45*bc0db325
%RAWIMUSA,2283,43389.780;2283,43389.779998401,00000077,-503,172,64166,9,0,951*21c3bbb4
%RAWIMUSA,2283,43389.790;2283,43389.789998401,00000077,-496,137,64172,9,-8,448*57d3d843
%RAWIMUSA,2283,43389.800;2283,43389.799998401,00000077,-491,131,64173,-73,0,-941*b4e79540
%RAWIMUSA,2283,43389.810;2283,43389.809998401,00000077,-498,166,64163,55,8,-941*7d6b6256
%RAWIMUSA,2283,43389.820;2283,43389.819998401,00000077,-503,116,64179,-36,0,960*d47e880b
%RAWIMUSA,2283,43389.830;2283,43389.829998401,00000077,-495,175,64163,28,-8,960*05b74536
%RAWIMUSA,2283,43389.840;2283,43389.839998401,00000077,-491,112,64177,-27,-9,-475*b3ab62d4
%RAWIMUSA,2283,43389.850;2283,43389.849998401,00000077,-497,152,64171,-36,17,-950*27b4651c
%RAWIMUSA,2283,43389.860;2283,43389.859998401,00000077,-503,146,64174,37,9,0*eb5cb3c4
%RAWIMUSA,2283,43389.870;2283,43389.869998401,00000077,-494,138,64173,-27,-8,969*4f03a376
%RAWIMUSA,2283,43389.880;2283,43389.879998401,00000077,-490,151,64164,27,-8,503*6cfffe31
%RAWIMUSA,2283,43389.890;2283,43389.889998401,00000077,-500,118,64179,-64,8,-960*01ebe547
%RAWIMUSA,2283,43389.900;2283,43389.899998401,00000077,-505,181,64165,27,8,-950*833fe65d
%RAWIMUSA,2283,43389.910;2283,43389.909998401,00000077,-493,114,64177,0,0,923*79be7848
%RAWIMUSA,2283,43389.920;2283,43389.919998401,00000077,-490,158,64166,-8,-8,960*b0958b1f
%RAWIMUSA,2283,43389.930;2283,43389.929998401,00000077,-498,131,64173,9,0,-420*268da718
%RAWIMUSA,2283,43389.940;2283,43389.939998401,00000077,-506,144,64174,-64,8,-950*bab6c31a
%RAWIMUSA,2283,43389.950;2283,43389.949998401,00000077,-494,158,64170,55,0,-54*a3d540a4
%RAWIMUSA,2283,43389.960;2283,43389.959998401,00000077,-489,113,64177,-27,0,960*7d7729f7
%RAWIMUSA,2283,43389.970;2283,43389.969998401,00000077,-499,175,64163,9,-8,548*8e622b6d
%RAWIMUSA,2283,43389.980;2283,43389.979998401,00000077,-507,114,64180,-36,0,-960*7456c44d
%RAWIMUSA,2283,43389.990;2283,43389.989998401,00000077,-492,163,64165,-9,8,-950*4ff4e69c
%RAWIMUSA,2283,43390.000;2283,43389.999998401,00000077,-489,134,64172,37,0,868*ddc8e0a7
%RAWIMUSA,2283,43390.010;2283,43390.009998401,00000077,-497,139,64173,-45,-8,969*3f1ebfd2
%RAWIMUSA,2283,43390.020;2283,43390.019998401,00000077,-507,157,64165,27,0,-374*6cdb20ba
%RAWIMUSA,2283,43390.030;2283,43390.029998401,00000077,-495,124,64177,-64,8,-960*c8efa5fd
%RAWIMUSA,2283,43390.040;2283,43390.039998401,00000077,-485,168,64167,46,8,-109*752c9dcd
%RAWIMUSA,2283,43390.050;2283,43390.049998401,00000077,-496,113,64178,-8,-8,960*c6bcf0d8
%RAWIMUSA,2283,43390.060;2283,43390.059998401,00000077,-508,174,64163,-18,-8,603*fd762a1e
%RAWIMUSA,2283,43390.070;2283,43390.069998401,00000077,-493,121,64177,-9,0,-950*3b9971f4
%RAWIMUSA,2283,43390.080;2283,43390.079998401,00000077,-488,150,64169,-27,17,-950*0d6aff9e
%RAWIMUSA,2283,43390.090;2283,43390.089998401,00000077,-503,150,64169,46,-8,832*bcdf2efe
%RAWIMUSA,2283,43390.100;2283,43390.099998401,00000077,-507,124,64175,-45,-8,960*a6cd6072
%RAWIMUSA,2283,43390.110;2283,43390.109998401,00000077,-495,169,64165,18,0,-319*5bf1525f
%RAWIMUSA,2283,43390.120;2283,43390.119998401,00000077,-488,110,64179,-55,8,-950*fe045acd
%RAWIMUSA,2283,43390.130;2283,43390.129998401,00000077,-501,172,64161,36,8,-146*072501bf
%RAWIMUSA,2283,43390.140;2283,43390.139998401,00000077,-501,118,64179,9,-8,960*bbd68a39
%RAWIMUSA,2283,43390.150;2283,43390.149998401,00000077,-490,157,64169,-45,-8,649*a4ca5460
%RAWIMUSA,2283,43390.160;2283,43390.159998401,00000077,-498,137,64169,18,8,-960*88a55ccb
%RAWIMUSA,2283,43390.170;2283,43390.169998401,00000077,-502,134,64179,-46,8,-941*d4dfa1f2
%RAWIMUSA,2283,43390.180;2283,43390.179998401,00000077,-494,167,64166,64,-8,768*8e4aad73
%RAWIMUSA,2283,43390.190;2283,43390.189998401,00000077,-489,108,64176,-45,0,960*812dc8e9
%RAWIMUSA,2283,43390.200;2283,43390.199998401,00000077,-494,187,64166,0,0,-265*6aec167c
%RAWIMUSA,2283,43390.210;2283,43390.209998401,00000077,-513,113,64182,-18,0,-960*84d58489
%RAWIMUSA,2283,43390.220;2283,43390.219998401,00000077,-498,145,64168,-9,8,-219*5d0c3282
%RAWIMUSA,2283,43390.230;2283,43390.229998401,00000077,-468,154,64165,55,-8,960*06dfb2db
%RAWIMUSA,2283,43390.240;2283,43390.239998401,00000077,-493,125,64178,-82,0,704*43049e49
%RAWIMUSA,2283,43390.250;2283,43390.249998400,00000077,-528,169,64159,18,0,-950*d7f64942
%RAWIMUSA,2283,43390.260;2283,43390.259998400,00000077,-501,106,64180,-18,8,-960*38ff8deb
%RAWIMUSA,2283,43390.270;2283,43390.269998400,00000077,-465,176,64164,18,0,722*711ee1ac
%RAWIMUSA,2283,43390.280;2283,43390.279998400,00000077,-491,130,64175,18,-8,960*2b2edc5a
%RAWIMUSA,2283,43390.290;2283,43390.289998400,00000077,-533,140,64172,-73,0,-228*297a0a53
%RAWIMUSA,2283,43390.300;2283,43390.299998400,00000077,-502,163,64165,46,8,-941*db7bfe25
%RAWIMUSA,2283,43390.310;2283,43390.309998400,00000077,-462,109,64183,-36,0,-265*abf4dca4
%RAWIMUSA,2283,43390.320;2283,43390.319998400,00000077,-490,185,64163,28,-8,960*7eb0a2a9
%RAWIMUSA,2283,43390.330;2283,43390.329998400,00000077,-527,112,64175,-18,0,759*dbeb8ea7
%RAWIMUSA,2283,43390.340;2283,43390.339998400,00000077,-506,149,64170,-55,8,-950*1776cae4
%RAWIMUSA,2283,43390.350;2283,43390.349998400,00000077,-468,151,64170,55,0,-950*40f9bfc5
%RAWIMUSA,2283,43390.360;2283,43390.359998400,00000077,-489,116,64178,-36,0,658*7348c2f6
%RAWIMUSA,2283,43390.370;2283,43390.369998400,00000077,-524,178,64164,37,-8,960*dfefda6c
%RAWIMUSA,2283,43390.380;2283,43390.379998400,00000077,-504,107,64179,-45,0,-164*8149e529
%RAWIMUSA,2283,43390.390;2283,43390.389998400,00000077,-470,169,64166,-27,8,-950*ef799a1e
%RAWIMUSA,2283,43390.400;2283,43390.399998400,00000077,-483,142,64172,46,0,-310*d5fe5568
%RAWIMUSA,2283,43390.410;2283,43390.409998400,00000077,-523,128,64176,-36,0,969*328aa982
%RAWIMUSA,2283,43390.420;2283,43390.419998400,00000077,-507,164,64165,28,-8,813*a2d5dc3e
%RAWIMUSA,2283,43390.430;2283,43390.429998400,00000077,-470,120,64180,-64,8,-950*5ee9ff86
%RAWIMUSA,2283,43390.440;2283,43390.439998400,00000077,-486,182,64162,27,8,-960*328cbb5a
%RAWIMUSA,2283,43390.450;2283,43390.449998400,00000077,-520,113,64176,18,-8,612*61954c57
%RAWIMUSA,2283,43390.460;2283,43390.459998400,00000077,-508,153,64169,-36,-8,960*3e3961c7
%RAWIMUSA,2283,43390.470;2283,43390.469998400,00000077,-473,151,64170,18,9,-109*6b1a1d91
%RAWIMUSA,2283,43390.480;2283,43390.479998400,00000077,-485,130,64175,-55,8,-960*b194d393
%RAWIMUSA,2283,43390.490;2283,43390.489998400,00000077,-521,161,64168,46,0,-365*5ffa14ef
%RAWIMUSA,2283,43390.500;2283,43390.499998400,00000077,-506,111,64178,-27,-8,960*1a48b87d
%RAWIMUSA,2283,43390.510;2283,43390.509998400,00000077,-474,177,64160,0,0,877*2f327bc3
%RAWIMUSA,2283,43390.520;2283,43390.519998400,00000077,-485,118,64178,-27,8,-960*cec27481
%RAWIMUSA,2283,43390.530;2283,43390.529998400,00000077,-519,156,64167,0,0,-950*844c04d1
%RAWIMUSA,2283,43390.540;2283,43390.539998400,00000077,-508,130,64174,27,-8,567*7de54e1b
%RAWIMUSA,2283,43390.550;2283,43390.549998400,00000077,-477,145,64172,-45,-8,960*517574af
%RAWIMUSA,2283,43390.560;2283,43390.559998400,00000077,-486,155,64166,18,9,-63*9f75ecda
%RAWIMUSA,2283,43390.570;2283,43390.569998400,00000077,-518,120,64175,-55,8,-960*9eabdb55
%RAWIMUSA,2283,43390.580;2283,43390.579998400,00000077,-507,169,64166,46,-9,-420*b1e0ad02
%RAWIMUSA,2283,43390.590;2283,43390.589998400,00000077,-474,122,64179,-18,-8,960*ed0b02e8
%RAWIMUSA,2283,43390.600;2283,43390.599998400,00000077,-485,169,64165,-18,0,923*b2a844e1
%RAWIMUSA,2283,43390.610;2283,43390.609998400,00000077,-518,117,64175,-18,8,-950*d8411143
%RAWIMUSA,2283,43390.620;2283,43390.619998400,00000077,-505,152,64169,-9,0,-950*cbf0e3eb
%RAWIMUSA,2283,43390.630;2283,43390.629998400,00000077,-477,152,64170,46,-8,512*d948e157
%RAWIMUSA,2283,43390.640;2283,43390.639998400,00000077,-489,127,64176,-64,0,960*c66ed2b6
%RAWIMUSA,2283,43390.650;2283,43390.649998400,00000077,-516,163,64163,27,0,-18*a67ff8e5
%RAWIMUSA,2283,43390.660;2283,43390.659998400,00000077,-504,107,64179,-46,8,-950*842cd7dd
%RAWIMUSA,2283,43390.670;2283,43390.669998400,00000077,-479,178,64162,27,-9,-475*3730abae
%RAWIMUSA,2283,43390.680;2283,43390.679998400,00000077,-489,125,64177,18,0,951*856423ea
%RAWIMUSA,2283,43390.690;2283,43390.689998400,00000077,-519,147,64171,-54,0,960*d4496357
%RAWIMUSA,2283,43390.700;2283,43390.699998400,00000077,-497,147,64167,18,8,-932*f3f65139
%RAWIMUSA,2283,43390.710;2283,43390.709998400,00000077,-475,129,64177,-36,0,-960*af420be8
%RAWIMUSA,2283,43390.720;2283,43390.719998400,00000077,-496,172,64165,55,-8,457*c3737d84
%RAWIMUSA,2283,43390.730;2283,43390.729998400,00000077,-516,106,64182,-45,0,951*a09d9499
%RAWIMUSA,2283,43390.740;2283,43390.739998400,00000077,-499,175,64165,-9,0,36*b1bc998c
%RAWIMUSA,2283,43390.750;2283,43390.749998400,00000077,-477,121,64174,0,8,-950*9febe682
%RAWIMUSA,2283,43390.760;2283,43390.759998400,00000077,-495,154,64170,-9,0,-521*0e6278ab
%RAWIMUSA,2283,43390.770;2283,43390.769998400,00000077,-519,147,64168,37,-8,969*26d7d80b
%RAWIMUSA,2283,43390.780;2283,43390.779998400,00000077,-497,126,64176,-73,0,960*cf7e7536
%RAWIMUSA,2283,43390.790;2283,43390.789998400,00000077,-477,165,64164,27,8,-886*4e6eda21
%RAWIMUSA,2283,43390.800;2283,43390.799998400,00000077,-493,117,64180,-27,0,-950*4860f75f
%RAWIMUSA,2283,43390.810;2283,43390.809998400,00000077,-514,178,64162,27,-8,402*f286c793
%RAWIMUSA,2283,43390.820;2283,43390.819998400,00000077,-496,117,64177,-8,-8,960*846d5df0
%RAWIMUSA,2283,43390.830;2283,43390.829998400,00000077,-481,157,64171,-45,9,91*d5891a82
%RAWIMUSA,2283,43390.840;2283,43390.839998400,00000077,-493,146,64169,36,8,-960*6672bb03
%RAWIMUSA,2283,43390.850;2283,43390.849998400,00000077,-512,127,64178,-36,-9,-575*3d46666e
%RAWIMUSA,2283,43390.860;2283,43390.859998400,00000077,-501,173,64167,46,-8,951*fc5e713f
%RAWIMUSA,2283,43390.870;2283,43390.869998400,00000077,-478,104,64181,-54,0,960*25aec377
%RAWIMUSA,2283,43390.880;2283,43390.879998400,00000077,-491,177,64163,-9,8,-832*6c284301
%RAWIMUSA,2283,43390.890;2283,43390.889998400,00000077,-509,122,64175,27,0,-950*eccf2c9d
%RAWIMUSA,2283,43390.900;2283,43390.899998400,00000077,-502,146,64172,-27,-8,347*72ec2063
%RAWIMUSA,2283,43390.910;2283,43390.909998400,00000077,-481,165,64165,28,0,960*2e76c7b4
%RAWIMUSA,2283,43390.920;2283,43390.919998400,00000077,-490,109,64183,-73,9,137*4035371a
%RAWIMUSA,2283,43390.930;2283,43390.929998400,00000077,-510,177,64162,27,0,-960*a166b05b
%RAWIMUSA,2283,43390.940;2283,43390.939998400,00000077,-502,109,64177,18,-9,-630*b959b46f
%RAWIMUSA,2283,43390.950;2283,43390.949998400,00000077,-483,160,64169,-27,-8,969*af2ef6bf
%RAWIMUSA,2283,43390.960;2283,43390.959998400,00000077,-493,153,64170,18,9,960*7111d452
%RAWIMUSA,2283,43390.970;2283,43390.969998400,00000077,-509,116,64179,-64,8,-777*62458109
%RAWIMUSA,2283,43390.980;2283,43390.979998400,00000077,-501,170,64163,55,0,-950*6104b5e0
%RAWIMUSA,2283,43390.990;2283,43390.989998400,00000077,-487,113,64181,-18,-9,301*7ef2ca83
%RAWIMUSA,2283,43391.000;2283,43390.999998400,00000077,-495,175,64167,-18,0,960*47c11afc
%RAWIMUSA,2283,43391.010;2283,43391.009998400,00000077,-504,123,64172,0,9,201*5ea60a12
%RAWIMUSA,2283,43391.020;2283,43391.019998400,00000077,-496,142,64174,-36,0,-950*cee2e8e0
%RAWIMUSA,2283,43391.030;2283,43391.029998400,00000077,-492,163,64169,64,-9,-676*ce4ae7c6
%RAWIMUSA,2283,43391.040;2283,43391.039998400,00000077,-496,113,64176,-54,0,951*93c716f0
%RAWIMUSA,2283,43391.050;2283,43391.049998400,00000077,-496,175,64160,9,0,960*39ecf819
%RAWIMUSA,2283,43391.060;2283,43391.059998400,00000077,-498,110,64187,-27,8,-740*7db41ac7
%RAWIMUSA,2283,43391.070;2283,43391.069998400,00000077,-499,166,64166,-9,0,-950*2d65f016
%RAWIMUSA,2283,43391.080;2283,43391.079998400,00000077,-493,142,64171,55,-9,247*634315b8
%RAWIMUSA,2283,43391.090;2283,43391.089998400,00000077,-500,117,64179,-73,0,960*e54d859d
%RAWIMUSA,2283,43391.100;2283,43391.099998400,00000077,-499,176,64162,27,0,246*b7e7af7f
%RAWIMUSA,2283,43391.110;2283,43391.109998400,00000077,-489,113,64183,-27,8,-950*e78750f8
%RAWIMUSA,2283,43391.120;2283,43391.119998400,00000077,-502,172,64163,9,-9,-740*5a8d746a
%RAWIMUSA,2283,43391.130;2283,43391.129998400,00000077,-502,122,64175,18,-8,960*859b05e9
%RAWIMUSA,2283,43391.140;2283,43391.139998400,00000077,-493,145,64172,-64,9,960*3f92cb17
%RAWIMUSA,2283,43391.150;2283,43391.149998400,00000077,-490,163,64167,36,8,-676*86969227
%RAWIMUSA,2283,43391.160;2283,43391.159998400,00000077,-502,108,64180,-36,0,-950*23004921
%RAWIMUSA,2283,43391.170;2283,43391.169998400,00000077,-503,177,64161,46,-9,201*e5c26226
%RAWIMUSA,2283,43391.180;2283,43391.179998400,00000077,-489,112,64181,-27,0,960*30a8f6dd
%RAWIMUSA,2283,43391.190;2283,43391.189998400,00000077,-488,165,64168,-45,9,292*05ee72f1
%RAWIMUSA,2283,43391.200;2283,43391.199998400,00000077,-503,140,64172,36,0,-959*d535f0da
%RAWIMUSA,2283,43391.210;2283,43391.209998400,00000077,-500,124,64177,-27,-9,-786*17b8095e
%RAWIMUSA,2283,43391.220;2283,43391.219998400,00000077,-492,169,64166,37,0,951*641db10a
%RAWIMUSA,2283,43391.230;2283,43391.229998400,00000077,-492,119,64177,-54,9,951*8e4839a1
%RAWIMUSA,2283,43391.240;2283,43391.239998400,00000077,-501,167,64163,0,0,-621*20cca1dd
%RAWIMUSA,2283,43391.250;2283,43391.249998400,00000077,-502,118,64175,18,-10,-959*fafc310f
%RAWIMUSA,2283,43391.260;2283,43391.259998400,00000077,-490,162,64168,-9,0,146*3a4b70cc
%RAWIMUSA,2283,43391.270;2283,43391.269998400,00000077,-489,143,64170,9,0,951*564579b8
%RAWIMUSA,2283,43391.280;2283,43391.279998400,00000077,-499,125,64175,-73,9,347*29deee8e
%RAWIMUSA,2283,43391.290;2283,43391.289998400,00000077,-505,165,64164,55,0,-950*90daec55
%RAWIMUSA,2283,43391.300;2283,43391.299998400,00000077,-490,109,64182,-27,-9,-841*6d4fca40
%RAWIMUSA,2283,43391.310;2283,43391.309998400,00000077,-494,186,64164,9,-8,969*76fd0675
%RAWIMUSA,2283,43391.320;2283,43391.319998400,00000077,-500,117,64175,-18,9,969*0d85ce9f
%RAWIMUSA,2283,43391.330;2283,43391.329998400,00000077,-500,145,64168,-46,8,-594*f3e12f2b
%RAWIMUSA,2283,43391.340;2283,43391.339998400,00000077,-493,159,64166,64,-10,-950*b2ecb340
%RAWIMUSA,2283,43391.350;2283,43391.349998400,00000077,-491,119,64180,-45,-9,100*10cb2260
%RAWIMUSA,2283,43391.360;2283,43391.359998400,00000077,-500,181,64164,18,9,951*5517dc7f
%RAWIMUSA,2283,43391.370;2283,43391.369998400,00000077,-499,106,64179,-36,9,402*905e9b87
%RAWIMUSA,2283,43391.380;2283,43391.379998400,00000077,-493,164,64169,-18,0,-950*a5765818
%RAWIMUSA,2283,43391.390;2283,43391.389998400,00000077,-496,147,64169,64,-10,-886*bd610b24
%RAWIMUSA,2283,43391.400;2283,43391.399998400,00000077,-501,120,64175,-64,0,951*aa228e02
%RAWIMUSA,2283,43391.410;2283,43391.409998400,00000077,-497,180,64161,18,0,960*3472c783
%RAWIMUSA,2283,43391.420;2283,43391.419998400,00000077,-491,105,64182,-27,8,-521*bb0f987b
%RAWIMUSA,2283,43391.430;2283,43391.429998400,00000077,-497,169,64167,0,-9,-960*86aa362e
%RAWIMUSA,2283,43391.440;2283,43391.439998400,00000077,-501,137,64170,46,-9,27*f46bb75d
%RAWIMUSA,2283,43391.450;2283,43391.449998400,00000077,-498,125,64175,-73,9,960*bc578b30
%RAWIMUSA,2283,43391.460;2283,43391.459998400,00000077,-491,171,64166,27,9,457*5c6106a1
%RAWIMUSA,2283,43391.470;2283,43391.469998400,00000077,-492,112,64182,-36,0,-960*2de8d47f
%RAWIMUSA,2283,43391.480;2283,43391.479998400,00000077,-500,174,64162,27,-10,-941*d5cea396
%RAWIMUSA,2283,43391.490;2283,43391.489998400,00000077,-501,115,64177,0,0,969*a9ba1ea7
%RAWIMUSA,2283,43391.500;2283,43391.499998400,00000077,-496,156,64169,-54,9,951*e62a6f2b
%RAWIMUSA,2283,43391.510;2283,43391.509998400,00000077,-494,152,64169,36,0,-466*e17879b2
%RAWIMUSA,2283,43391.520;2283,43391.519998400,00000077,-493,121,64177,-36,-9,-960*78e6eefb
%RAWIMUSA,2283,43391.530;2283,43391.529998400,00000077,-501,172,64162,46,0,-9*1b1bb3c4
%RAWIMUSA,2283,43391.540;2283,43391.539998400,00000077,-500,113,64181,-45,0,960*073d4567
%RAWIMUSA,2283,43391.550;2283,43391.549998400,00000077,-491,176,64162,-18,18,502*4c7de621
%RAWIMUSA,2283,43391.560;2283,43391.559998400,00000077,-495,126,64176,18,-10,-950*d171af79
%RAWIMUSA,2283,43391.570;2283,43391.569998400,00000077,-497,140,64172,-18,0,-950*297a4457
%RAWIMUSA,2283,43391.580;2283,43391.579998400,00000077,-501,151,64170,28,0,914*f433457f
%RAWIMUSA,2283,43391.590;2283,43391.589998400,00000077,-496,133,64177,-64,0,960*31486ddd
%RAWIMUSA,2283,43391.600;2283,43391.599998400,00000077,-494,163,64167,36,8,-420*d033d441
%RAWIMUSA,2283,43391.610;2283,43391.609998400,00000077,-495,108,64181,-27,-9,-960*a55bbeb2
%RAWIMUSA,2283,43391.620;2283,43391.619998400,00000077,-498,181,64166,27,0,-54*2d0ed9bb
%RAWIMUSA,2283,43391.630;2283,43391.629998400,00000077,-499,120,64177,-18,9,960*730709f0
%RAWIMUSA,2283,43391.640;2283,43391.639998400,00000077,-493,153,64169,-55,9,557*7af5dc9e
%RAWIMUSA,2283,43391.650;2283,43391.649998400,00000077,-493,143,64166,55,-10,-950*7408091c
%RAWIMUSA,2283,43391.660;2283,43391.659998400,00000077,-499,129,64177,-36,-9,-960*f14778f9
%RAWIMUSA,2283,43391.670;2283,43391.669998400,00000077,-499,177,64164,37,0,868*b367b333
%RAWIMUSA,2283,43391.680;2283,43391.679998400,00000077,-492,103,64180,-64,9,960*498a23e4
%RAWIMUSA,2283,43391.690;2283,43391.689998400,00000077,-496,170,64164,9,0,-365*4c08a082
%RAWIMUSA,2283,43391.700;2283,43391.699998400,00000077,-501,124,64177,27,0,-950*2b7f9be8
%RAWIMUSA,2283,43391.710;2283,43391.709998400,00000077,-496,151,64169,-36,-9,-118*699ada53
%RAWIMUSA,2283,43391.720;2283,43391.719998400,00000077,-496,151,64168,28,9,960*4d25d919
%RAWIMUSA,2283,43391.730;2283,43391.729998400,00000077,-496,114,64179,-73,0,631*316a12ff
%RAWIMUSA,2283,43391.740;2283,43391.739998400,00000077,-497,181,64165,55,0,-950*5edd0462
%RAWIMUSA,2283,43391.750;2283,43391.749998400,00000077,-494,105,64180,0,-9,-950*b8030541
%RAWIMUSA,2283,43391.760;2283,43391.759998400,00000077,-493,166,64170,-36,0,813*598d37f9
%RAWIMUSA,2283,43391.770;2283,43391.769998400,00000077,-500,138,64169,18,9,960*e130dac0
%RAWIMUSA,2283,43391.780;2283,43391.779998400,00000077,-497,126,64175,-55,8,-319*218bf7b6
%RAWIMUSA,2283,43391.790;2283,43391.789998400,00000077,-492,172,64163,55,-10,-950*43092ddc
%RAWIMUSA,2283,43391.800;2283,43391.799998400,00000077,-498,108,64179,-27,0,-173*f43703a7
%RAWIMUSA,2283,43391.810;2283,43391.809998400,00000077,-500,177,64164,-18,9,960*d0126bab
%RAWIMUSA,2283,43391.820;2283,43391.819998400,00000077,-498,116,64174,-8,0,676*04e6ea96
%RAWIMUSA,2283,43391.830;2283,43391.829998400,00000077,-493,146,64172,-18,-9,-950*b0175f59
%RAWIMUSA,2283,43391.840;2283,43391.839998400,00000077,-494,154,64168,55,0,-941*c8c7cc6e
%RAWIMUSA,2283,43391.850;2283,43391.849998400,00000077,-500,125,64179,-64,0,759*a3210c79
%RAWIMUSA,2283,43391.860;2283,43391.859998400,00000077,-496,171,64163,18,9,960*d949be33
%RAWIMUSA,2283,43391.870;2283,43391.869998400,00000077,-496,108,64179,-27,0,-255*ce5c39b5
%RAWIMUSA,2283,43391.880;2283,43391.879998400,00000077,-500,174,64164,18,-10,-959*88aa5f63
%RAWIMUSA,2283,43391.890;2283,43391.889998400,00000077,-499,121,64173,9,0,-210*98ae3d51
%RAWIMUSA,2283,43391.900;2283,43391.899998400,00000077,-496,147,64172,-54,9,960*33849417
%RAWIMUSA,2283,43391.910;2283,43391.909998400,00000077,-492,150,64168,27,0,713*abc2a3cf
%RAWIMUSA,2283,43391.920;2283,43391.919998400,00000077,-497,122,64178,-36,0,-950*74ca117a
%RAWIMUSA,2283,43391.930;2283,43391.929998400,00000077,-501,169,64163,55,-19,-959*f255e35c
%RAWIMUSA,2283,43391.940;2283,43391.939998400,00000077,-493,110,64182,-54,9,722*3d869c8c
%RAWIMUSA,2283,43391.950;2283,43391.949998400,00000077,-493,174,64164,-18,9,951*17aed00e
%RAWIMUSA,2283,43391.960;2283,43391.959998400,00000077,-502,128,64173,27,0,-210*abc7c262
%RAWIMUSA,2283,43391.970;2283,43391.969998400,00000077,-501,139,64172,-36,-9,-950*7a6a281b
%RAWIMUSA,2283,43391.980;2283,43391.979998400,00000077,-497,163,64167,55,0,-274*fe7b696c
%RAWIMUSA,2283,43391.990;2283,43391.989998400,00000077,-490,108,64178,-73,9,969*2fb49f80
%RAWIMUSA,2283,43392.000;2283,43391.999998400,00000077,-491,185,64165,0,9,777*175bcc42
%RAWIMUSA,2283,43392.010;2283,43392.009998400,00000077,-504,114,64178,27,-19,-950*38556179
%RAWIMUSA,2283,43392.020;2283,43392.019998400,00000077,-502,146,64165,-27,0,-960*33c6c933
%RAWIMUSA,2283,43392.030;2283,43392.029998400,00000077,-489,157,64169,27,9,667*d029c5ff
%RAWIMUSA,2283,43392.040;2283,43392.039998400,00000077,-488,123,64181,-64,9,951*de58a7c7
%RAWIMUSA,2283,43392.050;2283,43392.049998400,00000077,-510,168,64161,36,-9,-164*8a2fc479
%RAWIMUSA,2283,43392.060;2283,43392.059998400,00000077,-502,108,64181,-18,-9,-950*6bc5e553
%RAWIMUSA,2283,43392.070;2283,43392.069998400,00000077,-488,174,64169,9,0,-329*f156982b
%RAWIMUSA,2283,43392.080;2283,43392.079998400,00000077,-489,120,64171,-18,9,960*bf4b235f
%RAWIMUSA,2283,43392.090;2283,43392.089998400,00000077,-498,153,64171,-45,0,823*9df21266
%RAWIMUSA,2283,43392.100;2283,43392.099998400,00000077,-510,146,64170,55,-10,-950*b5574275
%RAWIMUSA,2283,43392.110;2283,43392.109998400,00000077,-493,126,64175,-36,0,-950*55892f73
%RAWIMUSA,2283,43392.120;2283,43392.119998400,00000077,-488,175,64164,27,9,594*48b4c17e
%RAWIMUSA,2283,43392.130;2283,43392.129998400,00000077,-498,109,64181,-54,9,969*b248e975
%RAWIMUSA,2283,43392.140;2283,43392.139998400,00000077,-509,174,64163,18,-9,-118*157e2e43
%RAWIMUSA,2283,43392.150;2283,43392.149998400,00000077,-497,122,64176,18,-10,-959*f91e5994
%RAWIMUSA,2283,43392.160;2283,43392.159998399,00000077,-484,150,64173,-36,0,-365*565b6a4b
%RAWIMUSA,2283,43392.170;2283,43392.169998399,00000077,-497,147,64168,18,9,960*8861145c
%RAWIMUSA,2283,43392.180;2283,43392.179998399,00000077,-507,127,64176,-64,0,877*d83806fb
%RAWIMUSA,2283,43392.190;2283,43392.189998399,00000077,-495,165,64166,64,-10,-950*33add9ed
%RAWIMUSA,2283,43392.200;2283,43392.199998399,00000077,-489,110,64181,-27,0,-950*47b6820a
%RAWIMUSA,2283,43392.210;2283,43392.209998399,00000077,-499,177,64164,-8,9,557*0e200379
%RAWIMUSA,2283,43392.220;2283,43392.219998399,00000077,-504,117,64176,-18,9,960*9d61bc05
%RAWIMUSA,2283,43392.230;2283,43392.229998399,00000077,-498,154,64169,-27,-9,-63*ee3135b6
%RAWIMUSA,2283,43392.240;2283,43392.239998399,00000077,-485,153,64168,64,-10,-950*de12a76f
%RAWIMUSA,2283,43392.250;2283,43392.249998399,00000077,-494,114,64180,-55,8,-429*5ba39eeb
%RAWIMUSA,2283,43392.260;2283,43392.259998399,00000077,-506,183,64162,18,9,960*f9152c87
%RAWIMUSA,2283,43392.270;2283,43392.269998399,00000077,-499,105,64182,-36,-8,923*0d14d4f6
%RAWIMUSA,2283,43392.280;2283,43392.279998399,00000077,-488,166,64167,9,-10,-960*d2d9f0b6
%RAWIMUSA,2283,43392.290;2283,43392.289998399,00000077,-496,138,64171,36,0,-950*5008cbff
%RAWIMUSA,2283,43392.300;2283,43392.299998399,00000077,-501,135,64172,-73,9,502*765c4eb9
%RAWIMUSA,2283,43392.310;2283,43392.309998399,00000077,-502,166,64164,37,9,969*5bf9ae21
%RAWIMUSA,2283,43392.320;2283,43392.319998399,00000077,-488,111,64178,-36,0,0*d457ced2
%RAWIMUSA,2283,43392.330;2283,43392.329998399,00000077,-489,175,64165,27,-10,-959*6a03a929
%RAWIMUSA,2283,43392.340;2283,43392.339998399,00000077,-501,120,64177,0,0,-484*11ec92ea
%RAWIMUSA,2283,43392.350;2283,43392.349998399,00000077,-506,154,64170,-45,9,960*eed9cfdc
%RAWIMUSA,2283,43392.360;2283,43392.359998399,00000077,-494,146,64169,28,-8,960*4ce97bdc
%RAWIMUSA,2283,43392.370;2283,43392.369998399,00000077,-487,124,64178,-36,-9,-941*26caff30
%RAWIMUSA,2283,43392.380;2283,43392.379998399,00000077,-500,171,64165,55,-10,-941*90f729b7
%RAWIMUSA,2283,43392.390;2283,43392.389998399,00000077,-504,111,64179,-55,18,457*a7d57321
%RAWIMUSA,2283,43392.400;2283,43392.399998399,00000077,-494,174,64164,-18,9,960*2c684711
%RAWIMUSA,2283,43392.410;2283,43392.409998399,00000077,-485,118,64174,27,0,54*acad8140
%RAWIMUSA,2283,43392.420;2283,43392.419998399,00000077,-492,150,64171,-27,-9,-960*0a8d96f2
%RAWIMUSA,2283,43392.430;2283,43392.429998399,00000077,-502,163,64169,46,0,-521*1aa296c9
%RAWIMUSA,2283,43392.440;2283,43392.439998399,00000077,-501,108,64182,-73,0,960*d4a1985e
%RAWIMUSA,2283,43392.450;2283,43392.449998399,00000077,-495,177,64167,18,-8,951*202a86af
%RAWIMUSA,2283,43392.460;2283,43392.459998399,00000077,-494,114,64183,0,-9,-886*e55607bb
%RAWIMUSA,2283,43392.470;2283,43392.469998399,00000077,-500,163,64166,0,8,-950*144162ef
%RAWIMUSA,2283,43392.480;2283,43392.479998399,00000077,-497,134,64171,0,9,393*4f0486ff
%RAWIMUSA,2283,43392.490;2283,43392.489998399,00000077,-489,139,64173,-64,19,951*67e05149
%RAWIMUSA,2283,43392.500;2283,43392.499998399,00000077,-494,162,64164,55,-9,100*b315fc1e
%RAWIMUSA,2283,43392.510;2283,43392.509998399,00000077,-503,113,64180,-27,-9,-941*bc6c7794
%RAWIMUSA,2283,43392.520;2283,43392.519998399,00000077,-492,178,64159,18,8,-594*0f6916fd
%RAWIMUSA,2283,43392.530;2283,43392.529998399,00000077,-493,111,64180,-27,0,960*88e3d207
%RAWIMUSA,2283,43392.540;2283,43392.539998399,00000077,-503,160,64170,-27,0,960*438a9f97
%RAWIMUSA,2283,43392.550;2283,43392.549998399,00000077,-501,142,64174,46,-19,-822*bdde36e0
%RAWIMUSA,2283,43392.560;2283,43392.559998399,00000077,-496,127,64174,-46,8,-960*1fde4f4f
%RAWIMUSA,2283,43392.570;2283,43392.569998399,00000077,-490,172,64162,27,9,356*6b04f055
%RAWIMUSA,2283,43392.580;2283,43392.579998399,00000077,-498,112,64180,-64,9,960*99c20c19
%RAWIMUSA,2283,43392.590;2283,43392.589998399,00000077,-500,177,64163,37,-9,155*a1c75233
%RAWIMUSA,2283,43392.600;2283,43392.599998399,00000077,-496,114,64178,18,-10,-950*6284c8d4
%RAWIMUSA,2283,43392.610;2283,43392.609998399,00000077,-492,151,64170,-55,8,-639*f89d8dd9
%RAWIMUSA,2283,43392.620;2283,43392.619998399,00000077,-499,158,64169,28,0,960*f0a6f5f5
%RAWIMUSA,2283,43392.630;2283,43392.629998399,00000077,-503,111,64181,-54,-8,960*06d48de9
%RAWIMUSA,2283,43392.640;2283,43392.639998399,00000077,-496,175,64163,46,-9,-777*6c490e0a
%RAWIMUSA,2283,43392.650;2283,43392.649998399,00000077,-493,110,64180,-9,0,-960*6bbae226
%RAWIMUSA,2283,43392.660;2283,43392.659998399,00000077,-494,165,64167,-36,9,301*451dc6b0
%RAWIMUSA,2283,43392.670;2283,43392.669998399,00000077,-500,138,64169,18,0,960*1295e3ed
%RAWIMUSA,2283,43392.680;2283,43392.679998399,00000077,-495,123,64176,-45,0,192*5ea88802
%RAWIMUSA,2283,43392.690;2283,43392.689998399,00000077,-494,178,64161,64,0,-950*1b20f679
%RAWIMUSA,2283,43392.700;2283,43392.699998399,00000077,-494,106,64181,-46,0,-694*29708da5
%RAWIMUSA,2283,43392.710;2283,43392.709998399,00000077,-501,168,64164,-18,9,960*466619b5
%RAWIMUSA,2283,43392.720;2283,43392.719998399,00000077,-498,129,64175,18,-17,969*868a6f10
%RAWIMUSA,2283,43392.730;2283,43392.729998399,00000077,-499,137,64173,-36,-9,-731*863d7f8a
%RAWIMUSA,2283,43392.740;2283,43392.739998399,00000077,-493,165,64164,64,0,-950*7d5f87e8
%RAWIMUSA,2283,43392.750;2283,43392.749998399,00000077,-502,105,64178,-73,9,237*10f5d9f8
%RAWIMUSA,2283,43392.760;2283,43392.759998399,00000077,-499,188,64161,0,9,969*06249cbc
%RAWIMUSA,2283,43392.770;2283,43392.769998399,00000077,-485,113,64174,18,-9,246*40519115
%RAWIMUSA,2283,43392.780;2283,43392.779998399,00000077,-492,152,64171,-18,0,-941*d5c00157
%RAWIMUSA,2283,43392.790;2283,43392.789998399,00000077,-507,150,64171,18,8,-740*ec8bab34
%RAWIMUSA,2283,43392.800;2283,43392.799998399,00000077,-505,129,64177,-73,0,960*b72928f7
%RAWIMUSA,2283,43392.810;2283,43392.809998399,00000077,-492,172,64167,46,-17,960*49fb2781
%RAWIMUSA,2283,43392.820;2283,43392.819998399,00000077,-488,107,64180,-18,-9,-676*c1335571
%RAWIMUSA,2283,43392.830;2283,43392.829998399,00000077,-500,174,64163,18,17,-950*b7fac0ba
%RAWIMUSA,2283,43392.840;2283,43392.839998399,00000077,-500,125,64178,-27,9,192*43e45e19
%RAWIMUSA,2283,43392.850;2283,43392.849998399,00000077,-493,154,64169,-36,0,951*a4c7405f
%RAWIMUSA,2283,43392.860;2283,43392.859998399,00000077,-491,135,64170,46,0,320*8e9f4d67
%RAWIMUSA,2283,43392.870;2283,43392.869998399,00000077,-496,136,64175,-36,-9,-950*437efd02
%RAWIMUSA,2283,43392.880;2283,43392.879998399,00000077,-503,173,64169,27,8,-786*a3d7a771
%RAWIMUSA,2283,43392.890;2283,43392.889998399,00000077,-502,106,64180,-64,0,951*34d39f5f
%RAWIMUSA,2283,43392.900;2283,43392.899998399,00000077,-487,173,64164,18,-8,960*4de3d22c
%RAWIMUSA,2283,43392.910;2283,43392.909998399,00000077,-495,123,64179,18,-9,-612*4d1ef609
%RAWIMUSA,2283,43392.920;2283,43392.919998399,00000077,-508,156,64171,-36,8,-950*2b00785c
%RAWIMUSA,2283,43392.930;2283,43392.929998399,00000077,-496,148,64170,18,18,128*fe9d221a
%RAWIMUSA,2283,43392.940;2283,43392.939998399,00000077,-480,119,64175,-64,0,960*073dc9dc
%RAWIMUSA,2283,43392.950;2283,43392.949998399,00000077,-495,181,64164,55,-9,365*66fd5b27
%RAWIMUSA,2283,43392.960;2283,43392.959998399,00000077,-514,107,64180,-9,0,-960*28e2b51a
%RAWIMUSA,2283,43392.970;2283,43392.969998399,00000077,-497,169,64168,-27,0,-841*149f6172
%RAWIMUSA,2283,43392.980;2283,43392.979998399,00000077,-482,135,64170,9,0,960*655d9031
%RAWIMUSA,2283,43392.990;2283,43392.989998399,00000077,-498,131,64179,-45,0,951*eab6ca3c
%RAWIMUSA,2283,43393.000;2283,43392.999998399,00000077,-519,174,64161,64,-9,-566*d30766f0
%RAWIMUSA,2283,43393.010;2283,43393.009998399,00000077,-494,102,64181,-46,8,-950*0db608e3
%RAWIMUSA,2283,43393.020;2283,43393.019998399,00000077,-481,176,64164,-9,9,91*bad25016
%RAWIMUSA,2283,43393.030;2283,43393.029998399,00000077,-492,129,64174,0,0,969*b124ddba
%RAWIMUSA,2283,43393.040;2283,43393.039998399,00000077,-513,146,64169,-27,-8,393*7d1bbbe0
%RAWIMUSA,2283,43393.050;2283,43393.049998399,00000077,-499,152,64167,64,0,-950*6e10407c
%RAWIMUSA,2283,43393.060;2283,43393.059998399,00000077,-484,119,64181,-73,0,-886*d3c8136c
%RAWIMUSA,2283,43393.070;2283,43393.069998399,00000077,-496,179,64165,9,0,960*6e6700db
%RAWIMUSA,2283,43393.080;2283,43393.079998399,00000077,-513,109,64183,-18,-8,969*f4523b2e
%RAWIMUSA,2283,43393.090;2283,43393.089998399,00000077,-499,163,64164,9,0,-521*debe1946
%RAWIMUSA,2283,43393.100;2283,43393.099998399,00000077,-479,132,64172,18,8,-950*efa0a7fa
%RAWIMUSA,2283,43393.110;2283,43393.109998399,00000077,-489,144,64173,-64,9,36*d88d207f
%RAWIMUSA,2283,43393.120;2283,43393.119998399,00000077,-513,161,64168,37,-8,960*d49ffb4f
%RAWIMUSA,2283,43393.130;2283,43393.129998399,00000077,-500,105,64182,-36,-8,466*55b58d82
%RAWIMUSA,2283,43393.140;2283,43393.139998399,00000077,-485,183,64162,46,-10,-950*6a29ae48
%RAWIMUSA,2283,43393.150;2283,43393.149998399,00000077,-493,116,64178,-27,8,-941*ab672ea9
%RAWIMUSA,2283,43393.160;2283,43393.159998399,00000077,-507,153,64167,-45,9,951*450face1
%RAWIMUSA,2283,43393.170;2283,43393.169998399,00000077,-497,149,64167,46,0,969*769f2b05
%RAWIMUSA,2283,43393.180;2283,43393.179998399,00000077,-486,121,64179,-36,0,-475*f96f3bee
%RAWIMUSA,2283,43393.190;2283,43393.189998399,00000077,-494,179,64163,36,0,-950*84338e12
%RAWIMUSA,2283,43393.200;2283,43393.199998399,00000077,-507,102,64180,-55,0,-18*4d25041a
%RAWIMUSA,2283,43393.210;2283,43393.209998399,00000077,-499,170,64162,-8,-8,960*9e5b6803
%RAWIMUSA,2283,43393.220;2283,43393.219998399,00000077,-492,131,64176,37,-8,521*4850b5c5
%RAWIMUSA,2283,43393.230;2283,43393.229998399,00000077,-494,139,64171,-36,8,-950*8d47cc2e
%RAWIMUSA,2283,43393.240;2283,43393.239998399,00000077,-503,165,64166,27,8,-950*7cd9f8b4
%RAWIMUSA,2283,43393.250;2283,43393.249998399,00000077,-497,103,64179,-64,0,923*8b8862d2
%RAWIMUSA,2283,43393.260;2283,43393.259998399,00000077,-488,180,64161,28,-8,960*0955623d
%RAWIMUSA,2283,43393.270;2283,43393.269998399,00000077,-495,121,64177,18,0,-411*eb8917fc
%RAWIMUSA,2283,43393.280;2283,43393.279998399,00000077,-506,155,64171,-46,8,-950*38739b13
%RAWIMUSA,2283,43393.290;2283,43393.289998399,00000077,-494,152,64167,27,0,-54*aa685e4c
%RAWIMUSA,2283,43393.300;2283,43393.299998399,00000077,-489,116,64179,-64,-8,960*175c44f1
%RAWIMUSA,2283,43393.310;2283,43393.309998399,00000077,-500,179,64162,46,-8,567*ff9ebd95
%RAWIMUSA,2283,43393.320;2283,43393.319998399,00000077,-507,106,64180,-9,8,-950*9399866c
%RAWIMUSA,2283,43393.330;2283,43393.329998399,00000077,-496,166,64165,-27,8,-950*2dc7e7c8
%RAWIMUSA,2283,43393.340;2283,43393.339998399,00000077,-485,137,64171,0,-8,859*096fd611
%RAWIMUSA,2283,43393.350;2283,43393.349998399,00000077,-496,134,64177,-36,0,951*ffd47aad
%RAWIMUSA,2283,43393.360;2283,43393.359998399,00000077,-505,162,64166,64,0,-365*8f603c67
%RAWIMUSA,2283,43393.370;2283,43393.369998399,00000077,-498,117,64180,-55,8,-960*1b660195
%RAWIMUSA,2283,43393.380;2283,43393.379998399,00000077,-488,176,64164,9,0,-118*58d87fd0
%RAWIMUSA,2283,43393.390;2283,43393.389998399,00000077,-492,112,64177,-27,0,960*3e293d9e
%RAWIMUSA,2283,43393.400;2283,43393.399998399,00000077,-505,162,64167,9,-8,621*36bfc601
%RAWIMUSA,2283,43393.410;2283,43393.409998399,00000077,-498,138,64173,36,8,-950*be8aeac7
%RAWIMUSA,2283,43393.420;2283,43393.419998399,00000077,-490,137,64174,-73,8,-960*bd93a9a9
%RAWIMUSA,2283,43393.430;2283,43393.429998399,00000077,-494,166,64164,37,-8,804*ff231338
%RAWIMUSA,2283,43393.440;2283,43393.439998399,00000077,-506,101,64181,-36,-8,960*477bf74f
%RAWIMUSA,2283,43393.450;2283,43393.449998399,00000077,-499,184,64163,27,0,-319*7e410024
%RAWIMUSA,2283,43393.460;2283,43393.459998399,00000077,-488,123,64177,0,8,-950*5bbcd33c
%RAWIMUSA,2283,43393.470;2283,43393.469998399,00000077,-499,149,64169,-64,0,-164*4fe15168
%RAWIMUSA,2283,43393.480;2283,43393.479998399,00000077,-503,151,64171,37,-8,960*772a0dc1
%RAWIMUSA,2283,43393.490;2283,43393.489998399,00000077,-498,123,64176,-27,-8,667*e77e3742
%RAWIMUSA,2283,43393.500;2283,43393.499998399,00000077,-493,177,64163,46,8,-941*465bc85e
%RAWIMUSA,2283,43393.510;2283,43393.509998399,00000077,-499,110,64180,-55,8,-950*ba9ea0a9
%RAWIMUSA,2283,43393.520;2283,43393.519998399,00000077,-503,163,64163,-18,-8,749*508fc8e6
%RAWIMUSA,2283,43393.530;2283,43393.529998399,00000077,-493,128,64175,28,-8,951*4933bc25
%RAWIMUSA,2283,43393.540;2283,43393.539998399,00000077,-492,148,64174,-27,8,-265*35c0e89f
%RAWIMUSA,2283,43393.550;2283,43393.549998399,00000077,-501,157,64166,46,8,-941*9fc162db
%RAWIMUSA,2283,43393.560;2283,43393.559998399,00000077,-501,112,64180,-82,-9,-228*60012c09
%RAWIMUSA,2283,43393.570;2283,43393.569998399,00000077,-496,181,64162,37,-8,960*1c1216ef
%RAWIMUSA,2283,43393.580;2283,43393.579998399,00000077,-492,115,64179,-8,0,731*44ad0eda
%RAWIMUSA,2283,43393.590;2283,43393.589998399,00000077,-494,160,64169,0,8,-950*44d4e0bb
%RAWIMUSA,2283,43393.600;2283,43393.599998399,00000077,-501,133,64171,0,8,-950*fdb472a4
%RAWIMUSA,2283,43393.610;2283,43393.609998399,00000077,-497,141,64175,-64,-8,713*a6904302
%RAWIMUSA,2283,43393.620;2283,43393.619998399,00000077,-492,163,64167,64,-8,951*97ad1fe5
%RAWIMUSA,2283,43393.630;2283,43393.629998399,00000077,-495,114,64181,-36,0,-201*0697ed93
%RAWIMUSA,2283,43393.640;2283,43393.639998399,00000077,-503,172,64163,18,8,-960*3e9d0656
%RAWIMUSA,2283,43393.650;2283,43393.649998399,00000077,-496,116,64180,-45,0,-283*415df141
%RAWIMUSA,2283,43393.660;2283,43393.659998399,00000077,-494,166,64165,0,-8,951*7aedc6a1
%RAWIMUSA,2283,43393.670;2283,43393.669998399,00000077,-497,130,64176,27,0,777*ab057325
%RAWIMUSA,2283,43393.680;2283,43393.679998399,00000077,-500,138,64174,-36,0,-960*c9a83e11
%RAWIMUSA,2283,43393.690;2283,43393.689998399,00000077,-497,163,64167,27,8,-950*84266e63
%RAWIMUSA,2283,43393.700;2283,43393.699998399,00000077,-498,115,64182,-73,-8,658*c2961727
%RAWIMUSA,2283,43393.710;2283,43393.709998399,00000077,-494,180,64159,46,-8,951*e70e8e09
%RAWIMUSA,2283,43393.720;2283,43393.719998399,00000077,-490,109,64180,9,9,-146*5342b283
%RAWIMUSA,2283,43393.730;2283,43393.729998399,00000077,-501,162,64171,-46,8,-960*c5b5fa7b
%RAWIMUSA,2283,43393.740;2283,43393.739998399,00000077,-499,150,64169,18,-9,-329*38e7134a
%RAWIMUSA,2283,43393.750;2283,43393.749998399,00000077,-497,120,64175,-45,-8,960*9ea3e4ac
%RAWIMUSA,2283,43393.760;2283,43393.759998399,00000077,-492,167,64162,55,0,823*eaee55d7
%RAWIMUSA,2283,43393.770;2283,43393.769998399,00000077,-497,117,64178,-36,8,-950*e6d967b9
%RAWIMUSA,2283,43393.780;2283,43393.779998399,00000077,-505,176,64163,-9,8,-950*5587fcc4
%RAWIMUSA,2283,43393.790;2283,43393.789998399,00000077,-493,115,64179,-8,-8,603*2f7ef174
%RAWIMUSA,2283,43393.800;2283,43393.799998399,00000077,-492,146,64168,-18,0,951*da72a9a9
%RAWIMUSA,2283,43393.810;2283,43393.809998399,00000077,-498,158,64169,55,8,-109*67250f79
%RAWIMUSA,2283,43393.820;2283,43393.819998399,00000077,-499,119,64179,-73,8,-950*6bb0bb6a
%RAWIMUSA,2283,43393.830;2283,43393.829998399,00000077,-495,172,64164,18,-9,-383*253845e2
%RAWIMUSA,2283,43393.840;2283,43393.839998399,00000077,-495,104,64179,-18,-8,969*4399c0b0
%RAWIMUSA,2283,43393.850;2283,43393.849998399,00000077,-495,170,64165,9,0,877*3dd11993
%RAWIMUSA,2283,43393.860;2283,43393.859998399,00000077,-497,136,64172,27,8,-950*f308da2b
%RAWIMUSA,2283,43393.870;2283,43393.869998399,00000077,-496,131,64174,-73,8,-950*fec0fb07
%RAWIMUSA,2283,43393.880;2283,43393.879998399,00000077,-496,163,64165,37,-8,548*b6d46d8c
%RAWIMUSA,2283,43393.890;2283,43393.889998399,00000077,-492,114,64181,-27,-8,969*2d4a14d9
%RAWIMUSA,2283,43393.900;2283,43393.899998399,00000077,-494,175,64162,37,9,-54*c1245c3d
%RAWIMUSA,2283,43393.910;2283,43393.909998399,00000077,-498,112,64177,-27,8,-960*56b0bc71
%RAWIMUSA,2283,43393.920;2283,43393.919998399,00000077,-497,161,64171,-46,0,-429*1b7ea43c
%RAWIMUSA,2283,43393.930;2283,43393.929998399,00000077,-497,148,64170,46,-8,960*47af8e54
%RAWIMUSA,2283,43393.940;2283,43393.939998399,00000077,-495,123,64177,-45,0,923*6d82af77
%RAWIMUSA,2283,43393.950;2283,43393.949998399,00000077,-499,171,64164,46,8,-950*424f89c4
%RAWIMUSA,2283,43393.960;2283,43393.959998399,00000077,-495,111,64178,-55,0,-960*5976c495
%RAWIMUSA,2283,43393.970;2283,43393.969998399,00000077,-495,178,64163,-8,-8,493*c3d410f0
%RAWIMUSA,2283,43393.980;2283,43393.979998399,00000077,-494,119,64176,37,-8,960*bb76791e
%RAWIMUSA,2283,43393.990;2283,43393.989998399,00000077,-499,139,64170,-27,9,0*e8e15c92
%RAWIMUSA,2283,43394.000;2283,43393.999998399,00000077,-500,163,64166,27,8,-960*69f3f678
%RAWIMUSA,2283,43394.010;2283,43394.009998399,00000077,-490,117,64180,-73,-9,-493*8400d795
%RAWIMUSA,2283,43394.020;2283,43394.019998399,00000077,-496,175,64161,37,-8,960*54e69075
%RAWIMUSA,2283,43394.030;2283,43394.029998399,00000077,-499,106,64179,-8,9,960*c0f3a504
%RAWIMUSA,2283,43394.040;2283,43394.039998399,00000077,-499,162,64166,-9,0,-932*44917b6d
%RAWIMUSA,2283,43394.050;2283,43394.049998399,00000077,-492,141,64173,9,0,-960*34064a83
%RAWIMUSA,2283,43394.060;2283,43394.059998399,00000077,-494,134,64174,-64,-8,457*3af05e44
%RAWIMUSA,2283,43394.070;2283,43394.069998398,00000077,-498,159,64169,64,0,951*ed7fdc75
%RAWIMUSA,2283,43394.080;2283,43394.079998398,00000077,-502,114,64180,-36,9,54*7974f831
%RAWIMUSA,2283,43394.090;2283,43394.089998398,00000077,-494,179,64162,9,8,-960*d70977d6
%RAWIMUSA,2283,43394.100;2283,43394.099998398,00000077,-493,110,64175,-27,-9,-530*a9f64a1b
%RAWIMUSA,2283,43394.110;2283,43394.109998398,00000077,-502,157,64168,-8,-8,960*2e0c6eb6
%RAWIMUSA,2283,43394.120;2283,43394.119998398,00000077,-503,142,64171,46,9,960*de0e323a
%RAWIMUSA,2283,43394.130;2283,43394.129998398,00000077,-493,135,64173,-55,0,-877*fac8c78d
%RAWIMUSA,2283,43394.140;2283,43394.139998398,00000077,-492,163,64165,18,0,-950*f879c44b
%RAWIMUSA,2283,43394.150;2283,43394.149998398,00000077,-500,107,64182,-55,0,384*a864edb4
%RAWIMUSA,2283,43394.160;2283,43394.159998398,00000077,-499,182,64163,37,-8,969*a63a7856
%RAWIMUSA,2283,43394.170;2283,43394.169998398,00000077,-495,116,64178,9,9,109*1a7e7114
%RAWIMUSA,2283,43394.180;2283,43394.179998398,00000077,-497,154,64166,-36,8,-950*494b6b40
%RAWIMUSA,2283,43394.190;2283,43394.189998398,00000077,-498,139,64169,9,0,-594*53f86350
%RAWIMUSA,2283,43394.200;2283,43394.199998398,00000077,-495,141,64173,-36,-8,951*849ced7b
%RAWIMUSA,2283,43394.210;2283,43394.209998398,00000077,-495,155,64167,55,9,969*1a1026d6
%RAWIMUSA,2283,43394.220;2283,43394.219998398,00000077,-495,110,64181,-55,8,-822*742d613d
%RAWIMUSA,2283,43394.230;2283,43394.229998398,00000077,-499,178,64165,9,-10,-950*aafe4fea
%RAWIMUSA,2283,43394.240;2283,43394.239998398,00000077,-498,112,64179,-27,-8,338*e4932a6d
%RAWIMUSA,2283,43394.250;2283,43394.249998398,00000077,-497,168,64167,0,0,960*f32f9d06
%RAWIMUSA,2283,43394.260;2283,43394.259998398,00000077,-495,137,64173,46,9,155*8d6b3ad6
%RAWIMUSA,2283,43394.270;2283,43394.269998398,00000077,-497,130,64173,-73,8,-950*1936a805
%RAWIMUSA,2283,43394.280;2283,43394.279998398,00000077,-496,171,64166,27,-9,-649*6b039e60
%RAWIMUSA,2283,43394.290;2283,43394.289998398,00000077,-497,108,64181,-27,-8,960*bf10ca43
%RAWIMUSA,2283,43394.300;2283,43394.299998398,00000077,-499,181,64165,28,9,969*a01e8152
%RAWIMUSA,2283,43394.310;2283,43394.309998398,00000077,-495,124,64178,0,8,-767*c287f1a5
%RAWIMUSA,2283,43394.320;2283,43394.319998398,00000077,-499,147,64172,-64,0,-950*e4184a5f
%RAWIMUSA,2283,43394.330;2283,43394.329998398,00000077,-499,155,64167,46,-9,292*fc882d19
%RAWIMUSA,2283,43394.340;2283,43394.339998398,00000077,-491,118,64176,-36,0,951*04a2014b
%RAWIMUSA,2283,43394.350;2283,43394.349998398,00000077,-497,179,64163,46,9,210*b4da3f7e
%RAWIMUSA,2283,43394.360;2283,43394.359998398,00000077,-507,109,64180,-46,0,-941*3bd76547
%RAWIMUSA,2283,43394.370;2283,43394.369998398,00000077,-495,166,64166,-27,-9,-694*0fc59cb0
%RAWIMUSA,2283,43394.380;2283,43394.379998398,00000077,-485,126,64173,28,-8,960*dfb5820a
%RAWIMUSA,2283,43394.390;2283,43394.389998398,00000077,-492,146,64174,-27,9,960*371e1e06
%RAWIMUSA,2283,43394.400;2283,43394.399998398,00000077,-513,159,64165,46,8,-731*c30b4ee2
%RAWIMUSA,2283,43394.410;2283,43394.409998398,00000077,-497,113,64182,-73,-9,-950*b87ef025
%RAWIMUSA,2283,43394.420;2283,43394.419998398,00000077,-481,177,64162,27,-9,228*d3c3e967
%RAWIMUSA,2283,43394.430;2283,43394.429998398,00000077,-493,114,64178,0,9,960*56cccd6c
%RAWIMUSA,2283,43394.440;2283,43394.439998398,00000077,-510,163,64166,-8,0,256*33d65a2a
%RAWIMUSA,2283,43394.450;2283,43394.449998398,00000077,-498,137,64173,9,0,-960*bf4cfecf
%RAWIMUSA,2283,43394.460;2283,43394.459998398,00000077,-481,138,64172,-64,-9,-740*3d0762ee
%RAWIMUSA,2283,43394.470;2283,43394.469998398,00000077,-495,159,64165,55,0,960*be1e05bf
%RAWIMUSA,2283,43394.480;2283,43394.479998398,00000077,-509,118,64179,-36,9,951*e5061b4d
%RAWIMUSA,2283,43394.490;2283,43394.489998398,00000077,-500,181,64162,18,8,-676*45a553d0
%RAWIMUSA,2283,43394.500;2283,43394.499998398,00000077,-486,113,64180,-36,-9,-950*828f59e5
%RAWIMUSA,2283,43394.510;2283,43394.509998398,00000077,-495,164,64169,-9,-9,182*b266c848
%RAWIMUSA,2283,43394.520;2283,43394.519998398,00000077,-511,133,64173,37,9,969*5fa5102d
%RAWIMUSA,2283,43394.530;2283,43394.529998398,00000077,-496,141,64174,-36,0,310*680e070e
%RAWIMUSA,2283,43394.540;2283,43394.539998398,00000077,-482,165,64167,18,0,-960*0c771821
%RAWIMUSA,2283,43394.550;2283,43394.549998398,00000077,-494,110,64180,-64,0,-795*2b5c49a7
%RAWIMUSA,2283,43394.560;2283,43394.559998398,00000077,-509,174,64163,37,-8,960*8ce69e26
%RAWIMUSA,2283,43394.570;2283,43394.569998398,00000077,-498,112,64178,9,9,951*ba7ea8dd
%RAWIMUSA,2283,43394.580;2283,43394.579998398,00000077,-486,166,64171,-36,8,-603*f35f2abb
%RAWIMUSA,2283,43394.590;2283,43394.589998398,00000077,-495,136,64167,18,-10,-959*7c76e198
%RAWIMUSA,2283,43394.600;2283,43394.599998398,00000077,-507,126,64175,-55,-9,128*0d7694b6
%RAWIMUSA,2283,43394.610;2283,43394.609998398,00000077,-499,172,64163,64,9,969*4a2e8f49
%RAWIMUSA,2283,43394.620;2283,43394.619998398,00000077,-488,114,64180,-45,9,365*410a4ff4
%RAWIMUSA,2283,43394.630;2283,43394.629998398,00000077,-497,172,64163,0,0,-950*c7a549bd
%RAWIMUSA,2283,43394.640;2283,43394.639998398,00000077,-504,115,64178,-18,-19,-850*d2d21ba7
%RAWIMUSA,2283,43394.650;2283,43394.649998398,00000077,-498,159,64169,-18,0,960*878a6c9e
%RAWIMUSA,2283,43394.660;2283,43394.659998398,00000077,-488,150,64169,64,0,969*577dd50f
%RAWIMUSA,2283,43394.670;2283,43394.669998398,00000077,-494,114,64177,-73,8,-566*41e11052
%RAWIMUSA,2283,43394.680;2283,43394.679998398,00000077,-504,182,64162,18,0,-960*c867dbc0
%RAWIMUSA,2283,43394.690;2283,43394.689998398,00000077,-497,114,64180,-18,-9,82*923154e4
%RAWIMUSA,2283,43394.700;2283,43394.699998398,00000077,-488,166,64168,0,9,960*38cbb8e1
%RAWIMUSA,2283,43394.710;2283,43394.709998398,00000077,-495,129,64172,37,9,411*90f80eb8
%RAWIMUSA,2283,43394.720;2283,43394.719998398,00000077,-505,127,64176,-73,0,-950*4e90eeb1
%RAWIMUSA,2283,43394.730;2283,43394.729998398,00000077,-493,181,64161,27,-9,-905*804158d5
%RAWIMUSA,2283,43394.740;2283,43394.739998398,00000077,-487,105,64178,-27,0,941*0eb88173
%RAWIMUSA,2283,43394.750;2283,43394.749998398,00000077,-498,167,64163,28,9,960*31fb29a0
%RAWIMUSA,2283,43394.760;2283,43394.759998398,00000077,-505,118,64175,-9,0,-502*1a62c0be
%RAWIMUSA,2283,43394.770;2283,43394.769998398,00000077,-492,156,64171,-55,-9,-960*0f4d9fa3
%RAWIMUSA,2283,43394.780;2283,43394.779998398,00000077,-490,155,64167,46,-9,27*91c38117
%RAWIMUSA,2283,43394.790;2283,43394.789998398,00000077,-502,110,64180,-36,9,960*de0b6284
%RAWIMUSA,2283,43394.800;2283,43394.799998398,00000077,-502,180,64163,37,9,466*9a7a9378
%RAWIMUSA,2283,43394.810;2283,43394.809998398,00000077,-491,114,64180,-36,0,-950*61ea73bf
%RAWIMUSA,2283,43394.820;2283,43394.819998398,00000077,-490,164,64166,-27,-9,-950*c60e71ab
%RAWIMUSA,2283,43394.830;2283,43394.829998398,00000077,-498,124,64173,37,0,960*9b0c7c0f
%RAWIMUSA,2283,43394.840;2283,43394.839998398,00000077,-502,148,64171,-18,9,969*c5435a80
%RAWIMUSA,2283,43394.850;2283,43394.849998398,00000077,-495,154,64169,18,0,-457*6dbb0549
%RAWIMUSA,2283,43394.860;2283,43394.859998398,00000077,-493,118,64178,-73,-9,-941*d5b77836
%RAWIMUSA,2283,43394.870;2283,43394.869998398,00000077,-500,167,64166,46,0,-27*fbcd9bd0
%RAWIMUSA,2283,43394.880;2283,43394.879998398,00000077,-498,115,64180,-18,0,969*37abd961
%RAWIMUSA,2283,43394.890;2283,43394.889998398,00000077,-492,175,64166,9,9,521*12755e8e
%RAWIMUSA,2283,43394.900;2283,43394.899998398,00000077,-493,119,64177,-18,0,-950*e5113258
%RAWIMUSA,2283,43394.910;2283,43394.909998398,00000077,-499,150,64168,-36,-9,-950*e1e37b0e
%RAWIMUSA,2283,43394.920;2283,43394.919998398,00000077,-500,152,64167,55,0,905*203e97d8
%RAWIMUSA,2283,43394.930;2283,43394.929998398,00000077,-496,123,64178,-45,9,951*c96196da
%RAWIMUSA,2283,43394.940;2283,43394.939998398,00000077,-495,177,64161,27,0,-411*28a42357
%RAWIMUSA,2283,43394.950;2283,43394.949998398,00000077,-496,101,64181,-46,-9,-950*13b844dd
%RAWIMUSA,2283,43394.960;2283,43394.959998398,00000077,-498,170,64168,-9,0,-73*07693885
%RAWIMUSA,2283,43394.970;2283,43394.969998398,00000077,-496,134,64170,46,0,996*f557abaf
%RAWIMUSA,2283,43394.980;2283,43394.979998398,00000077,-489,139,64174,-54,18,713*fcf55801
%RAWIMUSA,2283,43394.990;2283,43394.989998398,00000077,-488,184,64164,27,-9,-630*e4de9b27
%RAWIMUSA,2283,43395.000;2283,43394.999998398,00000077,-495,120,64178,-64,-9,-511*1a56cc6a
%RAWIMUSA,2283,43395.010;2283,43395.009998398,00000077,-492,178,64163,28,1,1435*aa4924c2
%RAWIMUSA,2283,43395.020;2283,43395.019998398,00000077,-487,119,64178,9,10,1645*72ee4486
%RAWIMUSA,2283,43395.030;2283,43395.029998398,00000077,-491,155,64170,-55,0,365*b604a8a3
%RAWIMUSA,2283,43395.040;2283,43395.039998398,00000077,-494,159,64171,18,-9,-137*9eb428f1
%RAWIMUSA,2283,43395.050;2283,43395.049998398,00000077,-501,125,64177,-54,0,759*eb65586e
%RAWIMUSA,2283,43395.060;2283,43395.059998398,00000077,-489,170,64163,46,10,1911*f093ac12
%RAWIMUSA,2283,43395.070;2283,43395.069998398,00000077,-490,116,64179,-45,10,1664*92b34e2c
%RAWIMUSA,2283,43395.080;2283,43395.079998398,00000077,-499,179,64165,-18,-9,137*8dee5283
%RAWIMUSA,2283,43395.090;2283,43395.089998398,00000077,-492,128,64175,-9,-9,228*53fd8dbe
%RAWIMUSA,2283,43395.100;2283,43395.099998398,00000077,-490,161,64168,-26,19,2094*a8c274b8
%RAWIMUSA,2283,43395.110;2283,43395.109998398,00000077,-494,159,64164,46,10,2322*206e76a9
%RAWIMUSA,2283,43395.120;2283,43395.119998398,00000077,-495,121,64184,-91,0,1143*dd4c8d47
%RAWIMUSA,2283,43395.130;2283,43395.129998398,00000077,-492,191,64166,0,-8,594*8bc2bb36
%RAWIMUSA,2283,43395.140;2283,43395.139998398,00000077,-492,100,64184,-17,1,1417*028d4347
%RAWIMUSA,2283,43395.150;2283,43395.149998398,00000077,-493,173,64169,-17,11,2660*3a26007d
%RAWIMUSA,2283,43395.160;2283,43395.159998398,00000077,-496,154,64168,28,10,2459*4f96ccb2
%RAWIMUSA,2283,43395.170;2283,43395.169998398,00000077,-491,124,64175,-91,0,877*7f71e295
%RAWIMUSA,2283,43395.180;2283,43395.179998398,00000077,-492,186,64165,18,-8,996*e575f21d
%RAWIMUSA,2283,43395.190;2283,43395.189998398,00000077,-496,107,64179,-26,11,2761*1ef0e28a
%RAWIMUSA,2283,43395.200;2283,43395.199998398,00000077,-493,159,64168,0,20,3044*49a9ee5f
%RAWIMUSA,2283,43395.210;2283,43395.209998398,00000077,-491,145,64178,-27,-7,1938*3f268cf6
%RAWIMUSA,2283,43395.220;2283,43395.219998398,00000077,-496,150,64167,-82,1,1289*15025d16
%RAWIMUSA,2283,43395.230;2283,43395.229998398,00000077,-497,171,64160,46,10,2094*af213ea9
%RAWIMUSA,2283,43395.240;2283,43395.239998398,00000077,-486,117,64181,-54,11,3392*3f223b8f
%RAWIMUSA,2283,43395.250;2283,43395.249998398,00000077,-490,176,64170,0,2,3209*b5bf8942
%RAWIMUSA,2283,43395.260;2283,43395.259998398,00000077,-500,115,64184,-45,1,1645*845ecd50
%RAWIMUSA,2283,43395.270;2283,43395.269998398,00000077,-501,158,64170,-54,-7,1728*59378da9
%RAWIMUSA,2283,43395.280;2283,43395.279998398,00000077,-484,153,64171,37,11,3429*42bd7a4d
%RAWIMUSA,2283,43395.290;2283,43395.289998398,00000077,-483,128,64170,-72,21,3749*bf8cc005
%RAWIMUSA,2283,43395.300;2283,43395.299998398,00000077,-500,181,64163,0,2,2688*a9ae716a
%RAWIMUSA,2283,43395.310;2283,43395.309998398,00000077,-502,113,64185,-73,-7,1993*a7337e51
%RAWIMUSA,2283,43395.320;2283,43395.319998398,00000077,-489,180,64160,-8,11,2779*aee2447c
%RAWIMUSA,2283,43395.330;2283,43395.329998398,00000077,-479,130,64176,1,12,4096*94a766e5
%RAWIMUSA,2283,43395.340;2283,43395.339998398,00000077,-490,157,64172,-63,12,3977*758741c3
%RAWIMUSA,2283,43395.350;2283,43395.349998398,00000077,-509,152,64166,-17,1,2377*367fdc3c
%RAWIMUSA,2283,43395.360;2283,43395.359998398,00000077,-496,132,64176,-72,1,2423*6cb56d46
%RAWIMUSA,2283,43395.370;2283,43395.369998398,00000077,-474,170,64168,28,12,4123*376ec9c4
%RAWIMUSA,2283,43395.380;2283,43395.379998398,00000077,-489,121,64182,-63,21,4498*4348b4a1
%RAWIMUSA,2283,43395.390;2283,43395.389998398,00000077,-508,172,64164,-17,2,3456*9e7a5f28
%RAWIMUSA,2283,43395.400;2283,43395.399998398,00000077,-499,122,64180,-72,-7,2743*28ab001a
%RAWIMUSA,2283,43395.410;2283,43395.409998398,00000077,-483,164,64167,-8,11,3447*2fc474ed
%RAWIMUSA,2283,43395.420;2283,43395.419998398,00000077,-482,136,64173,1,12,4809*8e63ae15
%RAWIMUSA,2283,43395.430;2283,43395.429998398,00000077,-499,152,64172,-81,12,4782*aa57d1b1
%RAWIMUSA,2283,43395.440;2283,43395.439998398,00000077,-508,161,64168,-8,2,3054*ff7bcccb
%RAWIMUSA,2283,43395.450;2283,43395.449998398,00000077,-489,113,64177,-82,2,3127*403fefb3
%RAWIMUSA,2283,43395.460;2283,43395.459998398,00000077,-478,184,64163,10,22,4782*93f59c0c
%RAWIMUSA,2283,43395.470;2283,43395.469998398,00000077,-495,119,64182,-35,13,5212*cf386013
%RAWIMUSA,2283,43395.480;2283,43395.479998398,00000077,-509,156,64171,-81,3,4233*af0dfd61
%RAWIMUSA,2283,43395.490;2283,43395.489998398,00000077,-495,149,64171,-8,-6,3474*120a7efd
%RAWIMUSA,2283,43395.500;2283,43395.499998398,00000077,-482,117,64174,-72,21,4078*151b96f7
%RAWIMUSA,2283,43395.510;2283,43395.509998398,00000077,-484,196,64161,19,22,5522*3f035467
%RAWIMUSA,2283,43395.520;2283,43395.519998398,00000077,-506,119,64178,-81,4,5550*3ad4a5eb
%RAWIMUSA,2283,43395.530;2283,43395.529998398,00000077,-503,157,64171,-54,2,3794*7d8369c6
%RAWIMUSA,2283,43395.540;2283,43395.539998398,00000077,-481,135,64183,-26,2,3886*33360eda
%RAWIMUSA,2283,43395.550;2283,43395.549998398,00000077,-483,151,64169,-53,22,5449*4ddc27de
%RAWIMUSA,2283,43395.560;2283,43395.559998398,00000077,-502,157,64164,10,13,5916*8712eb43
%RAWIMUSA,2283,43395.570;2283,43395.569998398,00000077,-502,129,64172,-109,3,5029*1c1167c3
%RAWIMUSA,2283,43395.580;2283,43395.579998398,00000077,-487,174,64163,-17,3,4178*7dbead12
%RAWIMUSA,2283,43395.590;2283,43395.589998398,00000077,-478,120,64182,-53,22,4773*1330ef53
%RAWIMUSA,2283,43395.600;2283,43395.599998398,00000077,-498,165,64166,-25,13,6272*8111c23c
%RAWIMUSA,2283,43395.610;2283,43395.609998398,00000077,-507,130,64176,-44,14,6309*a1139b63
%RAWIMUSA,2283,43395.620;2283,43395.619998398,00000077,-492,159,64170,-100,3,4517*7c1c2bf2
%RAWIMUSA,2283,43395.630;2283,43395.629998398,00000077,-480,161,64165,10,12,4599*4dc11f37
%RAWIMUSA,2283,43395.640;2283,43395.639998398,00000077,-490,114,64179,-81,23,6071*7330179b
%RAWIMUSA,2283,43395.650;2283,43395.649998398,00000077,-504,178,64161,-7,14,6665*392ad708
%RAWIMUSA,2283,43395.660;2283,43395.659998398,00000077,-501,120,64185,-81,4,5797*7e2d7ce0
%RAWIMUSA,2283,43395.670;2283,43395.669998398,00000077,-486,165,64171,-63,3,4901*2d1e4a34
%RAWIMUSA,2283,43395.680;2283,43395.679998398,00000077,-481,138,64174,-16,13,5468*f2c99fb3
%RAWIMUSA,2283,43395.690;2283,43395.689998398,00000077,-499,141,64165,-71,32,6967*86012daf
%RAWIMUSA,2283,43395.700;2283,43395.699998398,00000077,-498,163,64167,-16,5,7040*a8b1ab31
%RAWIMUSA,2283,43395.710;2283,43395.709998398,00000077,-493,128,64179,-118,4,5285*f541e97c
%RAWIMUSA,2283,43395.720;2283,43395.719998398,00000077,-482,167,64164,-7,13,5294*6732dd07
%RAWIMUSA,2283,43395.730;2283,43395.729998398,00000077,-489,119,64178,-71,23,6784*062cb68b
%RAWIMUSA,2283,43395.740;2283,43395.739998398,00000077,-499,178,64163,-34,14,7388*9821fb82
%RAWIMUSA,2283,43395.750;2283,43395.749998398,00000077,-498,124,64180,-62,5,6556*c50e82f0
%RAWIMUSA,2283,43395.760;2283,43395.759998398,00000077,-486,156,64172,-99,13,5632*0bcdfaf9
%RAWIMUSA,2283,43395.770;2283,43395.769998398,00000077,-489,151,64165,10,23,6135*90260ea3
%RAWIMUSA,2283,43395.780;2283,43395.779998398,00000077,-499,122,64179,-90,24,7690*29a0c47e
%RAWIMUSA,2283,43395.790;2283,43395.789998398,00000077,-501,183,64167,-34,5,7790*482dc3d0
%RAWIMUSA,2283,43395.800;2283,43395.799998398,00000077,-490,107,64180,-90,13,6035*feb4ba17
%RAWIMUSA,2283,43395.810;2283,43395.809998398,00000077,-477,168,64166,-62,13,6016*3b8ff121
%RAWIMUSA,2283,43395.820;2283,43395.819998398,00000077,-490,143,64169,-7,24,7470*4dda0922
%RAWIMUSA,2283,43395.830;2283,43395.829998398,00000077,-507,135,64172,-108,24,8101*b67f2466
%RAWIMUSA,2283,43395.840;2283,43395.839998398,00000077,-491,167,64164,-25,5,7342*45370835
%RAWIMUSA,2283,43395.850;2283,43395.849998398,00000077,-479,125,64180,-108,4,6373*1904ed83
%RAWIMUSA,2283,43395.860;2283,43395.859998398,00000077,-489,174,64164,-25,32,6784*9ccc507d
%RAWIMUSA,2283,43395.870;2283,43395.869998398,00000077,-505,110,64178,-34,24,8394*e03fe2ef
%RAWIMUSA,2283,43395.880;2283,43395.879998398,00000077,-498,165,64170,-108,6,8503*8b127583
%RAWIMUSA,2283,43395.890;2283,43395.889998398,00000077,-483,164,64166,-35,5,6784*0688be8c
%RAWIMUSA,2283,43395.900;2283,43395.899998398,00000077,-486,119,64181,-108,23,6757*54f13325
%RAWIMUSA,2283,43395.910;2283,43395.909998398,00000077,-500,175,64161,-7,24,8119*56039f67
%RAWIMUSA,2283,43395.920;2283,43395.919998398,00000077,-497,113,64181,-80,16,8842*a879fe4b
%RAWIMUSA,2283,43395.930;2283,43395.929998398,00000077,-483,165,64170,-99,6,8110*9bf3e9a5
%RAWIMUSA,2283,43395.940;2283,43395.939998398,00000077,-486,146,64168,-35,14,7086*11bfcc9e
%RAWIMUSA,2283,43395.950;2283,43395.949998398,00000077,-496,129,64177,-99,24,7452*27f951f6
%RAWIMUSA,2283,43395.960;2283,43395.959998398,00000077,-498,171,64166,2,25,9162*6f188561
%RAWIMUSA,2283,43395.970;2283,43395.969998398,00000077,-486,116,64178,-126,16,9226*bfca3788
%RAWIMUSA,2283,43395.980;2283,43395.979998397,00000077,-483,185,64168,-80,5,7607*c8385040
%RAWIMUSA,2283,43395.990;2283,43395.989998397,00000077,-498,109,64173,-34,24,7479*cbb362d3
%RAWIMUSA,2283,43396.000;2283,43395.999998397,00000077,-498,144,64175,-99,25,8769*e8de20e7
%RAWIMUSA,2283,43396.010;2283,43396.009998397,00000077,-487,176,64162,-15,25,9564*d95fd28d
%RAWIMUSA,2283,43396.020;2283,43396.019998397,00000077,-487,125,64184,-135,6,8887*bd7476a2
%RAWIMUSA,2283,43396.030;2283,43396.029998397,00000077,-497,174,64159,-53,24,7790*e3ad21db
%RAWIMUSA,2283,43396.040;2283,43396.039998397,00000077,-493,119,64178,-53,24,8147*f4983074
%RAWIMUSA,2283,43396.050;2283,43396.049998397,00000077,-493,160,64174,-89,26,9875*b1e7d03e
%RAWIMUSA,2283,43396.060;2283,43396.059998397,00000077,-486,157,64169,-34,7,9948*9dd8d55e
%RAWIMUSA,2283,43396.070;2283,43396.069998397,00000077,-494,115,64181,-154,15,8357*59971eba
%RAWIMUSA,2283,43396.080;2283,43396.079998397,00000077,-499,170,64162,-25,24,8183*f4fa1d02
%RAWIMUSA,2283,43396.090;2283,43396.089998397,00000077,-490,125,64183,-62,34,9454*07d984b9
%RAWIMUSA,2283,43396.100;2283,43396.099998397,00000077,-488,166,64166,-98,17,10286*cb58a8dd
%RAWIMUSA,2283,43396.110;2283,43396.109998397,00000077,-491,139,64171,-52,16,9646*f5ca8b4b
%RAWIMUSA,2283,43396.120;2283,43396.119998397,00000077,-495,118,64177,-136,15,8503*16ad5acf
%RAWIMUSA,2283,43396.130;2283,43396.129998397,00000077,-490,182,64160,-16,25,8823*4704a23d
%RAWIMUSA,2283,43396.140;2283,43396.139998397,00000077,-489,116,64182,-89,35,10579*5c05c3ee
%RAWIMUSA,2283,43396.150;2283,43396.149998397,00000077,-490,174,64158,-98,17,10716*9028469e
%RAWIMUSA,2283,43396.160;2283,43396.159998397,00000077,-497,138,64177,-71,7,9134*500b1705
%RAWIMUSA,2283,43396.170;2283,43396.169998397,00000077,-493,138,64176,-117,34,8906*62198eda
%RAWIMUSA,2283,43396.180;2283,43396.179998397,00000077,-483,167,64169,-6,26,10158*3dee4e32
%RAWIMUSA,2283,43396.190;2283,43396.189998397,00000077,-490,105,64177,-126,26,10990*947a08fb
%RAWIMUSA,2283,43396.200;2283,43396.199998397,00000077,-502,182,64159,-71,8,10433*c84f232e
%RAWIMUSA,2283,43396.210;2283,43396.209998397,00000077,-492,123,64183,-99,25,9235*e80f017d
%RAWIMUSA,2283,43396.220;2283,43396.219998397,00000077,-491,154,64167,-71,25,9454*2f8f65f6
%RAWIMUSA,2283,43396.230;2283,43396.229998397,00000077,-489,133,64172,-43,27,11320*85666548
%RAWIMUSA,2283,43396.240;2283,43396.239998397,00000077,-496,153,64169,-144,18,11411*47676afe
%RAWIMUSA,2283,43396.250;2283,43396.249998397,00000077,-493,164,64170,-52,16,9893*7b1e7d87
%RAWIMUSA,2283,43396.260;2283,43396.259998397,00000077,-481,113,64175,-126,35,9665*0cc84c6a
%RAWIMUSA,2283,43396.270;2283,43396.269998397,00000077,-491,177,64167,-34,35,10817*7cb95f7b
%RAWIMUSA,2283,43396.280;2283,43396.279998397,00000077,-502,120,64185,-98,18,11713*1fba74fa
%RAWIMUSA,2283,43396.290;2283,43396.289998397,00000077,-492,157,64164,-126,8,11210*6fbe0c9a
%RAWIMUSA,2283,43396.300;2283,43396.299998397,00000077,-482,142,64170,-43,35,9957*a094f473
%RAWIMUSA,2283,43396.310;2283,43396.309998397,00000077,-491,123,64173,-117,26,10149*a233ceb5
%RAWIMUSA,2283,43396.320;2283,43396.319998397,00000077,-499,185,64164,-33,27,12060*11a394de
%RAWIMUSA,2283,43396.330;2283,43396.329998397,00000077,-491,113,64178,-135,18,12124*417d6ea1
%RAWIMUSA,2283,43396.340;2283,43396.339998397,00000077,-477,169,64161,-107,17,10689*a939b03c
%RAWIMUSA,2283,43396.350;2283,43396.349998397,00000077,-492,125,64171,-52,35,10405*e9581f83
%RAWIMUSA,2283,43396.360;2283,43396.359998397,00000077,-504,146,64176,-107,36,11475*8cad945e
%RAWIMUSA,2283,43396.370;2283,43396.369998397,00000077,-494,162,64169,-61,18,12444*1ab4e105
%RAWIMUSA,2283,43396.380;2283,43396.379998397,00000077,-479,119,64180,-153,18,11996*f66213bd
%RAWIMUSA,2283,43396.390;2283,43396.389998397,00000077,-485,171,64162,-61,26,10680*cd97e08a
%RAWIMUSA,2283,43396.400;2283,43396.399998397,00000077,-503,114,64179,-89,35,10835*9b54eb9b
%RAWIMUSA,2283,43396.410;2283,43396.409998397,00000077,-504,176,64168,-98,28,12774*52ea0960
%RAWIMUSA,2283,43396.420;2283,43396.419998397,00000077,-485,139,64168,-70,19,12801*0c02d2b1
