%RAWIMUSA,2283,41646.200;2283,41646.199999314,00000077,10,-64237,113,18,-10,-1024*198d2806
%RAWIMUSA,2283,41646.210;2283,41646.209999314,00000077,-8,-64229,101,18,0,-484*3da6a477
%RAWIMUSA,2283,41646.220;2283,41646.219999314,00000077,109,-64252,96,-18,0,887*63cbdc81
%RAWIMUSA,2283,41646.230;2283,41646.229999314,00000077,-43,-64226,104,-18,0,987*269cae56
%RAWIMUSA,2283,41646.240;2283,41646.239999314,00000077,69,-64245,115,9,-19,-795*1fe6d384
%RAWIMUSA,2283,41646.250;2283,41646.249999314,00000077,35,-64240,101,18,0,-1042*481a42be
%RAWIMUSA,2283,41646.260;2283,41646.259999314,00000077,-20,-64229,90,-8,0,466*9346c4e2
%RAWIMUSA,2283,41646.270;2283,41646.269999314,00000077,106,-64253,106,-8,0,896*a0a38b9a
%RAWIMUSA,2283,41646.280;2283,41646.279999314,00000077,-40,-64227,113,-9,-9,155*63efa56e
%RAWIMUSA,2283,41646.290;2283,41646.289999314,00000077,60,-64241,105,9,-9,-905*6b8d440d
%RAWIMUSA,2283,41646.300;2283,41646.299999314,00000077,53,-64244,93,18,0,-722*1da1fb1c
%RAWIMUSA,2283,41646.310;2283,41646.309999314,00000077,-32,-64227,104,-18,9,1060*0d8ac26c
%RAWIMUSA,2283,41646.320;2283,41646.319999314,00000077,100,-64250,119,-18,-8,923*6c4bad28
%RAWIMUSA,2283,41646.330;2283,41646.329999314,00000077,-24,-64229,102,9,-9,-795*8f2e659d
%RAWIMUSA,2283,41646.340;2283,41646.339999314,00000077,44,-64238,93,18,-9,-877*3c7a2cfd
%RAWIMUSA,2283,41646.350;2283,41646.349999314,00000077,74,-64246,103,0,0,201*5aa91d22
%RAWIMUSA,2283,41646.360;2283,41646.359999314,00000077,-44,-64225,110,-18,9,1033*c31fe6e9
%RAWIMUSA,2283,41646.370;2283,41646.369999314,00000077,97,-64249,109,-9,-18,182*e4e2601e
%RAWIMUSA,2283,41646.380;2283,41646.379999314,00000077,-6,-64233,96,18,-10,-996*4d62cd22
%RAWIMUSA,2283,41646.390;2283,41646.389999314,00000077,28,-64234,100,18,8,-594*55f548cb
%RAWIMUSA,2283,41646.400;2283,41646.399999314,00000077,94,-64248,109,-18,0,859*ce69252c
%RAWIMUSA,2283,41646.410;2283,41646.409999314,00000077,-54,-64227,103,-18,0,1024*73a6eda4
%RAWIMUSA,2283,41646.420;2283,41646.419999314,00000077,97,-64248,105,9,-19,-722*5ecacb10
%RAWIMUSA,2283,41646.430;2283,41646.429999314,00000077,11,-64236,103,18,0,-1005*fb3e187b
%RAWIMUSA,2283,41646.440;2283,41646.439999314,00000077,-5,-64231,100,0,0,338*e0405a01
%RAWIMUSA,2283,41646.450;2283,41646.449999314,00000077,100,-64250,110,-18,0,868*2f2adad5
%RAWIMUSA,2283,41646.460;2283,41646.459999314,00000077,-46,-64225,104,0,-9,292*ff6fdb05
%RAWIMUSA,2283,41646.470;2283,41646.469999314,00000077,85,-64245,105,18,-9,-914*d683482a
%RAWIMUSA,2283,41646.480;2283,41646.479999314,00000077,26,-64237,102,9,8,-822*6bf7c5fa
%RAWIMUSA,2283,41646.490;2283,41646.489999314,00000077,-22,-64227,100,-18,0,1069*ac9008a0
%RAWIMUSA,2283,41646.500;2283,41646.499999314,00000077,109,-64252,106,-18,0,887*25faa2f2
%RAWIMUSA,2283,41646.510;2283,41646.509999314,00000077,-42,-64226,100,18,-18,-658*c00bda62
%RAWIMUSA,2283,41646.520;2283,41646.519999314,00000077,72,-64245,106,18,0,-905*9a03a8d6
%RAWIMUSA,2283,41646.530;2283,41646.529999314,00000077,42,-64242,109,-9,0,100*5087f1ac
%RAWIMUSA,2283,41646.540;2283,41646.539999314,00000077,-32,-64225,102,-18,0,1060*61afb49f
%RAWIMUSA,2283,41646.550;2283,41646.549999314,00000077,111,-64251,104,-8,-9,246*aea991dd
%RAWIMUSA,2283,41646.560;2283,41646.559999314,00000077,-34,-64227,101,18,-10,-950*4a9fed42
%RAWIMUSA,2283,41646.570;2283,41646.569999314,00000077,52,-64239,105,9,0,-731*2d2d82d3
%RAWIMUSA,2283,41646.580;2283,41646.579999314,00000077,68,-64246,104,-18,9,868*9eb9b0c1
%RAWIMUSA,2283,41646.590;2283,41646.589999314,00000077,-39,-64226,98,-8,-8,1060*816776c2
%RAWIMUSA,2283,41646.600;2283,41646.599999314,00000077,103,-64250,108,18,-18,-658*3e3416b7
%RAWIMUSA,2283,41646.610;2283,41646.609999314,00000077,-21,-64227,103,9,0,-978*23648856
%RAWIMUSA,2283,41646.620;2283,41646.619999314,00000077,42,-64240,105,-9,9,210*70d1b8a5
%RAWIMUSA,2283,41646.630;2283,41646.629999314,00000077,72,-64246,103,-18,-8,859*749e4e18
%RAWIMUSA,2283,41646.640;2283,41646.639999314,00000077,-38,-64224,96,0,-8,439*c8286a0a
%RAWIMUSA,2283,41646.650;2283,41646.649999314,00000077,101,-64252,103,18,-10,-987*369a250a
%RAWIMUSA,2283,41646.660;2283,41646.659999314,00000077,-14,-64232,108,9,8,-868*084d90d8
%RAWIMUSA,2283,41646.670;2283,41646.669999314,00000077,30,-64237,103,-18,0,1033*c5ed0efa
%RAWIMUSA,2283,41646.680;2283,41646.679999314,00000077,79,-64245,99,-18,-8,859*423a85ec
%RAWIMUSA,2283,41646.690;2283,41646.689999314,00000077,-47,-64224,101,18,-9,-502*8613745e
%RAWIMUSA,2283,41646.700;2283,41646.699999314,00000077,103,-64250,115,18,8,-960*4165b9bf
%RAWIMUSA,2283,41646.710;2283,41646.709999314,00000077,-3,-64236,100,-9,0,27*f51383be
%RAWIMUSA,2283,41646.720;2283,41646.719999314,00000077,2,-64233,93,-27,0,1060*332e07f8
%RAWIMUSA,2283,41646.730;2283,41646.729999314,00000077,97,-64248,110,9,-9,320*ca5f02f5
%RAWIMUSA,2283,41646.740;2283,41646.739999314,00000077,-48,-64226,109,9,-9,-895*26cdff71
%RAWIMUSA,2283,41646.750;2283,41646.749999314,00000077,92,-64248,110,9,0,-886*6e21822c
%RAWIMUSA,2283,41646.760;2283,41646.759999314,00000077,10,-64238,92,-18,0,896*e437c5c9
%RAWIMUSA,2283,41646.770;2283,41646.769999314,00000077,-16,-64229,98,-8,-8,1069*69d268ab
%RAWIMUSA,2283,41646.780;2283,41646.779999314,00000077,112,-64252,112,18,-9,-594*c9b1735e
%RAWIMUSA,2283,41646.790;2283,41646.789999314,00000077,-41,-64225,107,18,0,-923*8c5e9aa2
%RAWIMUSA,2283,41646.800;2283,41646.799999314,00000077,74,-64244,97,-9,9,73*5bde0b57
%RAWIMUSA,2283,41646.810;2283,41646.809999314,00000077,33,-64240,99,-18,-8,868*51543ec3
%RAWIMUSA,2283,41646.820;2283,41646.819999314,00000077,-21,-64226,111,0,-8,567*579917d1
%RAWIMUSA,2283,41646.830;2283,41646.829999314,00000077,108,-64251,110,18,-10,-1024*61cbb837
%RAWIMUSA,2283,41646.840;2283,41646.839999314,00000077,-39,-64229,89,0,8,-941*7c2ffe95
%RAWIMUSA,2283,41646.850;2283,41646.849999314,00000077,59,-64242,102,-18,0,1024*4201cbed
%RAWIMUSA,2283,41646.860;2283,41646.859999314,00000077,59,-64243,113,-8,-8,868*50872307
%RAWIMUSA,2283,41646.870;2283,41646.869999314,00000077,-33,-64224,103,18,-9,-365*f31983f2
%RAWIMUSA,2283,41646.880;2283,41646.879999314,00000077,107,-64252,102,18,0,-1005*b96132dd
%RAWIMUSA,2283,41646.890;2283,41646.889999314,00000077,-30,-64228,101,-18,9,-27*083d9b8a
%RAWIMUSA,2283,41646.900;2283,41646.899999314,00000077,50,-64239,108,-18,0,1033*bfdb442f
%RAWIMUSA,2283,41646.910;2283,41646.909999314,00000077,69,-64244,105,9,-18,420*61b331ae
%RAWIMUSA,2283,41646.920;2283,41646.919999314,00000077,-46,-64224,94,18,0,-859*69ca9dac
%RAWIMUSA,2283,41646.930;2283,41646.929999314,00000077,105,-64250,103,0,8,-978*75291706
%RAWIMUSA,2283,41646.940;2283,41646.939999314,00000077,-13,-64231,109,-18,-8,887*271ee108
%RAWIMUSA,2283,41646.950;2283,41646.949999314,00000077,21,-64237,103,-8,-8,1051*9e47c9fd
%RAWIMUSA,2283,41646.960;2283,41646.959999314,00000077,80,-64247,99,18,-9,-502*56d93db3
%RAWIMUSA,2283,41646.970;2283,41646.969999314,00000077,-41,-64226,100,9,8,-877*5cc8763c
%RAWIMUSA,2283,41646.980;2283,41646.979999314,00000077,102,-64250,113,-9,0,-91*423f6e86
%RAWIMUSA,2283,41646.990;2283,41646.989999314,00000077,-7,-64231,104,-18,-8,914*02131d76
%RAWIMUSA,2283,41647.000;2283,41646.999999314,00000077,3,-64234,98,0,-8,667*f38eb5ee
%RAWIMUSA,2283,41647.010;2283,41647.009999314,00000077,101,-64247,107,27,0,-1051*74b3eaf3
%RAWIMUSA,2283,41647.020;2283,41647.019999314,00000077,-51,-64225,104,0,0,-886*95e74be3
%RAWIMUSA,2283,41647.030;2283,41647.029999314,00000077,84,-64248,107,-18,0,877*23984bdc
%RAWIMUSA,2283,41647.040;2283,41647.039999314,00000077,22,-64238,102,-18,-17,896*228e4507
%RAWIMUSA,2283,41647.050;2283,41647.049999314,00000077,-9,-64229,98,18,0,-255*2262b811
%RAWIMUSA,2283,41647.060;2283,41647.059999314,00000077,101,-64251,109,18,0,-1051*d232ec76
%RAWIMUSA,2283,41647.070;2283,41647.069999314,00000077,-48,-64226,105,-18,0,-82*f55e010d
%RAWIMUSA,2283,41647.080;2283,41647.079999314,00000077,80,-64247,105,-18,-8,996*e7da5349
%RAWIMUSA,2283,41647.090;2283,41647.089999314,00000077,43,-64238,98,9,-8,521*dbdb3191
%RAWIMUSA,2283,41647.100;2283,41647.099999314,00000077,-31,-64227,99,18,0,-850*931f5084
%RAWIMUSA,2283,41647.110;2283,41647.109999314,00000077,108,-64250,110,0,0,-1005*db508f7c
%RAWIMUSA,2283,41647.120;2283,41647.119999314,00000077,-32,-64228,104,-18,0,804*a5c50fa4
%RAWIMUSA,2283,41647.130;2283,41647.129999314,00000077,51,-64242,103,-8,-8,1033*69ab0f40
%RAWIMUSA,2283,41647.140;2283,41647.139999314,00000077,71,-64247,100,18,-9,-411*600a86ed
%RAWIMUSA,2283,41647.150;2283,41647.149999314,00000077,-40,-64224,103,18,8,-859*d2fd8744
%RAWIMUSA,2283,41647.160;2283,41647.159999314,00000077,98,-64249,109,-18,0,-210*fecbc151
%RAWIMUSA,2283,41647.170;2283,41647.169999314,00000077,-14,-64229,102,-18,-8,932*6d0ec5c3
%RAWIMUSA,2283,41647.180;2283,41647.179999314,00000077,28,-64236,101,9,-17,768*f2a144ea
%RAWIMUSA,2283,41647.190;2283,41647.189999314,00000077,86,-64251,104,18,0,-1042*3daa99d0
%RAWIMUSA,2283,41647.200;2283,41647.199999314,00000077,-55,-64224,98,0,8,-886*6beb8103
%RAWIMUSA,2283,41647.210;2283,41647.209999314,00000077,104,-64249,107,-18,-8,749*6746ad5e
%RAWIMUSA,2283,41647.220;2283,41647.219999314,00000077,5,-64237,101,-8,-8,905*e8eb9c3f
%RAWIMUSA,2283,41647.230;2283,41647.229999314,00000077,0,-64233,99,18,-9,-155*2f17e760
%RAWIMUSA,2283,41647.240;2283,41647.239999314,00000077,92,-64248,102,18,8,-1042*a256cfd6
%RAWIMUSA,2283,41647.250;2283,41647.249999314,00000077,-45,-64226,104,-18,0,-173*2e604198
%RAWIMUSA,2283,41647.260;2283,41647.259999314,00000077,97,-64246,113,-18,-8,987*f69ac1d6
%RAWIMUSA,2283,41647.270;2283,41647.269999314,00000077,14,-64236,100,9,-8,658*23162239
%RAWIMUSA,2283,41647.280;2283,41647.279999314,00000077,-16,-64231,95,18,0,-850*f3440f45
%RAWIMUSA,2283,41647.290;2283,41647.289999314,00000077,106,-64249,105,0,0,-1033*3af4cff6
%RAWIMUSA,2283,41647.300;2283,41647.299999314,00000077,-46,-64223,111,-18,0,740*b7f290ad
%RAWIMUSA,2283,41647.310;2283,41647.309999314,00000077,73,-64246,105,-8,-8,1005*17ba56b2
%RAWIMUSA,2283,41647.320;2283,41647.319999314,00000077,36,-64241,99,18,-9,-292*e315541d
%RAWIMUSA,2283,41647.330;2283,41647.329999314,00000077,-23,-64227,100,9,8,-850*bcb60b9d
%RAWIMUSA,2283,41647.340;2283,41647.339999314,00000077,111,-64251,113,-9,0,-329*34158782
%RAWIMUSA,2283,41647.350;2283,41647.349999314,00000077,-38,-64226,104,-27,-8,969*426ea3f1
%RAWIMUSA,2283,41647.360;2283,41647.359999314,00000077,55,-64242,99,18,-17,832*f295cec3
%RAWIMUSA,2283,41647.370;2283,41647.369999314,00000077,64,-64241,101,18,8,-1051*ea1918e1
%RAWIMUSA,2283,41647.380;2283,41647.379999314,00000077,-37,-64224,108,-9,8,-859*f8276662
%RAWIMUSA,2283,41647.390;2283,41647.389999314,00000077,101,-64248,113,-8,-8,621*afa5519d
%RAWIMUSA,2283,41647.400;2283,41647.399999314,00000077,-24,-64227,96,-8,-8,941*6f68cac7
%RAWIMUSA,2283,41647.410;2283,41647.409999314,00000077,37,-64241,94,18,-9,-82*237235d7
%RAWIMUSA,2283,41647.420;2283,41647.419999314,00000077,81,-64250,115,9,0,-1051*7503d3a4
%RAWIMUSA,2283,41647.430;2283,41647.429999314,00000077,-51,-64226,106,-9,8,-237*a4524d59
%RAWIMUSA,2283,41647.440;2283,41647.439999314,00000077,101,-64251,96,-18,-17,951*207e6064
%RAWIMUSA,2283,41647.450;2283,41647.449999313,00000077,-2,-64231,97,9,-8,777*bd514fa4
%RAWIMUSA,2283,41647.460;2283,41647.459999313,00000077,14,-64232,115,18,8,-859*9d47d0d8
%RAWIMUSA,2283,41647.470;2283,41647.469999313,00000077,87,-64250,113,0,0,-1051*225fe791
%RAWIMUSA,2283,41647.480;2283,41647.479999313,00000077,-48,-64225,92,-27,-8,658*ebe06843
%RAWIMUSA,2283,41647.490;2283,41647.489999313,00000077,100,-64250,99,0,-8,978*a1e7e7fa
%RAWIMUSA,2283,41647.500;2283,41647.499999313,00000077,18,-64237,112,18,-9,-173*65664e05
%RAWIMUSA,2283,41647.510;2283,41647.509999313,00000077,-15,-64229,108,9,8,-850*47cdfafe
%RAWIMUSA,2283,41647.520;2283,41647.519999313,00000077,103,-64253,98,-18,0,-466*ae5b406d
%RAWIMUSA,2283,41647.530;2283,41647.529999313,00000077,-37,-64225,96,-8,-8,987*d83a6ea7
%RAWIMUSA,2283,41647.540;2283,41647.539999313,00000077,70,-64245,112,18,-8,914*996cddee
%RAWIMUSA,2283,41647.550;2283,41647.549999313,00000077,46,-64242,116,18,0,-1042*6a6b7cfd
%RAWIMUSA,2283,41647.560;2283,41647.559999313,00000077,-32,-64224,98,-9,8,-859*e5ed7a31
%RAWIMUSA,2283,41647.570;2283,41647.569999313,00000077,111,-64251,96,-18,-8,512*2afa77c1
%RAWIMUSA,2283,41647.580;2283,41647.579999313,00000077,-25,-64227,108,0,-8,951*a6abf270
%RAWIMUSA,2283,41647.590;2283,41647.589999313,00000077,37,-64240,115,18,0,18*47175c51
%RAWIMUSA,2283,41647.600;2283,41647.599999313,00000077,70,-64246,97,0,0,-1042*453fc692
%RAWIMUSA,2283,41647.610;2283,41647.609999313,00000077,-34,-64225,90,-9,0,-356*fb215784
%RAWIMUSA,2283,41647.620;2283,41647.619999313,00000077,103,-64250,108,-18,-17,932*4256255f
%RAWIMUSA,2283,41647.630;2283,41647.629999313,00000077,-21,-64231,112,18,-8,896*acf8c2c4
%RAWIMUSA,2283,41647.640;2283,41647.639999313,00000077,23,-64236,100,9,8,-868*d50945cc
%RAWIMUSA,2283,41647.650;2283,41647.649999313,00000077,94,-64247,97,-9,0,-1042*665d6e68
%RAWIMUSA,2283,41647.660;2283,41647.659999313,00000077,-45,-64226,106,-18,-8,567*5bbbf0cb
%RAWIMUSA,2283,41647.670;2283,41647.669999313,00000077,90,-64247,117,0,-8,951*200a3d66
%RAWIMUSA,2283,41647.680;2283,41647.679999313,00000077,-5,-64232,100,18,9,-36*94bba8e5
%RAWIMUSA,2283,41647.690;2283,41647.689999313,00000077,15,-64235,96,9,8,-859*9d5eeae0
%RAWIMUSA,2283,41647.700;2283,41647.699999313,00000077,94,-64249,107,-18,-9,-575*f2ec2928
%RAWIMUSA,2283,41647.710;2283,41647.709999313,00000077,-53,-64228,108,-8,-8,1033*f876a1ff
%RAWIMUSA,2283,41647.720;2283,41647.719999313,00000077,93,-64248,104,18,-8,960*642203a8
%RAWIMUSA,2283,41647.730;2283,41647.729999313,00000077,20,-64235,93,18,8,-987*5a1d64bc
%RAWIMUSA,2283,41647.740;2283,41647.739999313,00000077,-1,-64229,103,-18,0,-850*39055e9f
%RAWIMUSA,2283,41647.750;2283,41647.749999313,00000077,91,-64249,114,-18,-8,365*2d30775c
%RAWIMUSA,2283,41647.760;2283,41647.759999313,00000077,-42,-64228,101,0,-8,987*492e10f0
%RAWIMUSA,2283,41647.770;2283,41647.769999313,00000077,91,-64248,99,18,0,73*716d29c3
%RAWIMUSA,2283,41647.780;2283,41647.779999313,00000077,25,-64239,100,9,8,-1024*2373f8ac
%RAWIMUSA,2283,41647.790;2283,41647.789999313,00000077,-18,-64227,110,-18,-9,-438*9b48cbd6
%RAWIMUSA,2283,41647.800;2283,41647.799999313,00000077,105,-64251,107,-18,-8,887*e02ba0a8
%RAWIMUSA,2283,41647.810;2283,41647.809999313,00000077,-37,-64226,94,18,0,978*f34efe91
%RAWIMUSA,2283,41647.820;2283,41647.819999313,00000077,64,-64245,104,18,0,-822*c41617b2
%RAWIMUSA,2283,41647.830;2283,41647.829999313,00000077,42,-64243,110,-9,0,-1051*f630d0f7
%RAWIMUSA,2283,41647.840;2283,41647.839999313,00000077,-28,-64230,105,-18,-8,484*2ffd8ea3
%RAWIMUSA,2283,41647.850;2283,41647.849999313,00000077,107,-64251,103,0,-8,896*5f3885d0
%RAWIMUSA,2283,41647.860;2283,41647.859999313,00000077,-29,-64227,100,18,9,100*7b1b18cb
%RAWIMUSA,2283,41647.870;2283,41647.869999313,00000077,44,-64239,107,9,0,-886*67b2b394
%RAWIMUSA,2283,41647.880;2283,41647.879999313,00000077,65,-64245,107,-18,-9,-685*e93d7a4d
%RAWIMUSA,2283,41647.890;2283,41647.889999313,00000077,-36,-64227,95,-18,-8,1060*6fdc248e
%RAWIMUSA,2283,41647.900;2283,41647.899999313,00000077,105,-64251,105,18,0,923*20115ffa
%RAWIMUSA,2283,41647.910;2283,41647.909999313,00000077,-28,-64227,107,18,0,-841*3a7307cb
%RAWIMUSA,2283,41647.920;2283,41647.919999313,00000077,32,-64239,108,-9,0,-877*ad0e2298
%RAWIMUSA,2283,41647.930;2283,41647.929999313,00000077,74,-64246,103,-18,-9,246*058252f4
%RAWIMUSA,2283,41647.940;2283,41647.939999313,00000077,-40,-64224,97,0,-8,1033*fb236ec7
%RAWIMUSA,2283,41647.950;2283,41647.949999313,00000077,102,-64246,107,18,0,137*987b4699
%RAWIMUSA,2283,41647.960;2283,41647.959999313,00000077,-7,-64233,108,9,8,-987*5fa7e0c2
%RAWIMUSA,2283,41647.970;2283,41647.969999313,00000077,13,-64237,100,-18,-9,-557*962f7cfd
%RAWIMUSA,2283,41647.980;2283,41647.979999313,00000077,93,-64250,102,-8,-17,868*1b640689
%RAWIMUSA,2283,41647.990;2283,41647.989999313,00000077,-54,-64225,98,18,0,1015*c7a6976d
%RAWIMUSA,2283,41648.000;2283,41647.999999313,00000077,100,-64251,108,18,8,-767*e28326fe
%RAWIMUSA,2283,41648.010;2283,41648.009999313,00000077,17,-64235,106,-18,0,-1024*2eda5f03
%RAWIMUSA,2283,41648.020;2283,41648.019999313,00000077,-16,-64232,96,-18,-8,393*da52084a
%RAWIMUSA,2283,41648.030;2283,41648.029999313,00000077,107,-64252,103,9,-8,877*2c3c50bb
%RAWIMUSA,2283,41648.040;2283,41648.039999313,00000077,-45,-64225,108,18,0,246*c1fbce19
%RAWIMUSA,2283,41648.050;2283,41648.049999313,00000077,68,-64247,107,0,8,-914*acc76754
%RAWIMUSA,2283,41648.060;2283,41648.059999313,00000077,43,-64241,101,-18,-19,-786*ea629cd0
%RAWIMUSA,2283,41648.070;2283,41648.069999313,00000077,-21,-64224,99,-8,-8,1060*16dd80e3
%RAWIMUSA,2283,41648.080;2283,41648.079999313,00000077,104,-64253,110,9,0,905*e8227010
%RAWIMUSA,2283,41648.090;2283,41648.089999313,00000077,-37,-64227,104,18,0,-731*36bd9b89
%RAWIMUSA,2283,41648.100;2283,41648.099999313,00000077,47,-64243,97,-18,0,-886*bd267b9a
%RAWIMUSA,2283,41648.110;2283,41648.109999313,00000077,73,-64242,103,-9,-18,146*f6f0692e
%RAWIMUSA,2283,41648.120;2283,41648.119999313,00000077,-45,-64227,104,9,0,1042*f2f0777f
%RAWIMUSA,2283,41648.130;2283,41648.129999313,00000077,103,-64247,110,9,0,228*332db5a2
%RAWIMUSA,2283,41648.140;2283,41648.139999313,00000077,-19,-64231,99,0,8,-987*2d6d5721
%RAWIMUSA,2283,41648.150;2283,41648.149999313,00000077,30,-64238,100,-18,-18,-658*484f591f
%RAWIMUSA,2283,41648.160;2283,41648.159999313,00000077,83,-64249,107,0,-8,859*ab181741
%RAWIMUSA,2283,41648.170;2283,41648.169999313,00000077,-55,-64224,105,9,9,1033*f7060fec
%RAWIMUSA,2283,41648.180;2283,41648.179999313,00000077,100,-64250,106,18,0,-676*e914b8a5
%RAWIMUSA,2283,41648.190;2283,41648.189999313,00000077,11,-64234,97,-18,-10,-1014*2d5af9cd
%RAWIMUSA,2283,41648.200;2283,41648.199999313,00000077,-2,-64232,103,-18,-9,283*24be7a42
%RAWIMUSA,2283,41648.210;2283,41648.209999313,00000077,100,-64253,113,9,-8,877*817943ad
%RAWIMUSA,2283,41648.220;2283,41648.219999313,00000077,-53,-64225,100,18,9,356*c8873248
%RAWIMUSA,2283,41648.230;2283,41648.229999313,00000077,93,-64247,102,0,8,-923*d4d53278
%RAWIMUSA,2283,41648.240;2283,41648.239999313,00000077,30,-64238,102,-18,-19,-877*ce305b94
%RAWIMUSA,2283,41648.250;2283,41648.249999313,00000077,-21,-64229,107,-8,-8,1060*a0945264
%RAWIMUSA,2283,41648.260;2283,41648.259999313,00000077,107,-64252,104,18,0,896*aa5f63ac
%RAWIMUSA,2283,41648.270;2283,41648.269999313,00000077,-39,-64224,96,18,8,-594*b4cc9219
%RAWIMUSA,2283,41648.280;2283,41648.279999313,00000077,59,-64244,107,-18,-9,-896*84b3e114
%RAWIMUSA,2283,41648.290;2283,41648.289999313,00000077,53,-64244,110,-18,-9,36*1eccc978
%RAWIMUSA,2283,41648.300;2283,41648.299999313,00000077,-36,-64224,103,9,0,1060*b18e62c9
%RAWIMUSA,2283,41648.310;2283,41648.309999313,00000077,113,-64250,103,27,0,320*c5eacb1e
%RAWIMUSA,2283,41648.320;2283,41648.319999313,00000077,-28,-64225,100,-9,0,-969*c41115e5
%RAWIMUSA,2283,41648.330;2283,41648.329999313,00000077,31,-64241,112,-18,-9,-767*958314aa
%RAWIMUSA,2283,41648.340;2283,41648.339999313,00000077,78,-64249,108,0,-8,868*a545bbd1
%RAWIMUSA,2283,41648.350;2283,41648.349999313,00000077,-43,-64225,93,9,9,1042*48578b5c
%RAWIMUSA,2283,41648.360;2283,41648.359999313,00000077,101,-64249,103,18,0,-585*5fa586c0
%RAWIMUSA,2283,41648.370;2283,41648.369999313,00000077,-13,-64233,112,-18,-10,-996*99ef0d33
%RAWIMUSA,2283,41648.380;2283,41648.379999313,00000077,12,-64237,110,-18,-9,164*4a74249d
%RAWIMUSA,2283,41648.390;2283,41648.389999313,00000077,93,-64250,97,18,-8,868*990044f6
%RAWIMUSA,2283,41648.400;2283,41648.399999313,00000077,-47,-64226,95,9,9,484*997d9b37
%RAWIMUSA,2283,41648.410;2283,41648.409999313,00000077,90,-64249,115,0,-9,-950*d3528a04
%RAWIMUSA,2283,41648.420;2283,41648.419999313,00000077,14,-64235,111,-18,-9,-969*bfb22ac1
%RAWIMUSA,2283,41648.430;2283,41648.429999313,00000077,0,-64231,98,-8,-8,1069*4ca4e3d3
%RAWIMUSA,2283,41648.440;2283,41648.439999313,00000077,100,-64252,99,18,9,877*87e692ff
%RAWIMUSA,2283,41648.450;2283,41648.449999313,00000077,-51,-64227,104,18,0,-466*38937e10
%RAWIMUSA,2283,41648.460;2283,41648.459999313,00000077,83,-64247,114,-18,-9,-932*f2e1ffd2
%RAWIMUSA,2283,41648.470;2283,41648.469999313,00000077,36,-64236,99,-18,-9,-54*0e539e3e
%RAWIMUSA,2283,41648.480;2283,41648.479999313,00000077,-18,-64229,90,9,0,1069*eaa3aca3
%RAWIMUSA,2283,41648.490;2283,41648.489999313,00000077,106,-64250,110,18,0,393*2ca81cc3
%RAWIMUSA,2283,41648.500;2283,41648.499999313,00000077,-50,-64227,108,-9,-9,-941*820f8f4e
%RAWIMUSA,2283,41648.510;2283,41648.509999313,00000077,67,-64244,104,-18,-9,-905*4b86dc73
%RAWIMUSA,2283,41648.520;2283,41648.519999313,00000077,55,-64242,97,0,-8,868*078710df
%RAWIMUSA,2283,41648.530;2283,41648.529999313,00000077,-32,-64224,105,18,9,1060*c125a243
%RAWIMUSA,2283,41648.540;2283,41648.539999313,00000077,97,-64250,112,9,0,-511*00e1c350
%RAWIMUSA,2283,41648.550;2283,41648.549999313,00000077,-29,-64228,101,-18,-19,-950*843259bb
%RAWIMUSA,2283,41648.560;2283,41648.559999313,00000077,47,-64240,94,-18,-9,36*6a3756c2
%RAWIMUSA,2283,41648.570;2283,41648.569999313,00000077,66,-64247,108,18,0,877*ced78f89
%RAWIMUSA,2283,41648.580;2283,41648.579999313,00000077,-43,-64226,110,18,9,603*39ec1395
%RAWIMUSA,2283,41648.590;2283,41648.589999313,00000077,105,-64252,104,-9,-10,-987*a51123a3
%RAWIMUSA,2283,41648.600;2283,41648.599999313,00000077,-15,-64229,95,-18,-10,-987*cf976080
%RAWIMUSA,2283,41648.610;2283,41648.609999313,00000077,25,-64238,104,0,0,996*6f8ec5ba
%RAWIMUSA,2283,41648.620;2283,41648.619999313,00000077,77,-64248,112,18,0,859*8655d371
%RAWIMUSA,2283,41648.630;2283,41648.629999313,00000077,-43,-64225,101,9,0,-338*d0515db6
%RAWIMUSA,2283,41648.640;2283,41648.639999313,00000077,101,-64248,102,-18,-9,-960*bc42161d
%RAWIMUSA,2283,41648.650;2283,41648.649999313,00000077,4,-64234,99,-18,-9,-127*83a58677
%RAWIMUSA,2283,41648.660;2283,41648.659999313,00000077,0,-64232,107,18,0,1060*642d30d5
%RAWIMUSA,2283,41648.670;2283,41648.669999313,00000077,101,-64252,109,18,9,475*df1efe65
%RAWIMUSA,2283,41648.680;2283,41648.679999313,00000077,-46,-64228,95,-9,-9,-896*7bf0d0bd
%RAWIMUSA,2283,41648.690;2283,41648.689999313,00000077,90,-64246,105,-18,-9,-941*596541b1
%RAWIMUSA,2283,41648.700;2283,41648.699999313,00000077,17,-64237,107,0,-8,786*b72dd657
%RAWIMUSA,2283,41648.710;2283,41648.709999313,00000077,-13,-64225,107,18,9,1060*69f22ec6
%RAWIMUSA,2283,41648.720;2283,41648.719999313,00000077,106,-64252,100,0,0,-438*4c051cdf
%RAWIMUSA,2283,41648.730;2283,41648.729999313,00000077,-41,-64226,100,-18,-9,-923*c689582d
%RAWIMUSA,2283,41648.740;2283,41648.739999313,00000077,60,-64242,108,-18,-18,-73*cec45e56
%RAWIMUSA,2283,41648.750;2283,41648.749999313,00000077,51,-64243,108,18,0,859*a3e1204d
%RAWIMUSA,2283,41648.760;2283,41648.759999313,00000077,-33,-64226,104,18,9,731*526e70ab
%RAWIMUSA,2283,41648.770;2283,41648.769999313,00000077,108,-64250,102,-9,-10,-1005*462ee6bc
%RAWIMUSA,2283,41648.780;2283,41648.779999313,00000077,-26,-64234,99,-18,-9,-969*17b58fa5
%RAWIMUSA,2283,41648.790;2283,41648.789999313,00000077,38,-64238,109,9,0,887*d4bdb281
%RAWIMUSA,2283,41648.800;2283,41648.799999313,00000077,70,-64246,104,9,0,859*008a1afb
%RAWIMUSA,2283,41648.810;2283,41648.809999313,00000077,-42,-64225,96,9,0,-210*3a8d8d46
%RAWIMUSA,2283,41648.820;2283,41648.819999313,00000077,107,-64251,102,-18,-19,-987*8d4cbf61
%RAWIMUSA,2283,41648.830;2283,41648.829999313,00000077,-12,-64232,105,-9,-9,-201*87985aa2
%RAWIMUSA,2283,41648.840;2283,41648.839999313,00000077,19,-64237,108,9,9,1042*703986b8
%RAWIMUSA,2283,41648.850;2283,41648.849999313,00000077,81,-64246,106,27,0,576*7d19b42c
%RAWIMUSA,2283,41648.860;2283,41648.859999313,00000077,-46,-64225,97,-18,0,-877*0de74b56
%RAWIMUSA,2283,41648.870;2283,41648.869999313,00000077,101,-64248,102,-18,-19,-969*3b3226ac
%RAWIMUSA,2283,41648.880;2283,41648.879999313,00000077,1,-64234,106,9,0,695*aeae60de
%RAWIMUSA,2283,41648.890;2283,41648.889999313,00000077,6,-64232,107,18,0,1060*a740bec0
%RAWIMUSA,2283,41648.900;2283,41648.899999313,00000077,96,-64249,102,0,0,-347*f8647170
%RAWIMUSA,2283,41648.910;2283,41648.909999313,00000077,-40,-64225,102,-18,-9,-905*79d48505
%RAWIMUSA,2283,41648.920;2283,41648.919999313,00000077,87,-64245,107,-9,-9,-219*2326babb
%RAWIMUSA,2283,41648.930;2283,41648.929999313,00000077,20,-64237,106,18,0,887*9facb658
%RAWIMUSA,2283,41648.940;2283,41648.939999313,00000077,-11,-64228,99,18,0,832*2370cae2
%RAWIMUSA,2283,41648.950;2283,41648.949999313,00000077,105,-64252,107,-18,-10,-1033*14cf0bdd
%RAWIMUSA,2283,41648.960;2283,41648.959999313,00000077,-48,-64225,104,-18,-9,-923*977467ad
%RAWIMUSA,2283,41648.970;2283,41648.969999313,00000077,72,-64246,105,9,0,740*94c0da84
%RAWIMUSA,2283,41648.980;2283,41648.979999313,00000077,40,-64242,103,18,0,877*41e3c04d
%RAWIMUSA,2283,41648.990;2283,41648.989999313,00000077,-26,-64227,99,0,0,-100*53858564
%RAWIMUSA,2283,41649.000;2283,41648.999999313,00000077,105,-64251,104,-18,-10,-1005*afb5905f
%RAWIMUSA,2283,41649.010;2283,41649.009999313,00000077,-37,-64225,102,-9,-9,-274*9b7fa73c
%RAWIMUSA,2283,41649.020;2283,41649.019999313,00000077,49,-64240,103,18,9,1024*f1103916
%RAWIMUSA,2283,41649.030;2283,41649.029999313,00000077,62,-64246,105,18,0,685*17e645c6
%RAWIMUSA,2283,41649.040;2283,41649.039999313,00000077,-36,-64228,106,-18,-9,-868*df0a78eb
%RAWIMUSA,2283,41649.050;2283,41649.049999313,00000077,104,-64251,108,-18,-10,-1005*54efb0f6
%RAWIMUSA,2283,41649.060;2283,41649.059999313,00000077,-17,-64229,97,9,0,640*adab614d
%RAWIMUSA,2283,41649.070;2283,41649.069999313,00000077,32,-64239,99,18,0,1033*c3b35591
%RAWIMUSA,2283,41649.080;2283,41649.079999313,00000077,73,-64247,108,0,0,-246*217e8318
%RAWIMUSA,2283,41649.090;2283,41649.089999313,00000077,-43,-64226,104,-18,-9,-868*c7c6886f
%RAWIMUSA,2283,41649.100;2283,41649.099999313,00000077,101,-64251,104,-9,-9,-356*56fa3f7b
%RAWIMUSA,2283,41649.110;2283,41649.109999313,00000077,-4,-64232,99,28,9,923*0f7db118
%RAWIMUSA,2283,41649.120;2283,41649.119999313,00000077,12,-64235,104,9,0,932*3b21a52a
%RAWIMUSA,2283,41649.130;2283,41649.129999313,00000077,91,-64249,110,-18,-10,-1042*e0764f1b
%RAWIMUSA,2283,41649.140;2283,41649.139999313,00000077,-46,-64227,101,-18,-9,-896*a3ce26c5
%RAWIMUSA,2283,41649.150;2283,41649.149999313,00000077,98,-64248,102,9,0,612*8af3e5a7
%RAWIMUSA,2283,41649.160;2283,41649.159999313,00000077,14,-64235,103,28,0,896*cfcd61a5
%RAWIMUSA,2283,41649.170;2283,41649.169999313,00000077,-2,-64230,105,-9,0,9*883b6c3c
%RAWIMUSA,2283,41649.180;2283,41649.179999313,00000077,98,-64253,109,-18,-10,-1033*8e1db9ff
%RAWIMUSA,2283,41649.190;2283,41649.189999313,00000077,-45,-64225,98,-9,-9,-347*66c19325
%RAWIMUSA,2283,41649.200;2283,41649.199999313,00000077,80,-64250,105,18,9,987*741dbf4d
%RAWIMUSA,2283,41649.210;2283,41649.209999313,00000077,30,-64237,107,18,0,813*79e4fa1e
%RAWIMUSA,2283,41649.220;2283,41649.219999313,00000077,-18,-64226,107,-18,-9,-859*c7c6553b
%RAWIMUSA,2283,41649.230;2283,41649.229999313,00000077,99,-64252,101,-27,-19,-1024*a5969216
%RAWIMUSA,2283,41649.240;2283,41649.239999313,00000077,-40,-64229,101,18,9,557*1748103e
%RAWIMUSA,2283,41649.250;2283,41649.249999313,00000077,65,-64246,106,18,0,1015*d7fb1b05
%RAWIMUSA,2283,41649.260;2283,41649.259999313,00000077,45,-64243,103,-9,-9,-146*50e3f875
%RAWIMUSA,2283,41649.270;2283,41649.269999313,00000077,-31,-64227,97,-18,-9,-859*5a538bf3
%RAWIMUSA,2283,41649.280;2283,41649.279999313,00000077,107,-64253,108,0,0,-484*0c0c40c2
%RAWIMUSA,2283,41649.290;2283,41649.289999313,00000077,-31,-64227,106,18,9,960*31073580
%RAWIMUSA,2283,41649.300;2283,41649.299999313,00000077,46,-64244,102,9,0,1005*cc80c2e7
%RAWIMUSA,2283,41649.310;2283,41649.309999313,00000077,65,-64243,101,-9,-10,-1051*e6394226
%RAWIMUSA,2283,41649.320;2283,41649.319999313,00000077,-41,-64224,102,-18,-9,-868*36a43015
%RAWIMUSA,2283,41649.330;2283,41649.329999313,00000077,103,-64248,109,9,0,466*edc5d086
%RAWIMUSA,2283,41649.340;2283,41649.339999313,00000077,-12,-64229,104,18,9,932*c895d120
%RAWIMUSA,2283,41649.350;2283,41649.349999313,00000077,24,-64238,99,-9,-9,100*3b234d95
%RAWIMUSA,2283,41649.360;2283,41649.359999312,00000077,84,-64250,104,-18,-19,-1051*cb372ebf
%RAWIMUSA,2283,41649.370;2283,41649.369999312,00000077,-46,-64228,103,0,0,-420*d6fea5b6
%RAWIMUSA,2283,41649.380;2283,41649.379999312,00000077,99,-64249,108,18,0,951*aecc9d7d
%RAWIMUSA,2283,41649.390;2283,41649.389999312,00000077,5,-64234,101,9,0,914*d1a73bab
%RAWIMUSA,2283,41649.400;2283,41649.399999312,00000077,5,-64230,103,-18,-19,-831*9985bae2
%RAWIMUSA,2283,41649.410;2283,41649.409999312,00000077,94,-64248,106,-18,0,-1042*57f33c6d
%RAWIMUSA,2283,41649.420;2283,41649.419999312,00000077,-47,-64228,103,18,0,493*0174c107
%RAWIMUSA,2283,41649.430;2283,41649.429999312,00000077,93,-64247,108,18,9,978*95286049
%RAWIMUSA,2283,41649.440;2283,41649.439999312,00000077,14,-64236,100,-9,-18,0*0d445df1
%RAWIMUSA,2283,41649.450;2283,41649.449999312,00000077,-6,-64230,102,-18,-9,-868*73fb22ae
%RAWIMUSA,2283,41649.460;2283,41649.459999312,00000077,100,-64252,108,0,0,-630*b27a9591
%RAWIMUSA,2283,41649.470;2283,41649.469999312,00000077,-44,-64224,104,18,9,1005*0202f42c
%RAWIMUSA,2283,41649.480;2283,41649.479999312,00000077,71,-64248,105,9,-8,996*04eae16f
%RAWIMUSA,2283,41649.490;2283,41649.489999312,00000077,31,-64238,102,-18,-9,-950*c6f41d1e
%RAWIMUSA,2283,41649.500;2283,41649.499999312,00000077,-12,-64229,104,-18,-9,-859*09df7d79
%RAWIMUSA,2283,41649.510;2283,41649.509999312,00000077,108,-64250,109,18,9,320*aab436e2
%RAWIMUSA,2283,41649.520;2283,41649.519999312,00000077,-49,-64226,99,18,0,969*f1e632e5
%RAWIMUSA,2283,41649.530;2283,41649.529999312,00000077,57,-64245,105,-9,-9,155*bf1e8208
%RAWIMUSA,2283,41649.540;2283,41649.539999312,00000077,55,-64243,111,-18,-19,-1042*07f3cd35
%RAWIMUSA,2283,41649.550;2283,41649.549999312,00000077,-29,-64228,103,0,8,-493*6d498117
%RAWIMUSA,2283,41649.560;2283,41649.559999312,00000077,101,-64250,102,18,0,905*04e793d5
%RAWIMUSA,2283,41649.570;2283,41649.569999312,00000077,-32,-64228,99,0,-8,960*dd6e37f1
%RAWIMUSA,2283,41649.580;2283,41649.579999312,00000077,53,-64243,103,-9,-9,-758*273807e9
%RAWIMUSA,2283,41649.590;2283,41649.589999312,00000077,65,-64244,106,-18,-10,-1051*4ac12c20
%RAWIMUSA,2283,41649.600;2283,41649.599999312,00000077,-42,-64229,101,18,9,429*9da2be49
%RAWIMUSA,2283,41649.610;2283,41649.609999312,00000077,105,-64251,107,18,0,932*67f52361
%RAWIMUSA,2283,41649.620;2283,41649.619999312,00000077,-4,-64227,107,-9,-9,128*fa3e3846
%RAWIMUSA,2283,41649.630;2283,41649.629999312,00000077,17,-64235,101,-27,-9,-859*f68d4238
%RAWIMUSA,2283,41649.640;2283,41649.639999312,00000077,86,-64248,105,9,0,-740*d6c7df94
%RAWIMUSA,2283,41649.650;2283,41649.649999312,00000077,-43,-64227,103,18,0,1024*8e5defcf
%RAWIMUSA,2283,41649.660;2283,41649.659999312,00000077,93,-64251,107,0,0,960*7e8d3bf5
%RAWIMUSA,2283,41649.670;2283,41649.669999312,00000077,4,-64234,102,-18,-19,-822*0e89fd6c
%RAWIMUSA,2283,41649.680;2283,41649.679999312,00000077,9,-64233,100,-9,0,-859*234e2088
%RAWIMUSA,2283,41649.690;2283,41649.689999312,00000077,97,-64250,110,9,9,192*260a6152
%RAWIMUSA,2283,41649.700;2283,41649.699999312,00000077,-56,-64224,102,18,0,1015*a36f1972
%RAWIMUSA,2283,41649.710;2283,41649.709999312,00000077,91,-64249,106,-9,-9,228*ba880a03
%RAWIMUSA,2283,41649.720;2283,41649.719999312,00000077,24,-64237,103,-18,-19,-1024*c8ee7286
%RAWIMUSA,2283,41649.730;2283,41649.729999312,00000077,-9,-64230,101,9,8,-603*7d2728c8
%RAWIMUSA,2283,41649.740;2283,41649.739999312,00000077,101,-64250,107,18,0,887*4b443c7c
%RAWIMUSA,2283,41649.750;2283,41649.749999312,00000077,-42,-64227,101,0,-8,996*bd173d4f
%RAWIMUSA,2283,41649.760;2283,41649.759999312,00000077,73,-64244,106,-18,-9,-685*9a67d0ad
%RAWIMUSA,2283,41649.770;2283,41649.769999312,00000077,35,-64246,106,-9,0,-1024*9da2343f
%RAWIMUSA,2283,41649.780;2283,41649.779999312,00000077,-20,-64228,99,18,9,320*f2d0d53c
%RAWIMUSA,2283,41649.790;2283,41649.789999312,00000077,102,-64249,106,18,-8,896*5389629d
%RAWIMUSA,2283,41649.800;2283,41649.799999312,00000077,-31,-64228,101,-18,-9,274*8236f64a
%RAWIMUSA,2283,41649.810;2283,41649.809999312,00000077,57,-64244,105,-18,-9,-905*d7be9a59
%RAWIMUSA,2283,41649.820;2283,41649.819999312,00000077,42,-64241,103,9,0,-841*26721d6f
%RAWIMUSA,2283,41649.830;2283,41649.829999312,00000077,-25,-64226,101,18,9,1060*d52bd247
%RAWIMUSA,2283,41649.840;2283,41649.839999312,00000077,107,-64250,109,0,-8,905*7665a29e
%RAWIMUSA,2283,41649.850;2283,41649.849999312,00000077,-25,-64227,102,-18,-9,-667*7d2ea94f
%RAWIMUSA,2283,41649.860;2283,41649.859999312,00000077,45,-64241,105,-9,0,-896*756c8b0d
%RAWIMUSA,2283,41649.870;2283,41649.869999312,00000077,68,-64245,102,18,0,82*061574ab
%RAWIMUSA,2283,41649.880;2283,41649.879999312,00000077,-41,-64227,100,18,0,1042*43e71d6a
%RAWIMUSA,2283,41649.890;2283,41649.889999312,00000077,106,-64249,109,-18,-9,301*781e82ba
%RAWIMUSA,2283,41649.900;2283,41649.899999312,00000077,-12,-64229,104,-18,-19,-987*a30ac74d
%RAWIMUSA,2283,41649.910;2283,41649.909999312,00000077,21,-64235,101,9,8,-713*e1710108
%RAWIMUSA,2283,41649.920;2283,41649.919999312,00000077,82,-64248,104,18,0,868*18be6968
%RAWIMUSA,2283,41649.930;2283,41649.929999312,00000077,-43,-64224,102,0,0,1024*803351fa
%RAWIMUSA,2283,41649.940;2283,41649.939999312,00000077,89,-64251,105,-18,-9,-612*60961547
%RAWIMUSA,2283,41649.950;2283,41649.949999312,00000077,7,-64232,102,-9,0,-1014*ec39f78e
%RAWIMUSA,2283,41649.960;2283,41649.959999312,00000077,8,-64231,103,18,0,219*7063ad4e
%RAWIMUSA,2283,41649.970;2283,41649.969999312,00000077,95,-64251,107,18,0,877*437fb48c
%RAWIMUSA,2283,41649.980;2283,41649.979999312,00000077,-50,-64227,104,-18,-8,429*bd2829e9
%RAWIMUSA,2283,41649.990;2283,41649.989999312,00000077,85,-64248,103,-18,-9,-941*07875f56
%RAWIMUSA,2283,41650.000;2283,41649.999999312,00000077,20,-64238,102,9,0,-923*f1afe494
%RAWIMUSA,2283,41650.010;2283,41650.009999312,00000077,-6,-64227,101,18,9,1060*f276582f
%RAWIMUSA,2283,41650.020;2283,41650.019999312,00000077,104,-64251,108,0,-8,887*8eddbe4b
%RAWIMUSA,2283,41650.030;2283,41650.029999312,00000077,-51,-64226,105,-18,-18,-539*6853866a
%RAWIMUSA,2283,41650.040;2283,41650.039999312,00000077,77,-64244,103,-9,8,-905*e52799e6
%RAWIMUSA,2283,41650.050;2283,41650.049999312,00000077,44,-64242,101,18,0,-9*82b21e49
%RAWIMUSA,2283,41650.060;2283,41650.059999312,00000077,-29,-64229,102,9,0,1069*3665f881
%RAWIMUSA,2283,41650.070;2283,41650.069999312,00000077,103,-64252,108,-8,-18,365*b620dd2f
%RAWIMUSA,2283,41650.080;2283,41650.079999312,00000077,-26,-64224,98,-18,0,-960*fda7f23b
%RAWIMUSA,2283,41650.090;2283,41650.089999312,00000077,53,-64241,99,9,0,-841*5b0c49cd
%RAWIMUSA,2283,41650.100;2283,41650.099999312,00000077,62,-64245,111,18,0,868*74f50b46
%RAWIMUSA,2283,41650.110;2283,41650.109999312,00000077,-47,-64227,108,0,-8,1042*d634af75
%RAWIMUSA,2283,41650.120;2283,41650.119999312,00000077,112,-64251,99,-18,-9,-539*847746ee
%RAWIMUSA,2283,41650.130;2283,41650.129999312,00000077,-10,-64228,94,-9,0,-978*ec56bfe1
%RAWIMUSA,2283,41650.140;2283,41650.139999312,00000077,28,-64238,110,18,9,118*f849b4da
%RAWIMUSA,2283,41650.150;2283,41650.149999312,00000077,73,-64248,114,9,-8,868*5120d39d
%RAWIMUSA,2283,41650.160;2283,41650.159999312,00000077,-40,-64226,95,-18,-8,548*f1a8b685
%RAWIMUSA,2283,41650.170;2283,41650.169999312,00000077,98,-64250,97,-18,0,-960*2137f912
%RAWIMUSA,2283,41650.180;2283,41650.179999312,00000077,-6,-64233,106,18,0,-996*1ee8a085
%RAWIMUSA,2283,41650.190;2283,41650.189999312,00000077,9,-64233,114,18,0,1051*b32fd3b1
%RAWIMUSA,2283,41650.200;2283,41650.199999312,00000077,93,-64250,104,-8,-8,868*02807a23
%RAWIMUSA,2283,41650.210;2283,41650.209999312,00000077,-42,-64224,90,-18,-9,-402*de60a886
%RAWIMUSA,2283,41650.220;2283,41650.219999312,00000077,83,-64250,109,-9,8,-941*844b98a1
%RAWIMUSA,2283,41650.230;2283,41650.229999312,00000077,11,-64238,112,18,0,-100*9ce4a552
%RAWIMUSA,2283,41650.240;2283,41650.239999312,00000077,0,-64230,103,18,-8,1060*2e9478d4
%RAWIMUSA,2283,41650.250;2283,41650.249999312,00000077,106,-64250,94,-18,-8,448*9cba636f
%RAWIMUSA,2283,41650.260;2283,41650.259999312,00000077,-49,-64226,99,-18,0,-923*16b27274
%RAWIMUSA,2283,41650.270;2283,41650.269999312,00000077,72,-64243,116,9,0,-923*e1d64d3e
%RAWIMUSA,2283,41650.280;2283,41650.279999312,00000077,41,-64244,111,18,0,823*868dd08b
%RAWIMUSA,2283,41650.290;2283,41650.289999312,00000077,-17,-64226,91,0,-8,1051*a2192583
%RAWIMUSA,2283,41650.300;2283,41650.299999312,00000077,106,-64251,103,-18,-9,-466*8b569d95
%RAWIMUSA,2283,41650.310;2283,41650.309999312,00000077,-33,-64228,107,-9,0,-950*e10ef125
%RAWIMUSA,2283,41650.320;2283,41650.319999312,00000077,57,-64243,106,18,0,-18*a8852ea3
%RAWIMUSA,2283,41650.330;2283,41650.329999312,00000077,54,-64246,103,9,-8,859*0b70a5f4
%RAWIMUSA,2283,41650.340;2283,41650.339999312,00000077,-38,-64227,96,-8,-8,676*4b7d1f37
%RAWIMUSA,2283,41650.350;2283,41650.349999312,00000077,110,-64249,110,-18,0,-996*9ea1b5ca
%RAWIMUSA,2283,41650.360;2283,41650.359999312,00000077,-14,-64229,110,18,0,-960*cc4fde19
%RAWIMUSA,2283,41650.370;2283,41650.369999312,00000077,29,-64238,93,18,0,932*4f163bee
%RAWIMUSA,2283,41650.380;2283,41650.379999312,00000077,71,-64249,99,-8,-17,859*6ac1103a
%RAWIMUSA,2283,41650.390;2283,41650.389999312,00000077,-47,-64225,108,-18,0,-283*68c6e74a
%RAWIMUSA,2283,41650.400;2283,41650.399999312,00000077,105,-64250,113,-9,0,-960*8c775d1d
%RAWIMUSA,2283,41650.410;2283,41650.409999312,00000077,1,-64237,98,18,0,-182*13a5e24d
%RAWIMUSA,2283,41650.420;2283,41650.419999312,00000077,-1,-64232,96,9,0,1069*fef78ea0
%RAWIMUSA,2283,41650.430;2283,41650.429999312,00000077,104,-64250,110,-8,-18,539*0d5d1ee8
%RAWIMUSA,2283,41650.440;2283,41650.439999312,00000077,-48,-64228,104,-27,8,-923*e6b6c91e
%RAWIMUSA,2283,41650.450;2283,41650.449999312,00000077,77,-64245,106,18,0,-923*ff6da0f5
%RAWIMUSA,2283,41650.460;2283,41650.459999312,00000077,27,-64240,97,18,-8,722*a32348b5
%RAWIMUSA,2283,41650.470;2283,41650.469999312,00000077,-11,-64227,100,-8,0,1060*af45a801
%RAWIMUSA,2283,41650.480;2283,41650.479999312,00000077,107,-64252,107,-18,-9,-374*8777a61b
%RAWIMUSA,2283,41650.490;2283,41650.489999312,00000077,-35,-64228,102,0,0,-941*59bba514
%RAWIMUSA,2283,41650.500;2283,41650.499999312,00000077,54,-64241,104,18,9,-127*775a0ad3
%RAWIMUSA,2283,41650.510;2283,41650.509999312,00000077,57,-64243,104,0,-17,859*326d6e64
%RAWIMUSA,2283,41650.520;2283,41650.519999312,00000077,-32,-64227,100,-18,-8,786*01bc1fc4
%RAWIMUSA,2283,41650.530;2283,41650.529999312,00000077,99,-64251,103,-9,0,-996*70207e5b
%RAWIMUSA,2283,41650.540;2283,41650.539999312,00000077,-24,-64230,104,18,0,-978*33d4421a
%RAWIMUSA,2283,41650.550;2283,41650.549999312,00000077,27,-64235,105,9,0,832*077774ac
%RAWIMUSA,2283,41650.560;2283,41650.559999312,00000077,101,-64246,110,-8,-17,859*695398a1
%RAWIMUSA,2283,41650.570;2283,41650.569999312,00000077,-59,-64224,95,-18,0,-173*52967642
%RAWIMUSA,2283,41650.580;2283,41650.579999312,00000077,85,-64250,101,9,8,-960*8c696808
%RAWIMUSA,2283,41650.590;2283,41650.589999312,00000077,14,-64234,116,18,0,-301*3d7cc321
%RAWIMUSA,2283,41650.600;2283,41650.599999312,00000077,7,-64230,103,0,-17,1060*38d6f303
%RAWIMUSA,2283,41650.610;2283,41650.609999312,00000077,100,-64255,89,-18,-8,649*56fb0ebc
%RAWIMUSA,2283,41650.620;2283,41650.619999312,00000077,-53,-64222,101,-9,0,-914*523edb9d
%RAWIMUSA,2283,41650.630;2283,41650.629999312,00000077,73,-64249,115,18,8,-914*45af5ed0
%RAWIMUSA,2283,41650.640;2283,41650.639999312,00000077,42,-64242,109,18,-8,603*2131b62f
%RAWIMUSA,2283,41650.650;2283,41650.649999312,00000077,-25,-64228,97,-18,-8,1060*4dc9f7b1
%RAWIMUSA,2283,41650.660;2283,41650.659999312,00000077,101,-64251,94,-18,-9,-255*4a26d4ba
%RAWIMUSA,2283,41650.670;2283,41650.669999312,00000077,-28,-64228,108,9,8,-950*557befc9
%RAWIMUSA,2283,41650.680;2283,41650.679999312,00000077,45,-64239,113,18,0,-228*a2d60959
%RAWIMUSA,2283,41650.690;2283,41650.689999312,00000077,65,-64246,100,0,-8,859*bc20f2ff
%RAWIMUSA,2283,41650.700;2283,41650.699999312,00000077,-44,-64230,92,-8,-8,877*724c13da
%RAWIMUSA,2283,41650.710;2283,41650.709999312,00000077,112,-64247,115,-18,0,-987*44b8f3e2
%RAWIMUSA,2283,41650.720;2283,41650.719999312,00000077,-7,-64230,110,18,0,-978*fb7f0334
%RAWIMUSA,2283,41650.730;2283,41650.729999312,00000077,16,-64237,96,18,0,731*a515aa4f
%RAWIMUSA,2283,41650.740;2283,41650.739999312,00000077,80,-64250,103,-18,-17,868*19f3aca1
%RAWIMUSA,2283,41650.750;2283,41650.749999312,00000077,-41,-64226,107,-18,0,-63*68de788e
%RAWIMUSA,2283,41650.760;2283,41650.759999312,00000077,98,-64249,111,0,8,-969*31c9ccbf
%RAWIMUSA,2283,41650.770;2283,41650.769999312,00000077,1,-64233,94,18,0,-402*fb2318c9
%RAWIMUSA,2283,41650.780;2283,41650.779999312,00000077,0,-64232,97,9,-8,1051*d77df72f
%RAWIMUSA,2283,41650.790;2283,41650.789999312,00000077,101,-64248,115,-18,-8,749*80320be1
%RAWIMUSA,2283,41650.800;2283,41650.799999312,00000077,-45,-64228,109,-18,0,-896*aad0392f
%RAWIMUSA,2283,41650.810;2283,41650.809999312,00000077,84,-64246,94,18,8,-932*73bb1a23
%RAWIMUSA,2283,41650.820;2283,41650.819999312,00000077,17,-64236,89,18,-18,512*d2d0299e
%RAWIMUSA,2283,41650.830;2283,41650.829999312,00000077,-1,-64231,111,-8,-8,1060*704d8e60
%RAWIMUSA,2283,41650.840;2283,41650.839999312,00000077,97,-64251,121,-27,0,-173*1ebdb1bd
%RAWIMUSA,2283,41650.850;2283,41650.849999312,00000077,-55,-64227,90,9,0,-914*61d7af00
%RAWIMUSA,2283,41650.860;2283,41650.859999312,00000077,80,-64244,96,18,0,-365*4b58cd41
%RAWIMUSA,2283,41650.870;2283,41650.869999312,00000077,40,-64241,108,0,-8,877*05e4cee6
%RAWIMUSA,2283,41650.880;2283,41650.879999312,00000077,-26,-64224,116,-18,-8,996*8c287d4f
%RAWIMUSA,2283,41650.890;2283,41650.889999312,00000077,100,-64254,102,-9,8,-1014*e02a662b
%RAWIMUSA,2283,41650.900;2283,41650.899999312,00000077,-33,-64225,91,18,-10,-950*bfb42ea3
%RAWIMUSA,2283,41650.910;2283,41650.909999312,00000077,66,-64243,106,18,-8,594*29baa8d1
%RAWIMUSA,2283,41650.920;2283,41650.919999312,00000077,46,-64244,106,-18,0,868*2a7599ba
%RAWIMUSA,2283,41650.930;2283,41650.929999312,00000077,-41,-64226,108,-18,-9,64*fae3a0cc
%RAWIMUSA,2283,41650.940;2283,41650.939999312,00000077,113,-64252,105,9,8,-1005*3ac74678
%RAWIMUSA,2283,41650.950;2283,41650.949999312,00000077,-15,-64229,91,18,-9,-466*3e811ba2
%RAWIMUSA,2283,41650.960;2283,41650.959999312,00000077,35,-64237,110,0,-8,1042*56cbe4f3
%RAWIMUSA,2283,41650.970;2283,41650.969999312,00000077,73,-64248,106,-18,0,841*873281aa
%RAWIMUSA,2283,41650.980;2283,41650.979999312,00000077,-43,-64225,101,-9,-9,-877*5bbb0fa8
%RAWIMUSA,2283,41650.990;2283,41650.989999312,00000077,110,-64253,103,18,17,-969*8bd95849
%RAWIMUSA,2283,41651.000;2283,41650.999999312,00000077,-5,-64231,104,9,-18,439*1263f8b1
%RAWIMUSA,2283,41651.010;2283,41651.009999312,00000077,3,-64233,109,-18,-8,1060*1c8110a4
%RAWIMUSA,2283,41651.020;2283,41651.019999312,00000077,98,-64247,107,-9,0,-82*834af79c
%RAWIMUSA,2283,41651.030;2283,41651.029999312,00000077,-49,-64225,98,9,8,-896*c082d718
%RAWIMUSA,2283,41651.040;2283,41651.039999312,00000077,89,-64251,108,18,-9,-493*18a17403
%RAWIMUSA,2283,41651.050;2283,41651.049999312,00000077,16,-64233,106,0,-8,896*388965cf
%RAWIMUSA,2283,41651.060;2283,41651.059999312,00000077,-8,-64229,102,-18,-8,1060*cf8bd442
%RAWIMUSA,2283,41651.070;2283,41651.069999312,00000077,105,-64251,105,-9,8,-1005*2d33f4e5
%RAWIMUSA,2283,41651.080;2283,41651.079999312,00000077,-49,-64227,103,18,0,-923*c7693ea5
%RAWIMUSA,2283,41651.090;2283,41651.089999312,00000077,74,-64248,107,9,-8,484*9d974378
%RAWIMUSA,2283,41651.100;2283,41651.099999312,00000077,33,-64239,103,-8,-8,887*26e97e2a
%RAWIMUSA,2283,41651.110;2283,41651.109999312,00000077,-14,-64228,100,-18,9,155*6833e634
%RAWIMUSA,2283,41651.120;2283,41651.119999312,00000077,103,-64253,105,9,0,-1033*24f04093
%RAWIMUSA,2283,41651.130;2283,41651.129999312,00000077,-44,-64224,101,18,-9,-539*32f675ad
%RAWIMUSA,2283,41651.140;2283,41651.139999312,00000077,65,-64243,103,0,-8,1015*f254ad85
%RAWIMUSA,2283,41651.150;2283,41651.149999312,00000077,50,-64242,103,-18,0,868*b1b36ed8
%RAWIMUSA,2283,41651.160;2283,41651.159999312,00000077,-30,-64228,102,0,8,-767*f7b9d625
%RAWIMUSA,2283,41651.170;2283,41651.169999312,00000077,103,-64251,106,18,0,-1005*ed0552be
%RAWIMUSA,2283,41651.180;2283,41651.179999312,00000077,-22,-64227,100,9,-18,375*a4f39faf
%RAWIMUSA,2283,41651.190;2283,41651.189999312,00000077,44,-64239,104,-18,-8,1024*0b6bcf68
%RAWIMUSA,2283,41651.200;2283,41651.199999312,00000077,66,-64247,105,-18,9,18*3c098825
%RAWIMUSA,2283,41651.210;2283,41651.209999312,00000077,-36,-64226,101,18,0,-859*3590e810
%RAWIMUSA,2283,41651.220;2283,41651.219999312,00000077,94,-64253,100,18,-9,-639*4b558f37
%RAWIMUSA,2283,41651.230;2283,41651.229999312,00000077,-3,-64227,101,-8,-8,941*cdf81ff7
%RAWIMUSA,2283,41651.240;2283,41651.239999312,00000077,25,-64238,109,-18,0,1051*5ef4bd25
%RAWIMUSA,2283,41651.250;2283,41651.249999312,00000077,81,-64246,107,0,0,-914*8a906dc2
%RAWIMUSA,2283,41651.260;2283,41651.259999311,00000077,-50,-64226,99,18,0,-877*06c96402
%RAWIMUSA,2283,41651.270;2283,41651.269999311,00000077,100,-64245,105,9,-9,320*9bfd0553
%RAWIMUSA,2283,41651.280;2283,41651.279999311,00000077,7,-64233,106,-8,-8,914*535444a5
%RAWIMUSA,2283,41651.290;2283,41651.289999311,00000077,3,-64234,104,-27,9,265*58e3c79f
%RAWIMUSA,2283,41651.300;2283,41651.299999311,00000077,99,-64250,104,18,0,-1042*ad743562
%RAWIMUSA,2283,41651.310;2283,41651.309999311,00000077,-47,-64225,101,18,-18,-603*12730215
%RAWIMUSA,2283,41651.320;2283,41651.319999311,00000077,80,-64247,108,-8,-8,969*5025c3c8
%RAWIMUSA,2283,41651.330;2283,41651.329999311,00000077,20,-64237,104,-18,0,887*bb3eccec
%RAWIMUSA,2283,41651.340;2283,41651.339999311,00000077,-7,-64228,106,0,8,-658*640e0192
%RAWIMUSA,2283,41651.350;2283,41651.349999311,00000077,108,-64253,106,18,-10,-1033*16b76f39
%RAWIMUSA,2283,41651.360;2283,41651.359999311,00000077,-46,-64228,98,9,-9,310*5ba855ed
%RAWIMUSA,2283,41651.370;2283,41651.369999311,00000077,69,-64244,105,-18,-8,987*895e4037
%RAWIMUSA,2283,41651.380;2283,41651.379999311,00000077,34,-64241,107,-18,0,146*dad2cfcd
%RAWIMUSA,2283,41651.390;2283,41651.389999311,00000077,-15,-64227,99,18,8,-859*a59aad05
%RAWIMUSA,2283,41651.400;2283,41651.399999311,00000077,107,-64251,105,18,-19,-786*cc6e7370
%RAWIMUSA,2283,41651.410;2283,41651.409999311,00000077,-43,-64227,102,-8,-8,987*0424dc84
%RAWIMUSA,2283,41651.420;2283,41651.419999311,00000077,65,-64243,110,-18,0,1005*1a4b6c68
%RAWIMUSA,2283,41651.430;2283,41651.429999311,00000077,47,-64243,105,0,0,-795*3ea28f52
%RAWIMUSA,2283,41651.440;2283,41651.439999311,00000077,-34,-64226,97,9,0,-859*f91d8b26
%RAWIMUSA,2283,41651.450;2283,41651.449999311,00000077,109,-64251,108,9,-9,164*07047e98
%RAWIMUSA,2283,41651.460;2283,41651.459999311,00000077,-23,-64227,106,-8,-8,960*5ac8c7f8
%RAWIMUSA,2283,41651.470;2283,41651.469999311,00000077,42,-64237,107,-18,9,347*b6447fe5
%RAWIMUSA,2283,41651.480;2283,41651.479999311,00000077,61,-64249,98,18,0,-1042*52c5e141
%RAWIMUSA,2283,41651.490;2283,41651.489999311,00000077,-35,-64226,99,18,-9,-676*6aa92029
%RAWIMUSA,2283,41651.500;2283,41651.499999311,00000077,100,-64249,110,-8,-17,923*6981d20c
%RAWIMUSA,2283,41651.510;2283,41651.509999311,00000077,-17,-64228,101,-27,9,941*44e79ce7
%RAWIMUSA,2283,41651.520;2283,41651.519999311,00000077,39,-64240,102,9,0,-575*697ce125
%RAWIMUSA,2283,41651.530;2283,41651.529999311,00000077,76,-64245,105,9,-10,-1042*5893b4b2
%RAWIMUSA,2283,41651.540;2283,41651.539999311,00000077,-44,-64228,104,9,-9,256*4b1e27a9
%RAWIMUSA,2283,41651.550;2283,41651.549999311,00000077,94,-64249,108,-8,0,941*59871123
%RAWIMUSA,2283,41651.560;2283,41651.559999311,00000077,-3,-64233,100,-18,0,274*612abcbb
%RAWIMUSA,2283,41651.570;2283,41651.569999311,00000077,20,-64234,100,18,8,-859*482c3341
%RAWIMUSA,2283,41651.580;2283,41651.579999311,00000077,85,-64249,109,18,-19,-905*06482c44
%RAWIMUSA,2283,41651.590;2283,41651.589999311,00000077,-54,-64226,103,-18,-8,1024*716f1847
%RAWIMUSA,2283,41651.600;2283,41651.599999311,00000077,96,-64247,101,-18,9,969*a42c224a
%RAWIMUSA,2283,41651.610;2283,41651.609999311,00000077,12,-64236,99,9,0,-676*76f1bebc
%RAWIMUSA,2283,41651.620;2283,41651.619999311,00000077,-8,-64231,107,18,0,-850*86de81b4
%RAWIMUSA,2283,41651.630;2283,41651.629999311,00000077,103,-64250,110,0,-18,36*066c971b
%RAWIMUSA,2283,41651.640;2283,41651.639999311,00000077,-45,-64225,97,-18,-8,1005*f0a7d0d0
%RAWIMUSA,2283,41651.650;2283,41651.649999311,00000077,81,-64245,103,-8,9,402*2cc27e5b
%RAWIMUSA,2283,41651.660;2283,41651.659999311,00000077,25,-64238,106,18,0,-1033*e95c786f
%RAWIMUSA,2283,41651.670;2283,41651.669999311,00000077,-15,-64226,107,18,-9,-767*f08ec148
%RAWIMUSA,2283,41651.680;2283,41651.679999311,00000077,109,-64252,105,-18,-8,896*34042025
%RAWIMUSA,2283,41651.690;2283,41651.689999311,00000077,-39,-64224,102,-18,0,978*4342ae58
%RAWIMUSA,2283,41651.700;2283,41651.699999311,00000077,65,-64245,105,9,8,-502*a8e098e6
%RAWIMUSA,2283,41651.710;2283,41651.709999311,00000077,40,-64243,106,18,-10,-1051*8442721e
%RAWIMUSA,2283,41651.720;2283,41651.719999311,00000077,-33,-64227,101,0,-9,164*c1c0933a
%RAWIMUSA,2283,41651.730;2283,41651.729999311,00000077,111,-64251,106,-18,0,905*f5eeacc1
%RAWIMUSA,2283,41651.740;2283,41651.739999311,00000077,-24,-64227,101,-8,0,429*575a68f2
%RAWIMUSA,2283,41651.750;2283,41651.749999311,00000077,37,-64240,103,18,0,-886*0980568b
%RAWIMUSA,2283,41651.760;2283,41651.759999311,00000077,67,-64245,106,9,-19,-1014*f213b3ee
%RAWIMUSA,2283,41651.770;2283,41651.769999311,00000077,-37,-64226,97,-8,0,1042*86579e7e
%RAWIMUSA,2283,41651.780;2283,41651.779999311,00000077,106,-64250,109,-18,0,932*30ebe902
%RAWIMUSA,2283,41651.790;2283,41651.789999311,00000077,-17,-64232,103,9,8,-530*ea47f2c1
%RAWIMUSA,2283,41651.800;2283,41651.799999311,00000077,22,-64234,101,9,-9,-868*7be91a48
%RAWIMUSA,2283,41651.810;2283,41651.809999311,00000077,86,-64249,106,9,-18,-73*b72f62a0
%RAWIMUSA,2283,41651.820;2283,41651.819999311,00000077,-46,-64224,103,-18,0,1033*f5f7fd31
%RAWIMUSA,2283,41651.830;2283,41651.829999311,00000077,91,-64249,110,-8,9,475*e2bf2422
%RAWIMUSA,2283,41651.840;2283,41651.839999311,00000077,-2,-64237,103,9,-10,-996*4864965f
%RAWIMUSA,2283,41651.850;2283,41651.849999311,00000077,15,-64232,103,18,-9,-868*81c2e1cd
%RAWIMUSA,2283,41651.860;2283,41651.859999311,00000077,100,-64248,103,-8,-8,850*4f1375a2
%RAWIMUSA,2283,41651.870;2283,41651.869999311,00000077,-52,-64228,98,-18,9,1015*3c7acb31
%RAWIMUSA,2283,41651.880;2283,41651.879999311,00000077,83,-64248,112,9,0,-438*4f11697f
%RAWIMUSA,2283,41651.890;2283,41651.889999311,00000077,21,-64239,106,9,-10,-1024*d741472d
%RAWIMUSA,2283,41651.900;2283,41651.899999311,00000077,0,-64229,97,0,-9,64*e382473f
%RAWIMUSA,2283,41651.910;2283,41651.909999311,00000077,100,-64250,99,-18,0,868*7a6bad18
%RAWIMUSA,2283,41651.920;2283,41651.919999311,00000077,-49,-64227,109,-8,9,576*d6d30e9f
%RAWIMUSA,2283,41651.930;2283,41651.929999311,00000077,90,-64247,112,18,0,-932*1adf4e8a
%RAWIMUSA,2283,41651.940;2283,41651.939999311,00000077,24,-64240,95,18,-19,-1024*e274fcbb
%RAWIMUSA,2283,41651.950;2283,41651.949999311,00000077,-17,-64229,92,-18,0,1005*bff49c5f
%RAWIMUSA,2283,41651.960;2283,41651.959999311,00000077,103,-64249,113,-18,0,887*05d96671
%RAWIMUSA,2283,41651.970;2283,41651.969999311,00000077,-36,-64226,111,9,0,-383*d2caca15
%RAWIMUSA,2283,41651.980;2283,41651.979999311,00000077,68,-64245,96,18,-9,-895*f98e6d6a
%RAWIMUSA,2283,41651.990;2283,41651.989999311,00000077,42,-64245,95,0,-9,-182*a093ff3b
%RAWIMUSA,2283,41652.000;2283,41651.999999311,00000077,-33,-64224,107,-18,0,1060*28c77195
%RAWIMUSA,2283,41652.010;2283,41652.009999311,00000077,107,-64251,113,-8,0,539*6adc57e7
%RAWIMUSA,2283,41652.020;2283,41652.019999311,00000077,-24,-64229,98,18,-10,-969*85fb765c
%RAWIMUSA,2283,41652.030;2283,41652.029999311,00000077,47,-64240,94,18,-9,-886*136225e2
%RAWIMUSA,2283,41652.040;2283,41652.039999311,00000077,59,-64245,106,-18,0,749*423a937f
%RAWIMUSA,2283,41652.050;2283,41652.049999311,00000077,-39,-64226,112,-18,9,1051*3391a864
%RAWIMUSA,2283,41652.060;2283,41652.059999311,00000077,103,-64251,104,9,-9,-393*71fbab7f
%RAWIMUSA,2283,41652.070;2283,41652.069999311,00000077,-19,-64230,94,18,-10,-978*5ca85b9a
%RAWIMUSA,2283,41652.080;2283,41652.079999311,00000077,33,-64240,101,0,-9,-54*fdc7976d
%RAWIMUSA,2283,41652.090;2283,41652.089999311,00000077,80,-64246,122,-18,0,868*3d6da20e
%RAWIMUSA,2283,41652.100;2283,41652.099999311,00000077,-47,-64226,100,-8,9,722*a392f2cf
%RAWIMUSA,2283,41652.110;2283,41652.109999311,00000077,87,-64250,89,18,-10,-978*209dba94
%RAWIMUSA,2283,41652.120;2283,41652.119999311,00000077,11,-64234,108,9,-19,-1005*1f7bc429
%RAWIMUSA,2283,41652.130;2283,41652.129999311,00000077,13,-64231,115,-8,0,887*befab5bb
%RAWIMUSA,2283,41652.140;2283,41652.139999311,00000077,86,-64249,104,-18,0,868*ef51d0d8
%RAWIMUSA,2283,41652.150;2283,41652.149999311,00000077,-46,-64226,93,9,0,-246*8cc5bb5d
%RAWIMUSA,2283,41652.160;2283,41652.159999311,00000077,95,-64248,108,18,-10,-941*bd7ec926
%RAWIMUSA,2283,41652.170;2283,41652.169999311,00000077,16,-64237,111,-9,-9,-255*bedbef49
%RAWIMUSA,2283,41652.180;2283,41652.179999311,00000077,-14,-64231,101,-18,9,1060*f6105047
%RAWIMUSA,2283,41652.190;2283,41652.189999311,00000077,109,-64248,96,0,0,612*d089eee0
%RAWIMUSA,2283,41652.200;2283,41652.199999311,00000077,-38,-64226,101,18,-9,-932*802b1d5a
%RAWIMUSA,2283,41652.210;2283,41652.209999311,00000077,67,-64244,116,9,-9,-895*276b7e42
%RAWIMUSA,2283,41652.220;2283,41652.219999311,00000077,39,-64245,106,-18,0,649*40456f96
%RAWIMUSA,2283,41652.230;2283,41652.229999311,00000077,-31,-64226,92,-18,0,1051*ee9c36f4
%RAWIMUSA,2283,41652.240;2283,41652.239999311,00000077,114,-64253,106,18,0,-283*ffb8ab86
%RAWIMUSA,2283,41652.250;2283,41652.249999311,00000077,-27,-64231,107,18,-10,-969*11e5c638
%RAWIMUSA,2283,41652.260;2283,41652.259999311,00000077,32,-64239,108,-9,-9,-173*e8febc2b
%RAWIMUSA,2283,41652.270;2283,41652.269999311,00000077,71,-64245,97,-18,0,877*b9ee5874
%RAWIMUSA,2283,41652.280;2283,41652.279999311,00000077,-36,-64227,102,0,9,841*e0179110
%RAWIMUSA,2283,41652.290;2283,41652.289999311,00000077,100,-64249,114,9,-10,-987*497f6965
%RAWIMUSA,2283,41652.300;2283,41652.299999311,00000077,-17,-64230,107,9,-10,-996*578c983b
%RAWIMUSA,2283,41652.310;2283,41652.309999311,00000077,28,-64233,95,-8,0,777*edf89e40
%RAWIMUSA,2283,41652.320;2283,41652.319999311,00000077,87,-64249,100,-18,0,868*a6d7233e
%RAWIMUSA,2283,41652.330;2283,41652.329999311,00000077,-50,-64227,105,18,0,-118*2aad21fc
%RAWIMUSA,2283,41652.340;2283,41652.339999311,00000077,88,-64249,106,18,-19,-950*4cd75d59
%RAWIMUSA,2283,41652.350;2283,41652.349999311,00000077,13,-64233,97,-9,0,-356*18cd4127
%RAWIMUSA,2283,41652.360;2283,41652.359999311,00000077,0,-64229,98,-18,0,1060*e44e2d51
%RAWIMUSA,2283,41652.370;2283,41652.369999311,00000077,107,-64250,111,0,0,722*ca356967
%RAWIMUSA,2283,41652.380;2283,41652.379999311,00000077,-44,-64227,108,18,-9,-914*43e02a01
%RAWIMUSA,2283,41652.390;2283,41652.389999311,00000077,76,-64248,100,9,-19,-923*1cf191e0
%RAWIMUSA,2283,41652.400;2283,41652.399999311,00000077,34,-64239,101,-18,0,548*b26ca69f
%RAWIMUSA,2283,41652.410;2283,41652.409999311,00000077,-12,-64228,106,-18,19,1069*b23aac29
%RAWIMUSA,2283,41652.420;2283,41652.419999311,00000077,101,-64252,109,18,-18,-219*07e75462
%RAWIMUSA,2283,41652.430;2283,41652.429999311,00000077,-36,-64226,101,18,-9,-932*00785928
%RAWIMUSA,2283,41652.440;2283,41652.439999311,00000077,60,-64242,100,-9,0,-301*26ace4b4
%RAWIMUSA,2283,41652.450;2283,41652.449999311,00000077,59,-64242,107,-18,0,877*bcc2c0c4
%RAWIMUSA,2283,41652.460;2283,41652.459999311,00000077,-38,-64228,102,0,9,941*0d5c72ec
%RAWIMUSA,2283,41652.470;2283,41652.469999311,00000077,102,-64249,106,18,-19,-1014*3de5cb34
%RAWIMUSA,2283,41652.480;2283,41652.479999311,00000077,-21,-64228,101,0,-9,-950*20f096ec
%RAWIMUSA,2283,41652.490;2283,41652.489999311,00000077,48,-64241,103,-18,9,658*950264ad
%RAWIMUSA,2283,41652.500;2283,41652.499999311,00000077,59,-64245,109,-18,0,868*5ca9044c
%RAWIMUSA,2283,41652.510;2283,41652.509999311,00000077,-50,-64225,100,18,-9,-9*c069d7ff
%RAWIMUSA,2283,41652.520;2283,41652.519999311,00000077,112,-64248,104,18,-10,-978*c83e38dd
%RAWIMUSA,2283,41652.530;2283,41652.529999311,00000077,-9,-64230,98,-9,0,-438*073631f3
%RAWIMUSA,2283,41652.540;2283,41652.539999311,00000077,20,-64236,104,-18,0,1051*6ac53a63
%RAWIMUSA,2283,41652.550;2283,41652.549999311,00000077,84,-64250,110,0,0,795*b2573b94
%RAWIMUSA,2283,41652.560;2283,41652.559999311,00000077,-45,-64224,98,18,-9,-895*5be80354
%RAWIMUSA,2283,41652.570;2283,41652.569999311,00000077,99,-64248,105,9,-19,-950*8594dfb2
%RAWIMUSA,2283,41652.580;2283,41652.579999311,00000077,1,-64234,109,-18,9,484*39c71d39
%RAWIMUSA,2283,41652.590;2283,41652.589999311,00000077,-2,-64230,102,-18,9,1051*0e79b7a2
%RAWIMUSA,2283,41652.600;2283,41652.599999311,00000077,109,-64252,100,18,-18,-118*92d6115b
%RAWIMUSA,2283,41652.610;2283,41652.609999311,00000077,-41,-64226,105,18,-9,-905*6cf78218
%RAWIMUSA,2283,41652.620;2283,41652.619999311,00000077,71,-64246,115,-9,0,-429*1dacf77f
%RAWIMUSA,2283,41652.630;2283,41652.629999311,00000077,25,-64238,97,-18,0,877*f4025a8b
%RAWIMUSA,2283,41652.640;2283,41652.639999311,00000077,-12,-64227,91,0,9,1060*1116ad42
%RAWIMUSA,2283,41652.650;2283,41652.649999311,00000077,110,-64253,112,18,-19,-1033*557e4d25
%RAWIMUSA,2283,41652.660;2283,41652.659999311,00000077,-40,-64227,113,0,-9,-932*e104f3fa
%RAWIMUSA,2283,41652.670;2283,41652.669999311,00000077,58,-64246,100,-18,9,530*6f4ede99
%RAWIMUSA,2283,41652.680;2283,41652.679999311,00000077,46,-64243,94,-8,0,868*e1440422
%RAWIMUSA,2283,41652.690;2283,41652.689999311,00000077,-28,-64228,104,18,-9,118*81b8fdd7
%RAWIMUSA,2283,41652.700;2283,41652.699999311,00000077,104,-64250,119,18,-10,-1005*cdbfd3f5
%RAWIMUSA,2283,41652.710;2283,41652.709999311,00000077,-30,-64231,100,-18,0,-511*98d098a2
%RAWIMUSA,2283,41652.720;2283,41652.719999311,00000077,47,-64239,95,-18,0,1033*0870a99d
%RAWIMUSA,2283,41652.730;2283,41652.729999311,00000077,73,-64245,103,9,0,859*cacb9892
%RAWIMUSA,2283,41652.740;2283,41652.739999311,00000077,-49,-64230,114,18,-9,-822*63207a65
%RAWIMUSA,2283,41652.750;2283,41652.749999311,00000077,100,-64250,108,0,-10,-978*ec7df116
%RAWIMUSA,2283,41652.760;2283,41652.759999311,00000077,-10,-64232,89,-18,0,402*0fd8f9f3
%RAWIMUSA,2283,41652.770;2283,41652.769999311,00000077,29,-64234,100,-8,9,1051*1013cf0c
%RAWIMUSA,2283,41652.780;2283,41652.779999311,00000077,84,-64249,115,18,-9,-27*dabbf4e2
%RAWIMUSA,2283,41652.790;2283,41652.789999311,00000077,-59,-64225,102,18,-9,-895*4df8dec9
%RAWIMUSA,2283,41652.800;2283,41652.799999311,00000077,95,-64249,99,-18,0,-548*1982afb5
%RAWIMUSA,2283,41652.810;2283,41652.809999311,00000077,15,-64236,98,-18,0,905*65278cfd
%RAWIMUSA,2283,41652.820;2283,41652.819999311,00000077,0,-64230,110,9,0,1060*977b4b3c
%RAWIMUSA,2283,41652.830;2283,41652.829999311,00000077,101,-64249,110,18,-19,-941*669cb7b4
%RAWIMUSA,2283,41652.840;2283,41652.839999311,00000077,-45,-64227,95,0,0,-914*9febff73
%RAWIMUSA,2283,41652.850;2283,41652.849999311,00000077,86,-64245,105,-18,9,402*4491681f
%RAWIMUSA,2283,41652.860;2283,41652.859999311,00000077,23,-64239,108,-8,0,877*635143b7
%RAWIMUSA,2283,41652.870;2283,41652.869999311,00000077,-22,-64224,106,18,-9,228*8f406ff1
%RAWIMUSA,2283,41652.880;2283,41652.879999311,00000077,107,-64250,101,18,-19,-1024*40f17fb8
%RAWIMUSA,2283,41652.890;2283,41652.889999311,00000077,-33,-64227,96,-18,8,-594*472d3993
%RAWIMUSA,2283,41652.900;2283,41652.899999311,00000077,59,-64245,107,-18,9,1024*4a22278e
%RAWIMUSA,2283,41652.910;2283,41652.909999311,00000077,47,-64244,109,9,-8,868*bdc571d5
%RAWIMUSA,2283,41652.920;2283,41652.919999311,00000077,-41,-64226,100,18,-19,-713*faa92084
%RAWIMUSA,2283,41652.930;2283,41652.929999311,00000077,113,-64249,104,0,0,-996*fd0a8815
%RAWIMUSA,2283,41652.940;2283,41652.939999311,00000077,-21,-64229,104,-18,0,301*3473087b
%RAWIMUSA,2283,41652.950;2283,41652.949999311,00000077,28,-64237,106,-8,9,1051*21c35772
%RAWIMUSA,2283,41652.960;2283,41652.959999311,00000077,81,-64248,105,18,-18,73*6273c8a7
