%RAWIMUSA,2283,41734.470;2283,41734.469999268,00000077,79,-64247,100,-8,9,987*f7fe3915
%RAWIMUSA,2283,41734.480;2283,41734.479999268,00000077,32,-64240,101,18,-19,-740*dd5dc352
%RAWIMUSA,2283,41734.490;2283,41734.489999268,00000077,-15,-64226,109,9,-9,-850*961523db
%RAWIMUSA,2283,41734.500;2283,41734.499999268,00000077,105,-64254,108,-18,0,128*487d6794
%RAWIMUSA,2283,41734.510;2283,41734.509999268,00000077,-47,-64227,95,-18,9,978*9e0389cf
%RAWIMUSA,2283,41734.520;2283,41734.519999268,00000077,66,-64244,104,18,-9,347*2e715582
%RAWIMUSA,2283,41734.530;2283,41734.529999268,00000077,48,-64241,111,18,-10,-1033*38231ce8
%RAWIMUSA,2283,41734.540;2283,41734.539999268,00000077,-26,-64228,109,-18,-9,-694*91cd85c2
%RAWIMUSA,2283,41734.550;2283,41734.549999268,00000077,105,-64251,102,-8,9,905*67798b07
%RAWIMUSA,2283,41734.560;2283,41734.559999268,00000077,-31,-64229,100,0,0,951*989935a5
%RAWIMUSA,2283,41734.570;2283,41734.569999268,00000077,46,-64243,107,18,-9,-557*c004f139
%RAWIMUSA,2283,41734.580;2283,41734.579999268,00000077,69,-64246,111,9,-10,-1060*3d743a20
%RAWIMUSA,2283,41734.590;2283,41734.589999268,00000077,-45,-64223,100,-18,9,228*64fae288
%RAWIMUSA,2283,41734.600;2283,41734.599999268,00000077,107,-64249,104,-18,0,932*51d6b0e7
%RAWIMUSA,2283,41734.610;2283,41734.609999268,00000077,-14,-64230,103,18,-9,320*16d5dffa
%RAWIMUSA,2283,41734.620;2283,41734.619999268,00000077,19,-64236,109,18,-9,-868*e3a57ccf
%RAWIMUSA,2283,41734.630;2283,41734.629999268,00000077,79,-64249,106,-9,-9,-932*196cf1c1
%RAWIMUSA,2283,41734.640;2283,41734.639999268,00000077,-40,-64226,103,-18,9,1033*e06fd76a
%RAWIMUSA,2283,41734.650;2283,41734.649999268,00000077,100,-64249,107,0,0,951*5ae09192
%RAWIMUSA,2283,41734.660;2283,41734.659999268,00000077,-1,-64233,108,18,-18,-621*12c1002f
%RAWIMUSA,2283,41734.670;2283,41734.669999268,00000077,5,-64230,103,0,0,-859*8e974d7b
%RAWIMUSA,2283,41734.680;2283,41734.679999268,00000077,102,-64251,105,-18,0,0*58eea911
%RAWIMUSA,2283,41734.690;2283,41734.689999268,00000077,-54,-64225,100,-8,9,1015*5f88efa8
%RAWIMUSA,2283,41734.700;2283,41734.699999268,00000077,85,-64249,105,18,-8,420*28d7fd5b
%RAWIMUSA,2283,41734.710;2283,41734.709999268,00000077,25,-64235,102,9,-10,-1014*5e3198f2
%RAWIMUSA,2283,41734.720;2283,41734.719999268,00000077,-7,-64229,107,-9,0,-795*a55e733d
%RAWIMUSA,2283,41734.730;2283,41734.729999268,00000077,102,-64249,106,-18,0,887*0cd09298
%RAWIMUSA,2283,41734.740;2283,41734.739999268,00000077,-49,-64225,101,9,0,987*093b51c1
%RAWIMUSA,2283,41734.750;2283,41734.749999268,00000077,77,-64243,105,18,-9,-493*f6b694fd
%RAWIMUSA,2283,41734.760;2283,41734.759999268,00000077,40,-64241,105,0,-10,-1033*4a8aee95
%RAWIMUSA,2283,41734.770;2283,41734.769999268,00000077,-21,-64225,103,-18,9,146*29c02b20
%RAWIMUSA,2283,41734.780;2283,41734.779999268,00000077,105,-64251,107,-8,0,896*093e7c32
%RAWIMUSA,2283,41734.790;2283,41734.789999268,00000077,-39,-64227,97,9,-8,457*73591472
%RAWIMUSA,2283,41734.800;2283,41734.799999268,00000077,57,-64243,109,18,-9,-895*e5a72517
%RAWIMUSA,2283,41734.810;2283,41734.809999268,00000077,57,-64244,107,-9,-10,-1051*854be7fc
%RAWIMUSA,2283,41734.820;2283,41734.819999268,00000077,-39,-64227,104,-18,9,1060*b96c33a3
%RAWIMUSA,2283,41734.830;2283,41734.829999268,00000077,110,-64248,105,0,0,914*2a601ab7
%RAWIMUSA,2283,41734.840;2283,41734.839999268,00000077,-23,-64229,102,18,-18,-493*61d101b9
%RAWIMUSA,2283,41734.850;2283,41734.849999268,00000077,31,-64240,105,0,0,-877*fb53d24e
%RAWIMUSA,2283,41734.860;2283,41734.859999268,00000077,76,-64247,106,-18,0,-109*d6411568
%RAWIMUSA,2283,41734.870;2283,41734.869999268,00000077,-45,-64223,101,-8,9,1033*46eb2d20
%RAWIMUSA,2283,41734.880;2283,41734.879999268,00000077,102,-64248,108,18,-8,493*265bb9fc
%RAWIMUSA,2283,41734.890;2283,41734.889999268,00000077,2,-64232,105,18,-19,-996*c178d155
%RAWIMUSA,2283,41734.900;2283,41734.899999268,00000077,12,-64233,105,-18,8,-859*823f8637
%RAWIMUSA,2283,41734.910;2283,41734.909999268,00000077,87,-64251,105,-18,0,832*32e88d8e
%RAWIMUSA,2283,41734.920;2283,41734.919999268,00000077,-49,-64227,104,9,-8,1024*1d30f1ca
%RAWIMUSA,2283,41734.930;2283,41734.929999268,00000077,96,-64248,107,18,-9,-420*a23c0a1a
%RAWIMUSA,2283,41734.940;2283,41734.939999268,00000077,13,-64233,102,0,0,-1005*a7a015b1
%RAWIMUSA,2283,41734.950;2283,41734.949999268,00000077,-2,-64231,100,-18,0,45*86362daa
%RAWIMUSA,2283,41734.960;2283,41734.959999268,00000077,96,-64248,110,-8,0,868*b9a81ad4
%RAWIMUSA,2283,41734.970;2283,41734.969999268,00000077,-46,-64226,105,18,-8,603*3b19d498
%RAWIMUSA,2283,41734.980;2283,41734.979999268,00000077,79,-64249,108,9,-9,-923*23fa2f9c
%RAWIMUSA,2283,41734.990;2283,41734.989999268,00000077,24,-64238,103,-18,0,-1014*9596bfa7
%RAWIMUSA,2283,41735.000;2283,41734.999999268,00000077,-17,-64228,99,-18,9,969*cc41f55a
%RAWIMUSA,2283,41735.010;2283,41735.009999268,00000077,110,-64251,108,9,-8,887*41d83e89
%RAWIMUSA,2283,41735.020;2283,41735.019999268,00000077,-45,-64225,105,18,-9,-356*f552fc4a
%RAWIMUSA,2283,41735.030;2283,41735.029999268,00000077,58,-64244,104,0,0,-896*7914cbb7
%RAWIMUSA,2283,41735.040;2283,41735.039999268,00000077,45,-64244,103,-18,0,-201*038caf59
%RAWIMUSA,2283,41735.050;2283,41735.049999268,00000077,-26,-64226,105,-8,9,1051*06e63f6f
%RAWIMUSA,2283,41735.060;2283,41735.059999268,00000077,110,-64251,108,18,-18,557*e6a5febb
%RAWIMUSA,2283,41735.070;2283,41735.069999268,00000077,-31,-64228,101,18,-10,-959*95174b6f
%RAWIMUSA,2283,41735.080;2283,41735.079999268,00000077,44,-64240,103,-18,8,-896*ac24e390
%RAWIMUSA,2283,41735.090;2283,41735.089999268,00000077,63,-64247,107,-18,0,731*327b0bcd
%RAWIMUSA,2283,41735.100;2283,41735.099999268,00000077,-35,-64223,101,9,-8,1042*b2461cf1
%RAWIMUSA,2283,41735.110;2283,41735.109999268,00000077,110,-64250,106,27,-9,-347*a5066f22
%RAWIMUSA,2283,41735.120;2283,41735.119999268,00000077,-14,-64232,101,-9,-10,-987*81848a13
%RAWIMUSA,2283,41735.130;2283,41735.129999268,00000077,17,-64233,105,-18,9,-82*19e1bc81
%RAWIMUSA,2283,41735.140;2283,41735.139999268,00000077,96,-64249,107,-8,-8,868*6a4fb0a9
%RAWIMUSA,2283,41735.150;2283,41735.149999268,00000077,-48,-64227,99,18,-8,731*57664028
%RAWIMUSA,2283,41735.160;2283,41735.159999268,00000077,89,-64248,108,18,-10,-959*259564c5
%RAWIMUSA,2283,41735.170;2283,41735.169999268,00000077,19,-64235,107,-18,8,-1014*4d56a516
%RAWIMUSA,2283,41735.180;2283,41735.179999268,00000077,-6,-64231,104,-18,0,868*3b4161f5
%RAWIMUSA,2283,41735.190;2283,41735.189999268,00000077,107,-64250,105,9,-8,868*2199d2f6
%RAWIMUSA,2283,41735.200;2283,41735.199999268,00000077,-57,-64228,104,18,-9,-228*9a0704f8
%RAWIMUSA,2283,41735.210;2283,41735.209999268,00000077,77,-64245,108,0,0,-914*4afc49b0
%RAWIMUSA,2283,41735.220;2283,41735.219999268,00000077,47,-64241,103,-18,0,-301*44d4db84
%RAWIMUSA,2283,41735.230;2283,41735.229999268,00000077,-30,-64228,100,0,0,1060*495cd55d
%RAWIMUSA,2283,41735.240;2283,41735.239999268,00000077,108,-64252,108,18,-17,658*04070c0a
%RAWIMUSA,2283,41735.250;2283,41735.249999268,00000077,-32,-64227,105,9,0,-950*6cc53125
%RAWIMUSA,2283,41735.260;2283,41735.259999267,00000077,41,-64242,103,-18,0,-886*98ec7113
%RAWIMUSA,2283,41735.270;2283,41735.269999267,00000077,71,-64249,104,-18,0,621*d2e79dfe
%RAWIMUSA,2283,41735.280;2283,41735.279999267,00000077,-45,-64225,104,18,-8,1042*eeb070e1
%RAWIMUSA,2283,41735.290;2283,41735.289999267,00000077,106,-64249,108,9,-9,-246*47b5a085
%RAWIMUSA,2283,41735.300;2283,41735.299999267,00000077,-10,-64230,103,0,0,-987*e3a8fc45
%RAWIMUSA,2283,41735.310;2283,41735.309999267,00000077,16,-64234,106,-18,9,-182*cca985e5
%RAWIMUSA,2283,41735.320;2283,41735.319999267,00000077,92,-64250,109,0,-8,868*dbac2c16
%RAWIMUSA,2283,41735.330;2283,41735.329999267,00000077,-49,-64226,103,9,-8,841*d348564d
%RAWIMUSA,2283,41735.340;2283,41735.339999267,00000077,95,-64248,103,9,-10,-950*064c1196
%RAWIMUSA,2283,41735.350;2283,41735.349999267,00000077,11,-64236,100,-18,8,-1014*00c3dfc5
%RAWIMUSA,2283,41735.360;2283,41735.359999267,00000077,-1,-64230,103,-18,0,759*9b1df7d9
%RAWIMUSA,2283,41735.370;2283,41735.369999267,00000077,101,-64251,109,18,-8,877*61ebdf06
%RAWIMUSA,2283,41735.380;2283,41735.379999267,00000077,-50,-64225,105,18,-18,-127*a732c865
%RAWIMUSA,2283,41735.390;2283,41735.389999267,00000077,80,-64246,101,-9,8,-914*2b4b06d2
%RAWIMUSA,2283,41735.400;2283,41735.399999267,00000077,35,-64242,107,-18,0,-402*fde07ab9
%RAWIMUSA,2283,41735.410;2283,41735.409999267,00000077,-15,-64226,107,0,0,1051*8c537534
%RAWIMUSA,2283,41735.420;2283,41735.419999267,00000077,95,-64249,101,18,-17,749*2f6b0154
%RAWIMUSA,2283,41735.430;2283,41735.429999267,00000077,-40,-64230,101,9,0,-950*4bfc1d70
%RAWIMUSA,2283,41735.440;2283,41735.439999267,00000077,65,-64241,118,-18,0,-886*a99f70a8
%RAWIMUSA,2283,41735.450;2283,41735.449999267,00000077,48,-64245,106,-18,0,512*b46fb115
%RAWIMUSA,2283,41735.460;2283,41735.459999267,00000077,-40,-64228,92,18,-8,1051*c06989a6
%RAWIMUSA,2283,41735.470;2283,41735.469999267,00000077,113,-64250,106,18,-9,-164*dab98d32
%RAWIMUSA,2283,41735.480;2283,41735.479999267,00000077,-25,-64227,112,-9,0,-950*c47408fa
%RAWIMUSA,2283,41735.490;2283,41735.489999267,00000077,40,-64241,106,-18,8,-310*897c399b
%RAWIMUSA,2283,41735.500;2283,41735.499999267,00000077,58,-64244,99,0,-8,850*d6c77ff5
%RAWIMUSA,2283,41735.510;2283,41735.509999267,00000077,-35,-64224,104,18,-8,951*5fc1e250
%RAWIMUSA,2283,41735.520;2283,41735.519999267,00000077,112,-64249,115,9,0,-978*63b6189b
%RAWIMUSA,2283,41735.530;2283,41735.529999267,00000077,-13,-64230,104,-18,0,-987*8b011da8
%RAWIMUSA,2283,41735.540;2283,41735.539999267,00000077,15,-64239,100,-8,0,649*a2707e33
%RAWIMUSA,2283,41735.550;2283,41735.549999267,00000077,91,-64251,102,18,-17,859*b0970b86
%RAWIMUSA,2283,41735.560;2283,41735.559999267,00000077,-39,-64226,109,18,-9,9*d93a7de4
%RAWIMUSA,2283,41735.570;2283,41735.569999267,00000077,92,-64250,107,-18,8,-950*67c4de9a
%RAWIMUSA,2283,41735.580;2283,41735.579999267,00000077,-1,-64232,97,-18,8,-484*cc55fe3f
%RAWIMUSA,2283,41735.590;2283,41735.589999267,00000077,7,-64229,104,9,-8,1060*c1523b93
%RAWIMUSA,2283,41735.600;2283,41735.599999267,00000077,113,-64254,111,18,-17,841*25467f25
%RAWIMUSA,2283,41735.610;2283,41735.609999267,00000077,-59,-64225,105,0,0,-923*836b9109
%RAWIMUSA,2283,41735.620;2283,41735.619999267,00000077,74,-64249,102,-18,8,-914*f47373da
%RAWIMUSA,2283,41735.630;2283,41735.629999267,00000077,44,-64239,103,-18,-8,429*1448cae3
%RAWIMUSA,2283,41735.640;2283,41735.639999267,00000077,-14,-64225,107,18,-8,1069*95836b41
%RAWIMUSA,2283,41735.650;2283,41735.649999267,00000077,99,-64252,108,18,-9,-82*340829aa
%RAWIMUSA,2283,41735.660;2283,41735.659999267,00000077,-43,-64225,99,-9,0,-932*3be7b4a6
%RAWIMUSA,2283,41735.670;2283,41735.669999267,00000077,65,-64243,104,-18,8,-429*03a05634
%RAWIMUSA,2283,41735.680;2283,41735.679999267,00000077,55,-64244,106,0,-8,859*15a768b8
%RAWIMUSA,2283,41735.690;2283,41735.689999267,00000077,-44,-64225,104,18,-8,1051*32f17eeb
%RAWIMUSA,2283,41735.700;2283,41735.699999267,00000077,113,-64252,105,0,0,-978*cb522bf2
%RAWIMUSA,2283,41735.710;2283,41735.709999267,00000077,-17,-64228,100,-18,0,-978*f6a85be0
%RAWIMUSA,2283,41735.720;2283,41735.719999267,00000077,37,-64238,104,-8,0,539*c882575e
%RAWIMUSA,2283,41735.730;2283,41735.729999267,00000077,69,-64248,104,18,-8,859*6d8b34f1
%RAWIMUSA,2283,41735.740;2283,41735.739999267,00000077,-48,-64226,100,18,-9,128*9f90dd11
%RAWIMUSA,2283,41735.750;2283,41735.749999267,00000077,117,-64251,109,-9,0,-960*851a19eb
%RAWIMUSA,2283,41735.760;2283,41735.759999267,00000077,-5,-64234,108,-18,0,-566*1abee590
%RAWIMUSA,2283,41735.770;2283,41735.769999267,00000077,-2,-64236,103,0,0,1051*0781621d
%RAWIMUSA,2283,41735.780;2283,41735.779999267,00000077,100,-64249,105,28,-17,868*3885a7d4
%RAWIMUSA,2283,41735.790;2283,41735.789999267,00000077,-42,-64225,101,0,0,-831*4dd0b042
%RAWIMUSA,2283,41735.800;2283,41735.799999267,00000077,92,-64250,107,-18,8,-932*43372d80
%RAWIMUSA,2283,41735.810;2283,41735.809999267,00000077,17,-64237,104,-8,-8,329*16b2297a
%RAWIMUSA,2283,41735.820;2283,41735.819999267,00000077,-11,-64230,103,18,-8,1060*44d61225
%RAWIMUSA,2283,41735.830;2283,41735.829999267,00000077,112,-64253,106,18,-9,18*b8533645
%RAWIMUSA,2283,41735.840;2283,41735.839999267,00000077,-48,-64227,102,-18,8,-923*1acd5165
%RAWIMUSA,2283,41735.850;2283,41735.849999267,00000077,61,-64245,109,-18,0,-539*d04231d3
%RAWIMUSA,2283,41735.860;2283,41735.859999267,00000077,48,-64241,105,9,-8,868*957e3a16
%RAWIMUSA,2283,41735.870;2283,41735.869999267,00000077,-20,-64226,100,18,-8,1051*cc98b3e5
%RAWIMUSA,2283,41735.880;2283,41735.879999267,00000077,99,-64251,110,0,0,-877*e0d0c1d3
%RAWIMUSA,2283,41735.890;2283,41735.889999267,00000077,-33,-64228,106,-18,8,-960*30393321
%RAWIMUSA,2283,41735.900;2283,41735.899999267,00000077,42,-64241,105,-8,-8,420*645a0585
%RAWIMUSA,2283,41735.910;2283,41735.909999267,00000077,77,-64246,105,18,-17,859*e380b3a0
%RAWIMUSA,2283,41735.920;2283,41735.919999267,00000077,-42,-64225,103,18,0,237*7b6edd9c
%RAWIMUSA,2283,41735.930;2283,41735.929999267,00000077,96,-64250,110,-18,8,-987*3776dae6
%RAWIMUSA,2283,41735.940;2283,41735.939999267,00000077,-8,-64233,102,-18,0,-667*e0d81d34
%RAWIMUSA,2283,41735.950;2283,41735.949999267,00000077,27,-64237,104,9,-8,1042*b1408df0
%RAWIMUSA,2283,41735.960;2283,41735.959999267,00000077,86,-64250,106,18,-8,868*48b56369
%RAWIMUSA,2283,41735.970;2283,41735.969999267,00000077,-56,-64223,102,0,0,-703*eb830a34
%RAWIMUSA,2283,41735.980;2283,41735.979999267,00000077,103,-64249,105,-18,8,-960*cbe1d9f9
%RAWIMUSA,2283,41735.990;2283,41735.989999267,00000077,11,-64231,101,-9,-9,237*4106002b
%RAWIMUSA,2283,41736.000;2283,41735.999999267,00000077,-1,-64233,103,18,-8,1051*1804655d
%RAWIMUSA,2283,41736.010;2283,41736.009999267,00000077,97,-64250,104,18,-9,128*d4ed91ad
%RAWIMUSA,2283,41736.020;2283,41736.019999267,00000077,-47,-64225,99,-18,8,-905*8fdc3f46
%RAWIMUSA,2283,41736.030;2283,41736.029999267,00000077,92,-64248,105,-18,0,-667*279bb05f
%RAWIMUSA,2283,41736.040;2283,41736.039999267,00000077,22,-64237,105,9,-17,896*4d496bde
%RAWIMUSA,2283,41736.050;2283,41736.049999267,00000077,-16,-64231,103,18,0,1060*eeccf699
%RAWIMUSA,2283,41736.060;2283,41736.059999267,00000077,107,-64250,107,0,0,-804*e4183a55
%RAWIMUSA,2283,41736.070;2283,41736.069999267,00000077,-41,-64226,102,-27,8,-932*8e05e0f4
%RAWIMUSA,2283,41736.080;2283,41736.079999267,00000077,68,-64245,106,0,-9,292*54709a70
%RAWIMUSA,2283,41736.090;2283,41736.089999267,00000077,41,-64240,106,18,-17,877*b3a5e299
%RAWIMUSA,2283,41736.100;2283,41736.099999267,00000077,-20,-64229,105,9,0,347*5951e428
%RAWIMUSA,2283,41736.110;2283,41736.109999267,00000077,106,-64250,104,-18,8,-1005*ed7ea5ef
%RAWIMUSA,2283,41736.120;2283,41736.119999267,00000077,-37,-64229,103,-9,0,-740*d0b76abc
%RAWIMUSA,2283,41736.130;2283,41736.129999267,00000077,52,-64241,110,9,-8,1024*9ecb1392
%RAWIMUSA,2283,41736.140;2283,41736.139999267,00000077,59,-64247,105,18,-17,868*b2d98cb5
%RAWIMUSA,2283,41736.150;2283,41736.149999267,00000077,-39,-64224,101,-9,8,-585*8f7792d8
%RAWIMUSA,2283,41736.160;2283,41736.159999267,00000077,112,-64253,108,-18,8,-978*8b1dbed1
%RAWIMUSA,2283,41736.170;2283,41736.169999267,00000077,-22,-64229,110,-9,-18,164*21d92919
%RAWIMUSA,2283,41736.180;2283,41736.179999267,00000077,24,-64235,102,18,-8,1042*cbc962f2
%RAWIMUSA,2283,41736.190;2283,41736.189999267,00000077,73,-64249,91,18,0,201*5374abf0
%RAWIMUSA,2283,41736.200;2283,41736.199999267,00000077,-34,-64226,111,-18,8,-886*075eaebe
%RAWIMUSA,2283,41736.210;2283,41736.209999267,00000077,97,-64245,119,-18,-9,-786*3d302aad
%RAWIMUSA,2283,41736.220;2283,41736.219999267,00000077,-6,-64236,93,9,-8,896*5924d000
%RAWIMUSA,2283,41736.230;2283,41736.229999267,00000077,7,-64233,94,18,-8,1060*43add67b
%RAWIMUSA,2283,41736.240;2283,41736.239999267,00000077,106,-64251,114,0,0,-713*cec83a5f
%RAWIMUSA,2283,41736.250;2283,41736.249999267,00000077,-50,-64225,114,-18,8,-905*47b5c66f
%RAWIMUSA,2283,41736.260;2283,41736.259999267,00000077,74,-64248,98,-9,-18,164*01184151
%RAWIMUSA,2283,41736.270;2283,41736.269999267,00000077,31,-64237,94,18,-8,887*345dfad2
%RAWIMUSA,2283,41736.280;2283,41736.279999267,00000077,-4,-64230,112,9,0,457*b323621d
%RAWIMUSA,2283,41736.290;2283,41736.289999267,00000077,100,-64247,114,-9,0,-1024*4f08fc4c
%RAWIMUSA,2283,41736.300;2283,41736.299999267,00000077,-53,-64228,91,-18,0,-813*c6455372
%RAWIMUSA,2283,41736.310;2283,41736.309999267,00000077,81,-64249,99,18,-8,996*2c4445e9
%RAWIMUSA,2283,41736.320;2283,41736.319999267,00000077,42,-64235,112,9,-8,887*b15f43f2
%RAWIMUSA,2283,41736.330;2283,41736.329999267,00000077,-24,-64230,106,0,8,-475*2f062fab
%RAWIMUSA,2283,41736.340;2283,41736.339999267,00000077,98,-64251,104,-27,0,-1005*ba0a3616
%RAWIMUSA,2283,41736.350;2283,41736.349999267,00000077,-34,-64226,99,0,-18,100*90e2ba61
%RAWIMUSA,2283,41736.360;2283,41736.359999267,00000077,61,-64244,111,18,-8,1024*b628d0c3
%RAWIMUSA,2283,41736.370;2283,41736.369999267,00000077,60,-64244,107,9,0,320*f616d0b7
%RAWIMUSA,2283,41736.380;2283,41736.379999267,00000077,-53,-64225,99,-18,8,-868*f32edd28
%RAWIMUSA,2283,41736.390;2283,41736.389999267,00000077,116,-64250,104,-18,-9,-923*791a83d2
%RAWIMUSA,2283,41736.400;2283,41736.399999267,00000077,-3,-64230,105,18,-8,932*53aaee98
%RAWIMUSA,2283,41736.410;2283,41736.409999267,00000077,11,-64234,104,18,0,1042*f6e0763d
%RAWIMUSA,2283,41736.420;2283,41736.419999267,00000077,83,-64249,106,-9,0,-612*31225004
%RAWIMUSA,2283,41736.430;2283,41736.429999267,00000077,-39,-64227,99,-18,0,-877*c14dc9ff
%RAWIMUSA,2283,41736.440;2283,41736.439999267,00000077,107,-64248,109,0,-9,36*9c4f530c
%RAWIMUSA,2283,41736.450;2283,41736.449999267,00000077,-6,-64233,105,18,-8,896*9c42b9ad
%RAWIMUSA,2283,41736.460;2283,41736.459999267,00000077,-1,-64234,101,9,0,567*a822d2bd
%RAWIMUSA,2283,41736.470;2283,41736.469999267,00000077,108,-64249,107,-18,8,-1042*016375f1
%RAWIMUSA,2283,41736.480;2283,41736.479999267,00000077,-46,-64227,103,-18,-9,-896*2c5d91bf
%RAWIMUSA,2283,41736.490;2283,41736.489999267,00000077,76,-64246,106,18,-8,978*fe42e681
%RAWIMUSA,2283,41736.500;2283,41736.499999267,00000077,35,-64240,102,18,0,887*5eea08d8
%RAWIMUSA,2283,41736.510;2283,41736.509999267,00000077,-12,-64226,100,-18,0,-365*a7fd2ef4
%RAWIMUSA,2283,41736.520;2283,41736.519999267,00000077,106,-64250,109,-9,0,-1024*7e14fedd
%RAWIMUSA,2283,41736.530;2283,41736.529999267,00000077,-45,-64226,106,0,-9,9*b774d6f6
%RAWIMUSA,2283,41736.540;2283,41736.539999267,00000077,57,-64246,104,9,-8,1005*132c3dde
%RAWIMUSA,2283,41736.550;2283,41736.549999267,00000077,60,-64241,104,9,9,420*ddc2a4db
%RAWIMUSA,2283,41736.560;2283,41736.559999267,00000077,-30,-64227,103,-18,0,-850*b2bd3930
%RAWIMUSA,2283,41736.570;2283,41736.569999267,00000077,98,-64251,107,-18,-10,-1005*42f95e76
%RAWIMUSA,2283,41736.580;2283,41736.579999267,00000077,-33,-64228,102,18,-8,914*230ad2f5
%RAWIMUSA,2283,41736.590;2283,41736.589999267,00000077,58,-64241,107,18,0,1015*941b8049
%RAWIMUSA,2283,41736.600;2283,41736.599999267,00000077,60,-64244,105,-9,0,-502*1da6cc89
%RAWIMUSA,2283,41736.610;2283,41736.609999267,00000077,-42,-64225,103,-18,0,-877*2f644ab7
%RAWIMUSA,2283,41736.620;2283,41736.619999267,00000077,109,-64250,108,0,-18,-91*da3f08b9
%RAWIMUSA,2283,41736.630;2283,41736.629999267,00000077,-14,-64229,103,28,-8,923*ed6cb270
%RAWIMUSA,2283,41736.640;2283,41736.639999267,00000077,30,-64238,106,0,9,640*23da657b
%RAWIMUSA,2283,41736.650;2283,41736.649999267,00000077,70,-64247,104,-18,0,-1051*f86db473
%RAWIMUSA,2283,41736.660;2283,41736.659999267,00000077,-35,-64221,100,-18,-9,-877*9fe906ce
%RAWIMUSA,2283,41736.670;2283,41736.669999267,00000077,106,-64250,102,18,-8,850*b3f3bd46
%RAWIMUSA,2283,41736.680;2283,41736.679999267,00000077,-3,-64234,110,18,0,914*0dca59b3
%RAWIMUSA,2283,41736.690;2283,41736.689999267,00000077,7,-64235,106,-9,0,-274*29465ebe
%RAWIMUSA,2283,41736.700;2283,41736.699999267,00000077,91,-64250,101,-18,-10,-1051*dd40a0cf
%RAWIMUSA,2283,41736.710;2283,41736.709999267,00000077,-39,-64227,100,9,-9,-63*451a6f0e
%RAWIMUSA,2283,41736.720;2283,41736.719999267,00000077,87,-64248,112,18,0,969*562c5e7e
%RAWIMUSA,2283,41736.730;2283,41736.729999267,00000077,10,-64236,110,0,0,548*671b58e4
%RAWIMUSA,2283,41736.740;2283,41736.739999267,00000077,2,-64232,98,-18,8,-859*e96b0f69
%RAWIMUSA,2283,41736.750;2283,41736.749999267,00000077,103,-64251,102,-18,-19,-1024*26f6c7f1
%RAWIMUSA,2283,41736.760;2283,41736.759999267,00000077,-52,-64226,107,18,-8,850*330c9867
%RAWIMUSA,2283,41736.770;2283,41736.769999267,00000077,78,-64247,112,18,0,978*ae1bf036
%RAWIMUSA,2283,41736.780;2283,41736.779999267,00000077,33,-64241,99,-18,8,-383*fd61af7b
%RAWIMUSA,2283,41736.790;2283,41736.789999267,00000077,-12,-64228,95,-9,-9,-859*985a9000
%RAWIMUSA,2283,41736.800;2283,41736.799999267,00000077,101,-64253,111,9,-9,-237*daa6ca3d
%RAWIMUSA,2283,41736.810;2283,41736.809999267,00000077,-43,-64224,106,9,-8,978*6edbccaf
%RAWIMUSA,2283,41736.820;2283,41736.819999267,00000077,62,-64245,101,9,0,722*b3098e32
%RAWIMUSA,2283,41736.830;2283,41736.829999267,00000077,51,-64242,100,-18,0,-1042*574a6be8
%RAWIMUSA,2283,41736.840;2283,41736.839999267,00000077,-33,-64227,109,-9,-9,-850*d39e2b61
%RAWIMUSA,2283,41736.850;2283,41736.849999267,00000077,106,-64250,109,9,-8,713*669635a1
%RAWIMUSA,2283,41736.860;2283,41736.859999267,00000077,-25,-64229,98,18,9,960*8c0e2747
%RAWIMUSA,2283,41736.870;2283,41736.869999267,00000077,44,-64240,103,-18,8,-191*0ecf89f5
%RAWIMUSA,2283,41736.880;2283,41736.879999267,00000077,63,-64246,107,-18,-10,-1042*60a637f7
%RAWIMUSA,2283,41736.890;2283,41736.889999267,00000077,-41,-64223,108,9,-18,-137*f5c82243
%RAWIMUSA,2283,41736.900;2283,41736.899999267,00000077,110,-64251,106,18,0,923*d1d467dd
%RAWIMUSA,2283,41736.910;2283,41736.909999267,00000077,-9,-64229,100,0,0,695*c99ad995
%RAWIMUSA,2283,41736.920;2283,41736.919999267,00000077,22,-64237,108,-18,8,-868*a8cfe69f
%RAWIMUSA,2283,41736.930;2283,41736.929999267,00000077,82,-64250,114,-9,-19,-1042*2d2a6596
%RAWIMUSA,2283,41736.940;2283,41736.939999267,00000077,-45,-64227,101,18,-8,777*3899835a
%RAWIMUSA,2283,41736.950;2283,41736.949999267,00000077,95,-64246,96,9,9,960*aa1c7c86
%RAWIMUSA,2283,41736.960;2283,41736.959999267,00000077,12,-64237,104,-9,0,-265*bd62cfe3
%RAWIMUSA,2283,41736.970;2283,41736.969999267,00000077,0,-64232,112,-18,0,-859*51a06a8a
%RAWIMUSA,2283,41736.980;2283,41736.979999267,00000077,93,-64250,108,9,-18,-356*e64e207e
%RAWIMUSA,2283,41736.990;2283,41736.989999267,00000077,-43,-64227,88,18,0,1005*5a40acb7
%RAWIMUSA,2283,41737.000;2283,41736.999999267,00000077,83,-64248,102,0,0,804*5883fa23
%RAWIMUSA,2283,41737.010;2283,41737.009999267,00000077,28,-64235,116,-18,0,-1033*613de22b
%RAWIMUSA,2283,41737.020;2283,41737.019999267,00000077,-26,-64228,108,-9,-9,-850*43a9d47e
%RAWIMUSA,2283,41737.030;2283,41737.029999267,00000077,121,-64253,99,18,-8,576*8a22e459
%RAWIMUSA,2283,41737.040;2283,41737.039999267,00000077,-48,-64228,99,9,9,987*8593153e
%RAWIMUSA,2283,41737.050;2283,41737.049999267,00000077,62,-64246,116,-18,0,-109*b0658731
%RAWIMUSA,2283,41737.060;2283,41737.059999267,00000077,41,-64243,107,-18,-10,-1042*4454e4c5
%RAWIMUSA,2283,41737.070;2283,41737.069999267,00000077,-22,-64226,94,18,-9,-237*a9da93a7
%RAWIMUSA,2283,41737.080;2283,41737.079999267,00000077,108,-64250,102,18,0,905*e78eaf01
%RAWIMUSA,2283,41737.090;2283,41737.089999267,00000077,-37,-64228,109,-8,0,841*4f033a7c
%RAWIMUSA,2283,41737.100;2283,41737.099999267,00000077,52,-64240,111,-18,0,-896*f0cf0e60
%RAWIMUSA,2283,41737.110;2283,41737.109999267,00000077,55,-64241,98,0,-19,-1051*bd74c720
%RAWIMUSA,2283,41737.120;2283,41737.119999267,00000077,-31,-64226,99,18,0,695*053ccbb2
%RAWIMUSA,2283,41737.130;2283,41737.129999267,00000077,110,-64251,114,9,0,914*93cc32fd
%RAWIMUSA,2283,41737.140;2283,41737.139999267,00000077,-25,-64229,107,-18,0,-109*883ba436
%RAWIMUSA,2283,41737.150;2283,41737.149999267,00000077,39,-64239,97,-18,-9,-896*9fbfd03a
%RAWIMUSA,2283,41737.160;2283,41737.159999266,00000077,71,-64247,100,18,-9,-466*b97ce051
%RAWIMUSA,2283,41737.170;2283,41737.169999266,00000077,-36,-64226,110,9,0,1042*a589acb8
%RAWIMUSA,2283,41737.180;2283,41737.179999266,00000077,98,-64250,110,0,0,850*e92b351d
%RAWIMUSA,2283,41737.190;2283,41737.189999266,00000077,-13,-64229,96,-18,0,-987*5ab3a56b
%RAWIMUSA,2283,41737.200;2283,41737.199999266,00000077,30,-64237,99,0,-9,-868*24628739
%RAWIMUSA,2283,41737.210;2283,41737.209999266,00000077,80,-64248,113,9,-8,457*c810c943
%RAWIMUSA,2283,41737.220;2283,41737.219999266,00000077,-50,-64225,110,18,0,1033*e026979b
%RAWIMUSA,2283,41737.230;2283,41737.229999266,00000077,100,-64250,99,-18,9,-54*3507681f
%RAWIMUSA,2283,41737.240;2283,41737.239999266,00000077,7,-64233,101,-18,-19,-1005*bdc0de18
%RAWIMUSA,2283,41737.250;2283,41737.249999266,00000077,3,-64230,108,18,-9,-338*d86fbb11
%RAWIMUSA,2283,41737.260;2283,41737.259999266,00000077,96,-64250,113,9,0,868*a06a1673
%RAWIMUSA,2283,41737.270;2283,41737.269999266,00000077,-50,-64224,98,-8,9,987*6081e52d
%RAWIMUSA,2283,41737.280;2283,41737.279999266,00000077,83,-64248,102,-18,-9,-941*499893cf
%RAWIMUSA,2283,41737.290;2283,41737.289999266,00000077,27,-64238,110,0,-10,-1024*7cc8f56c
%RAWIMUSA,2283,41737.300;2283,41737.299999266,00000077,-12,-64228,105,18,-8,612*633873a6
%RAWIMUSA,2283,41737.310;2283,41737.309999266,00000077,105,-64252,103,9,9,887*92953d41
%RAWIMUSA,2283,41737.320;2283,41737.319999266,00000077,-48,-64225,98,-18,0,27*45b61a6f
%RAWIMUSA,2283,41737.330;2283,41737.329999266,00000077,65,-64244,111,-18,-55,-923*e2017fc9
%RAWIMUSA,2283,41737.340;2283,41737.339999266,00000077,25,-64242,115,18,-184,-575*67086841
%RAWIMUSA,2283,41737.350;2283,41737.349999266,00000077,-36,-64226,108,18,-357,1051*fcf9ecc9
%RAWIMUSA,2283,41737.360;2283,41737.359999266,00000077,96,-64252,101,-8,-468,896*32d8f8c5
%RAWIMUSA,2283,41737.370;2283,41737.369999266,00000077,-28,-64228,117,-18,-579,-923*5eaf65ba
%RAWIMUSA,2283,41737.380;2283,41737.379999266,00000077,30,-64240,117,0,-690,-886*16a7cfaf
%RAWIMUSA,2283,41737.390;2283,41737.389999266,00000077,58,-64248,103,18,-725,348*53942da7
%RAWIMUSA,2283,41737.400;2283,41737.399999266,00000077,-44,-64225,102,9,-798,1052*192c8429
%RAWIMUSA,2283,41737.410;2283,41737.409999266,00000077,93,-64249,110,-18,-882,28*da84736b
%RAWIMUSA,2283,41737.420;2283,41737.419999266,00000077,-12,-64231,118,-18,-965,-986*ca50a9bb
%RAWIMUSA,2283,41737.430;2283,41737.429999266,00000077,13,-64236,113,18,-1057,-447*04afc277
%RAWIMUSA,2283,41737.440;2283,41737.439999266,00000077,76,-64249,102,18,-1102,869*0a343d6f
%RAWIMUSA,2283,41737.450;2283,41737.449999266,00000077,-49,-64225,100,-8,-1175,1034*354648e6
%RAWIMUSA,2283,41737.460;2283,41737.459999266,00000077,83,-64247,119,-18,-1315,-876*b7d40bd9
%RAWIMUSA,2283,41737.470;2283,41737.469999266,00000077,7,-64232,112,0,-1379,-995*962e7ed6
%RAWIMUSA,2283,41737.480;2283,41737.479999266,00000077,-8,-64234,107,18,-1451,485*6bfa5a1a
%RAWIMUSA,2283,41737.490;2283,41737.489999266,00000077,81,-64246,111,9,-1552,869*048c97eb
%RAWIMUSA,2283,41737.500;2283,41737.499999266,00000077,-43,-64227,99,-18,-1590,147*c45672f4
%RAWIMUSA,2283,41737.510;2283,41737.509999266,00000077,68,-64249,115,-18,-1701,-931*1c820e26
%RAWIMUSA,2283,41737.520;2283,41737.519999266,00000077,15,-64239,113,18,-1802,-648*cdd9c3e0
%RAWIMUSA,2283,41737.530;2283,41737.529999266,00000077,-8,-64228,106,18,-1828,1052*a334d214
%RAWIMUSA,2283,41737.540;2283,41737.539999266,00000077,84,-64251,110,-8,-1957,879*5d101be2
%RAWIMUSA,2283,41737.550;2283,41737.549999266,00000077,-40,-64223,105,-9,-2041,-794*d7dfa3d7
%RAWIMUSA,2283,41737.560;2283,41737.559999266,00000077,53,-64246,120,0,-2087,-903*34d543a8
%RAWIMUSA,2283,41737.570;2283,41737.569999266,00000077,32,-64243,113,18,-2196,248*a9d34848
%RAWIMUSA,2283,41737.580;2283,41737.579999266,00000077,-22,-64225,94,0,-2232,1071*c9353885
%RAWIMUSA,2283,41737.590;2283,41737.589999266,00000077,91,-64251,115,-8,-2334,102*131b06c4
%RAWIMUSA,2283,41737.600;2283,41737.599999266,00000077,-36,-64225,115,-18,-2454,-940*e856e114
%RAWIMUSA,2283,41737.610;2283,41737.609999266,00000077,52,-64242,103,18,-2463,-565*3871d6b6
%RAWIMUSA,2283,41737.620;2283,41737.619999266,00000077,36,-64246,119,19,-2637,870*ae0b5a6f
%RAWIMUSA,2283,41737.630;2283,41737.629999266,00000077,-32,-64224,93,-8,-2664,1053*6a22629f
%RAWIMUSA,2283,41737.640;2283,41737.639999266,00000077,92,-64251,109,-18,-2730,-793*9e78012a
%RAWIMUSA,2283,41737.650;2283,41737.649999266,00000077,-16,-64227,117,0,-2822,-976*8be4781f
%RAWIMUSA,2283,41737.660;2283,41737.659999266,00000077,22,-64239,106,18,-2885,376*53e44bd9
%RAWIMUSA,2283,41737.670;2283,41737.669999266,00000077,66,-64249,107,0,-2958,879*2c708f17
%RAWIMUSA,2283,41737.680;2283,41737.679999266,00000077,-51,-64223,110,-17,-3088,276*e119c591
%RAWIMUSA,2283,41737.690;2283,41737.689999266,00000077,83,-64253,110,-9,-3134,-948*035f1dee
%RAWIMUSA,2283,41737.700;2283,41737.699999266,00000077,1,-64230,113,9,-3217,-738*56674aaf
%RAWIMUSA,2283,41737.710;2283,41737.709999266,00000077,0,-64235,107,19,-3335,1062*2efe213d
%RAWIMUSA,2283,41737.720;2283,41737.719999266,00000077,86,-64248,105,-8,-3372,879*96b041e2
%RAWIMUSA,2283,41737.730;2283,41737.729999266,00000077,-51,-64225,119,-18,-3484,-674*a58100c0
%RAWIMUSA,2283,41737.740;2283,41737.739999266,00000077,66,-64250,111,0,-3557,-921*d3cf6c16
%RAWIMUSA,2283,41737.750;2283,41737.749999266,00000077,25,-64238,102,18,-3593,157*3c27df18
%RAWIMUSA,2283,41737.760;2283,41737.759999266,00000077,-24,-64232,104,0,-3703,1063*d4371503
%RAWIMUSA,2283,41737.770;2283,41737.769999266,00000077,102,-64248,113,-8,-3805,203*8ab0794a
%RAWIMUSA,2283,41737.780;2283,41737.779999266,00000077,-48,-64231,118,-18,-3861,-930*ee5c66e7
%RAWIMUSA,2283,41737.790;2283,41737.789999266,00000077,44,-64244,116,18,-3962,-683*a55f3cac
%RAWIMUSA,2283,41737.800;2283,41737.799999266,00000077,43,-64240,88,19,-4006,880*868381b9
%RAWIMUSA,2283,41737.810;2283,41737.809999266,00000077,-27,-64228,104,-17,-4080,1063*d641d768
%RAWIMUSA,2283,41737.820;2283,41737.819999266,00000077,90,-64247,127,-18,-4210,-710*9aa05a4f
%RAWIMUSA,2283,41737.830;2283,41737.829999266,00000077,-21,-64228,105,9,-4256,-948*44091dae
%RAWIMUSA,2283,41737.840;2283,41737.839999266,00000077,24,-64242,102,18,-4338,258*6a426c03
%RAWIMUSA,2283,41737.850;2283,41737.849999266,00000077,53,-64250,106,0,-4447,871*7f911224
%RAWIMUSA,2283,41737.860;2283,41737.859999266,00000077,-27,-64224,101,-17,-4457,414*be984146
%RAWIMUSA,2283,41737.870;2283,41737.869999266,00000077,88,-64251,131,-8,-4587,-966*8842cb84
%RAWIMUSA,2283,41737.880;2283,41737.879999266,00000077,-18,-64230,102,18,-4679,-838*252aaed6
%RAWIMUSA,2283,41737.890;2283,41737.889999266,00000077,15,-64233,103,19,-4732,1063*5d95d9f1
%RAWIMUSA,2283,41737.900;2283,41737.899999266,00000077,71,-64250,112,-17,-4852,871*50f0b2bd
%RAWIMUSA,2283,41737.910;2283,41737.909999266,00000077,-45,-64224,108,-18,-4926,-536*19189588
%RAWIMUSA,2283,41737.920;2283,41737.919999266,00000077,83,-64249,109,9,-4936,-929*e2d7b7cd
%RAWIMUSA,2283,41737.930;2283,41737.929999266,00000077,-3,-64235,111,19,-5091,76*afd57698
%RAWIMUSA,2283,41737.940;2283,41737.939999266,00000077,0,-64234,100,0,-5137,1063*18ad48d8
%RAWIMUSA,2283,41737.950;2283,41737.949999266,00000077,86,-64250,110,-17,-5220,305*0f89988b
%RAWIMUSA,2283,41737.960;2283,41737.959999266,00000077,-47,-64224,111,0,-5340,-911*1724b0bf
%RAWIMUSA,2283,41737.970;2283,41737.969999266,00000077,69,-64247,111,18,-5368,-801*fba7b6bb
%RAWIMUSA,2283,41737.980;2283,41737.979999266,00000077,29,-64242,109,10,-5477,890*11972312
%RAWIMUSA,2283,41737.990;2283,41737.989999266,00000077,-31,-64224,108,-17,-5550,1082*e8d13e83
%RAWIMUSA,2283,41738.000;2283,41737.999999266,00000077,101,-64254,100,-17,-5588,-618*1200d081
%RAWIMUSA,2283,41738.010;2283,41738.009999266,00000077,-41,-64226,117,9,-5745,-938*ce71680c
%RAWIMUSA,2283,41738.020;2283,41738.019999266,00000077,45,-64243,107,19,-5799,159*b36c0a18
%RAWIMUSA,2283,41738.030;2283,41738.029999266,00000077,47,-64241,105,0,-5835,872*d794309e
%RAWIMUSA,2283,41738.040;2283,41738.039999266,00000077,-43,-64228,112,-17,-5983,515*8ab8742b
%RAWIMUSA,2283,41738.050;2283,41738.049999266,00000077,97,-64247,105,-8,-6011,-974*26cee7ff
%RAWIMUSA,2283,41738.060;2283,41738.059999266,00000077,-17,-64228,108,18,-6085,-901*a625178a
%RAWIMUSA,2283,41738.070;2283,41738.069999266,00000077,20,-64239,114,10,-6203,1055*ee3e95cb
%RAWIMUSA,2283,41738.080;2283,41738.079999266,00000077,65,-64248,106,-8,-6267,872*e46cb103
%RAWIMUSA,2283,41738.090;2283,41738.089999266,00000077,-54,-64227,107,-17,-6351,-434*6b22a384
%RAWIMUSA,2283,41738.100;2283,41738.099999266,00000077,96,-64249,110,9,-6434,-956*5078f82d
%RAWIMUSA,2283,41738.110;2283,41738.109999266,00000077,0,-64233,112,19,-6498,-5*a06bc66c
%RAWIMUSA,2283,41738.120;2283,41738.119999266,00000077,-8,-64235,113,-8,-6598,1055*daacf27e
%RAWIMUSA,2283,41738.130;2283,41738.129999266,00000077,90,-64250,106,-8,-6681,397*f821c72b
%RAWIMUSA,2283,41738.140;2283,41738.139999266,00000077,-53,-64228,103,-8,-6747,-891*b2286e96
%RAWIMUSA,2283,41738.150;2283,41738.149999266,00000077,74,-64247,114,18,-6848,-919*1f51bc5f
%RAWIMUSA,2283,41738.160;2283,41738.159999266,00000077,23,-64241,106,19,-6901,900*03611cda
%RAWIMUSA,2283,41738.170;2283,41738.169999266,00000077,-16,-64229,107,-17,-6956,1083*cbfbbba6
%RAWIMUSA,2283,41738.180;2283,41738.179999266,00000077,87,-64249,114,-17,-7096,-525*765e2a21
%RAWIMUSA,2283,41738.190;2283,41738.189999266,00000077,-39,-64228,98,9,-7151,-919*5852e411
%RAWIMUSA,2283,41738.200;2283,41738.199999266,00000077,49,-64242,118,19,-7224,41*8c62a397
%RAWIMUSA,2283,41738.210;2283,41738.209999266,00000077,39,-64246,109,-8,-7324,882*11031309
%RAWIMUSA,2283,41738.220;2283,41738.219999266,00000077,-25,-64226,103,-8,-7370,635*801ae80f
%RAWIMUSA,2283,41738.230;2283,41738.229999266,00000077,84,-64253,114,0,-7454,-991*77df3381
%RAWIMUSA,2283,41738.240;2283,41738.239999266,00000077,-26,-64227,105,18,-7565,-946*fd7b5cff
%RAWIMUSA,2283,41738.250;2283,41738.249999266,00000077,31,-64238,109,10,-7591,992*d205b9b6
%RAWIMUSA,2283,41738.260;2283,41738.259999266,00000077,63,-64244,113,-17,-7719,882*d7ea6cd6
%RAWIMUSA,2283,41738.270;2283,41738.269999266,00000077,-41,-64226,111,-17,-7831,-315*84cff592
%RAWIMUSA,2283,41738.280;2283,41738.279999266,00000077,78,-64251,105,18,-7859,-946*96cc8efa
%RAWIMUSA,2283,41738.290;2283,41738.289999266,00000077,0,-64230,103,19,-7941,-104*f1ab798b
%RAWIMUSA,2283,41738.300;2283,41738.299999266,00000077,11,-64234,112,-17,-8041,1065*5616cb26
%RAWIMUSA,2283,41738.310;2283,41738.309999266,00000077,76,-64252,117,-8,-8115,498*1b3cec9d
%RAWIMUSA,2283,41738.320;2283,41738.319999266,00000077,-52,-64223,101,0,-8236,-881*6403dbc3
%RAWIMUSA,2283,41738.330;2283,41738.329999266,00000077,76,-64250,94,19,-8254,-936*ef307c33
%RAWIMUSA,2283,41738.340;2283,41738.339999266,00000077,17,-64237,116,10,-8363,800*6c3d2964
%RAWIMUSA,2283,41738.350;2283,41738.349999266,00000077,-11,-64227,114,-17,-8436,1084*bf7a7b47
%RAWIMUSA,2283,41738.360;2283,41738.359999266,00000077,94,-64251,103,-8,-8493,-415*346c168f
%RAWIMUSA,2283,41738.370;2283,41738.369999266,00000077,-57,-64225,104,19,-8622,-908*a75ad6c8
%RAWIMUSA,2283,41738.380;2283,41738.379999266,00000077,62,-64245,108,19,-8685,-67*b3cde35c
%RAWIMUSA,2283,41738.390;2283,41738.389999266,00000077,47,-64243,116,-8,-8721,883*08fa5006
%RAWIMUSA,2283,41738.400;2283,41738.399999266,00000077,-40,-64227,110,-17,-8868,737*a9ec6465
%RAWIMUSA,2283,41738.410;2283,41738.409999266,00000077,97,-64251,101,0,-8925,-981*e4db50c4
%RAWIMUSA,2283,41738.420;2283,41738.419999266,00000077,-31,-64229,105,19,-8971,-936*38cd8cc2
%RAWIMUSA,2283,41738.430;2283,41738.429999266,00000077,34,-64239,118,1,-9089,883*b040e492
%RAWIMUSA,2283,41738.440;2283,41738.439999266,00000077,52,-64247,114,-17,-9153,883*56123285
%RAWIMUSA,2283,41738.450;2283,41738.449999266,00000077,-38,-64226,102,-8,-9246,-186*9de97152
%RAWIMUSA,2283,41738.460;2283,41738.459999266,00000077,98,-64250,104,19,-9329,-963*acec9ac2
%RAWIMUSA,2283,41738.470;2283,41738.469999266,00000077,-20,-64230,107,19,-9356,-186*b6bc3c4d
%RAWIMUSA,2283,41738.480;2283,41738.479999266,00000077,9,-64234,122,-17,-9484,1066*c43ec902
%RAWIMUSA,2283,41738.490;2283,41738.489999266,00000077,76,-64250,104,-17,-9585,591*8c884e28
%RAWIMUSA,2283,41738.500;2283,41738.499999266,00000077,-47,-64222,93,9,-9614,-853*08cf187d
%RAWIMUSA,2283,41738.510;2283,41738.509999266,00000077,86,-64249,118,19,-9752,-944*24a62e8b
%RAWIMUSA,2283,41738.520;2283,41738.519999266,00000077,7,-64234,113,10,-9806,719*6f448512
%RAWIMUSA,2283,41738.530;2283,41738.529999266,00000077,0,-64231,97,-17,-9833,1085*4473b7f0
%RAWIMUSA,2283,41738.540;2283,41738.539999266,00000077,72,-64253,108,-17,-10009,-332*ba119026
%RAWIMUSA,2283,41738.550;2283,41738.549999266,00000077,-45,-64225,105,19,-10019,-880*521fdc94
%RAWIMUSA,2283,41738.560;2283,41738.559999266,00000077,79,-64248,117,19,-10101,-185*bc42be38
%RAWIMUSA,2283,41738.570;2283,41738.569999266,00000077,20,-64239,112,-8,-10210,902*f9d0d1c4
%RAWIMUSA,2283,41738.580;2283,41738.579999266,00000077,-26,-64226,93,-17,-10256,847*32729494
%RAWIMUSA,2283,41738.590;2283,41738.589999266,00000077,85,-64252,117,0,-10396,-999*bbd0f5e2
%RAWIMUSA,2283,41738.600;2283,41738.599999266,00000077,-28,-64227,115,19,-10451,-926*4168e59a
%RAWIMUSA,2283,41738.610;2283,41738.609999266,00000077,46,-64242,105,1,-10486,783*aec82103
%RAWIMUSA,2283,41738.620;2283,41738.619999266,00000077,33,-64245,107,-17,-10624,875*ef1f4033
%RAWIMUSA,2283,41738.630;2283,41738.629999266,00000077,-36,-64226,97,-8,-10698,-93*d49969f4
%RAWIMUSA,2283,41738.640;2283,41738.639999266,00000077,99,-64249,120,19,-10745,-971*c28ad8ee
%RAWIMUSA,2283,41738.650;2283,41738.649999266,00000077,-24,-64228,116,19,-10845,-267*6d78f315
%RAWIMUSA,2283,41738.660;2283,41738.659999266,00000077,17,-64236,99,-17,-10927,1058*417d87f2
%RAWIMUSA,2283,41738.670;2283,41738.669999266,00000077,61,-64249,101,-17,-11010,710*b1446513
%RAWIMUSA,2283,41738.680;2283,41738.679999266,00000077,-43,-64224,110,10,-11122,-852*95f6abd1
%RAWIMUSA,2283,41738.690;2283,41738.689999266,00000077,100,-64251,116,19,-11140,-944*982b8689
%RAWIMUSA,2283,41738.700;2283,41738.699999266,00000077,-16,-64234,112,1,-11249,628*a8b1ade9
%RAWIMUSA,2283,41738.710;2283,41738.709999266,00000077,-7,-64229,99,-17,-11368,1095*cd56e98a
%RAWIMUSA,2283,41738.720;2283,41738.719999266,00000077,93,-64251,103,-8,-11388,-230*b32a30ab
%RAWIMUSA,2283,41738.730;2283,41738.729999266,00000077,-48,-64224,123,19,-11498,-879*9c84e7d2
%RAWIMUSA,2283,41738.740;2283,41738.739999266,00000077,74,-64248,108,19,-11562,-294*27844352
%RAWIMUSA,2283,41738.750;2283,41738.749999266,00000077,6,-64236,94,-17,-11635,903*8dbe6bc2
%RAWIMUSA,2283,41738.760;2283,41738.759999266,00000077,-17,-64229,109,-17,-11773,958*bb321e79
%RAWIMUSA,2283,41738.770;2283,41738.769999266,00000077,104,-64251,119,10,-11811,-998*445be401
%RAWIMUSA,2283,41738.780;2283,41738.779999266,00000077,-42,-64226,110,19,-11811,-897*afcf826f
%RAWIMUSA,2283,41738.790;2283,41738.789999266,00000077,32,-64245,104,1,-11994,665*84a3b843
%RAWIMUSA,2283,41738.800;2283,41738.799999266,00000077,53,-64243,100,-17,-12058,894*eb82c5df
%RAWIMUSA,2283,41738.810;2283,41738.809999266,00000077,-26,-64228,112,-8,-12150,35*ce4d7330
%RAWIMUSA,2283,41738.820;2283,41738.819999266,00000077,88,-64248,119,19,-12243,-979*3393b5d6
%RAWIMUSA,2283,41738.830;2283,41738.829999266,00000077,-32,-64229,99,19,-12252,-376*ebe5a066
%RAWIMUSA,2283,41738.840;2283,41738.839999266,00000077,23,-64237,103,-17,-12370,1059*1d10507f
%RAWIMUSA,2283,41738.850;2283,41738.849999266,00000077,72,-64248,108,-7,-12490,803*1ddb21e3
%RAWIMUSA,2283,41738.860;2283,41738.859999266,00000077,-47,-64225,113,0,-12519,-833*bedeb48b
%RAWIMUSA,2283,41738.870;2283,41738.869999266,00000077,82,-64250,113,28,-12592,-961*3946ffb5
%RAWIMUSA,2283,41738.880;2283,41738.879999266,00000077,-12,-64232,103,1,-12711,547*e3855f76
%RAWIMUSA,2283,41738.890;2283,41738.889999266,00000077,16,-64235,107,-17,-12765,1068*f3a2d251
%RAWIMUSA,2283,41738.900;2283,41738.899999266,00000077,73,-64249,107,-8,-12858,-129*338acf18
%RAWIMUSA,2283,41738.910;2283,41738.909999266,00000077,-53,-64224,112,19,-12932,-860*d84d09e2
%RAWIMUSA,2283,41738.920;2283,41738.919999266,00000077,76,-64249,106,19,-12978,-412*38b2425f
%RAWIMUSA,2283,41738.930;2283,41738.929999266,00000077,11,-64235,100,-17,-13133,931*346f929b
%RAWIMUSA,2283,41738.940;2283,41738.939999266,00000077,-7,-64233,110,-7,-13188,1059*eb2203a1
%RAWIMUSA,2283,41738.950;2283,41738.949999266,00000077,73,-64252,120,10,-13272,-1006*18c67101
%RAWIMUSA,2283,41738.960;2283,41738.959999266,00000077,-37,-64225,105,19,-13346,-878*cf88249b
%RAWIMUSA,2283,41738.970;2283,41738.969999266,00000077,83,-64246,93,-7,-13391,529*5e6ff976
%RAWIMUSA,2283,41738.980;2283,41738.979999266,00000077,6,-64235,107,-7,-13528,913*a92387a8
%RAWIMUSA,2283,41738.990;2283,41738.989999266,00000077,-14,-64230,114,-7,-13584,145*4ef298d9
%RAWIMUSA,2283,41739.000;2283,41738.999999266,00000077,94,-64252,107,19,-13622,-1006*6c1e58f9
%RAWIMUSA,2283,41739.010;2283,41739.009999266,00000077,-49,-64225,105,19,-13787,-430*4a23230b
%RAWIMUSA,2283,41739.020;2283,41739.019999266,00000077,58,-64247,108,-16,-13831,1023*3d31e955
%RAWIMUSA,2283,41739.030;2283,41739.029999266,00000077,33,-64238,109,-16,-13896,904*2f9afac8
%RAWIMUSA,2283,41739.040;2283,41739.039999266,00000077,-28,-64228,115,19,-14017,-805*01e9f21d
%RAWIMUSA,2283,41739.050;2283,41739.049999266,00000077,98,-64251,101,19,-14035,-997*464d8249
%RAWIMUSA,2283,41739.060;2283,41739.059999266,00000077,-42,-64227,102,-7,-14144,475*0a82b127
%RAWIMUSA,2283,41739.070;2283,41739.069999265,00000077,37,-64240,111,-7,-14245,1042*13ae03c7
%RAWIMUSA,2283,41739.080;2283,41739.079999265,00000077,66,-64244,104,-7,-14246,-18*46ebd8f0
%RAWIMUSA,2283,41739.090;2283,41739.089999265,00000077,-53,-64226,119,28,-14375,-823*cf6b4b2a
%RAWIMUSA,2283,41739.100;2283,41739.099999265,00000077,94,-64249,101,10,-14467,-548*f092da21
%RAWIMUSA,2283,41739.110;2283,41739.109999265,00000077,-27,-64229,103,-16,-14539,960*c50615aa
%RAWIMUSA,2283,41739.120;2283,41739.119999265,00000077,8,-64237,121,-16,-14668,1069*d7879405
%RAWIMUSA,2283,41739.130;2283,41739.129999265,00000077,87,-64249,107,19,-14706,-932*31e0aeb9
%RAWIMUSA,2283,41739.140;2283,41739.139999265,00000077,-57,-64227,98,19,-14752,-859*a1ea6119
%RAWIMUSA,2283,41739.150;2283,41739.149999265,00000077,80,-64250,114,-7,-14889,429*b12fa142
%RAWIMUSA,2283,41739.160;2283,41739.159999265,00000077,10,-64236,103,-7,-14944,941*6f586ac1
%RAWIMUSA,2283,41739.170;2283,41739.169999265,00000077,-9,-64231,114,1,-15018,237*06f8c149
%RAWIMUSA,2283,41739.180;2283,41739.179999265,00000077,81,-64252,112,19,-15138,-1014*cc32191c
%RAWIMUSA,2283,41739.190;2283,41739.189999265,00000077,-39,-64225,93,10,-15147,-511*5a8ad486
%RAWIMUSA,2283,41739.200;2283,41739.199999265,00000077,65,-64246,115,-16,-15293,1015*c5e980c3
%RAWIMUSA,2283,41739.210;2283,41739.209999265,00000077,24,-64239,118,-16,-15376,914*e50c4c43
%RAWIMUSA,2283,41739.220;2283,41739.219999265,00000077,-20,-64229,95,10,-15377,-685*c120234a
%RAWIMUSA,2283,41739.230;2283,41739.229999265,00000077,92,-64250,113,28,-15515,-996*98774b99
%RAWIMUSA,2283,41739.240;2283,41739.239999265,00000077,-37,-64228,102,-7,-15606,384*ddbc4d59
%RAWIMUSA,2283,41739.250;2283,41739.249999265,00000077,44,-64240,108,-16,-15651,1052*525b638c
%RAWIMUSA,2283,41739.260;2283,41739.259999265,00000077,37,-64243,116,1,-15772,92*49995101
%RAWIMUSA,2283,41739.270;2283,41739.269999265,00000077,-27,-64226,99,19,-15800,-840*dcc62851
%RAWIMUSA,2283,41739.280;2283,41739.279999265,00000077,97,-64250,110,10,-15901,-666*fbdc3f63
%RAWIMUSA,2283,41739.290;2283,41739.289999265,00000077,-43,-64228,110,-16,-16028,988*e62e8ec8
%RAWIMUSA,2283,41739.300;2283,41739.299999265,00000077,34,-64240,101,-7,-16047,1070*56bb981d
%RAWIMUSA,2283,41739.310;2283,41739.309999265,00000077,53,-64249,114,19,-16168,-840*8471ce68
%RAWIMUSA,2283,41739.320;2283,41739.319999265,00000077,-35,-64223,101,10,-16177,-831*cb5c54c2
%RAWIMUSA,2283,41739.330;2283,41739.329999265,00000077,102,-64251,99,-7,-16157,284*5891f431
%RAWIMUSA,2283,41739.340;2283,41739.339999265,00000077,-5,-64229,105,-7,-16120,979*19c8a973
%RAWIMUSA,2283,41739.350;2283,41739.349999265,00000077,18,-64236,100,1,-16056,339*2ff265ce
%RAWIMUSA,2283,41739.360;2283,41739.359999265,00000077,77,-64251,101,19,-16048,-1023*abe793dd
%RAWIMUSA,2283,41739.370;2283,41739.369999265,00000077,-37,-64224,100,10,-16048,-593*8fbcba68
%RAWIMUSA,2283,41739.380;2283,41739.379999265,00000077,98,-64248,107,-16,-16056,979*c81c6f82
%RAWIMUSA,2283,41739.390;2283,41739.389999265,00000077,-10,-64232,103,-7,-16074,951*25b02870
%RAWIMUSA,2283,41739.400;2283,41739.399999265,00000077,8,-64231,104,19,-16048,-593*969e5ec0
%RAWIMUSA,2283,41739.410;2283,41739.409999265,00000077,89,-64249,103,19,-16057,-1014*ed32eb21
%RAWIMUSA,2283,41739.420;2283,41739.419999265,00000077,-36,-64226,102,-7,-16075,320*62344622
%RAWIMUSA,2283,41739.430;2283,41739.429999265,00000077,86,-64248,106,-16,-16074,997*a3d7a0ac
%RAWIMUSA,2283,41739.440;2283,41739.439999265,00000077,4,-64237,105,10,-16066,238*e93b0230
%RAWIMUSA,2283,41739.450;2283,41739.449999265,00000077,-1,-64232,100,19,-16057,-822*8a77f452
%RAWIMUSA,2283,41739.460;2283,41739.459999265,00000077,100,-64249,104,1,-16066,-803*c483daae
%RAWIMUSA,2283,41739.470;2283,41739.469999265,00000077,-40,-64224,102,-16,-16083,1034*365492b3
%RAWIMUSA,2283,41739.480;2283,41739.479999265,00000077,65,-64246,109,-7,-16074,1024*d627aa46
%RAWIMUSA,2283,41739.490;2283,41739.489999265,00000077,29,-64240,103,19,-16057,-712*e8a957bb
%RAWIMUSA,2283,41739.500;2283,41739.499999265,00000077,-12,-64228,98,19,-16066,-822*210de4b2
%RAWIMUSA,2283,41739.510;2283,41739.509999265,00000077,104,-64249,106,-7,-16075,138*abb54960
%RAWIMUSA,2283,41739.520;2283,41739.519999265,00000077,-41,-64226,100,-16,-16074,1015*d012af2e
%RAWIMUSA,2283,41739.530;2283,41739.529999265,00000077,42,-64243,103,1,-16065,403*7ff5d0dc
%RAWIMUSA,2283,41739.540;2283,41739.539999265,00000077,55,-64246,104,19,-16057,-1004*dc0dbb12
%RAWIMUSA,2283,41739.550;2283,41739.549999265,00000077,-24,-64226,102,10,-16075,-675*58e9c4d2
%RAWIMUSA,2283,41739.560;2283,41739.559999265,00000077,96,-64253,104,-16,-16074,951*e75ada22
%RAWIMUSA,2283,41739.570;2283,41739.569999265,00000077,-25,-64226,97,-7,-16074,970*6a9d41cb
%RAWIMUSA,2283,41739.580;2283,41739.579999265,00000077,30,-64239,101,19,-16066,-502*fdceb73d
%RAWIMUSA,2283,41739.590;2283,41739.589999265,00000077,84,-64248,106,19,-16067,-1023*97ed65dc
%RAWIMUSA,2283,41739.600;2283,41739.599999265,00000077,-47,-64225,99,-7,-16084,229*64609e0b
%RAWIMUSA,2283,41739.610;2283,41739.609999265,00000077,86,-64251,102,-16,-16083,988*bbefbd67
%RAWIMUSA,2283,41739.620;2283,41739.619999265,00000077,9,-64232,106,10,-16075,348*b6118aa6
%RAWIMUSA,2283,41739.630;2283,41739.629999265,00000077,1,-64235,99,19,-16057,-831*c7c35b63
%RAWIMUSA,2283,41739.640;2283,41739.639999265,00000077,85,-64251,104,10,-16094,-913*5d930199
%RAWIMUSA,2283,41739.650;2283,41739.649999265,00000077,-41,-64221,101,-16,-16065,1024*acfa1302
%RAWIMUSA,2283,41739.660;2283,41739.659999265,00000077,74,-64247,104,-16,-16083,1034*60372226
%RAWIMUSA,2283,41739.670;2283,41739.669999265,00000077,39,-64238,101,28,-16075,-602*80715ac6
%RAWIMUSA,2283,41739.680;2283,41739.679999265,00000077,-29,-64229,100,19,-16076,-822*39f6ef2f
%RAWIMUSA,2283,41739.690;2283,41739.689999265,00000077,103,-64250,106,-17,-16093,55*20f16bbc
%RAWIMUSA,2283,41739.700;2283,41739.699999265,00000077,-29,-64226,103,-16,-16083,997*4453e530
%RAWIMUSA,2283,41739.710;2283,41739.709999265,00000077,50,-64243,99,10,-16084,522*429d9c24
%RAWIMUSA,2283,41739.720;2283,41739.719999265,00000077,48,-64245,98,19,-16076,-1014*77dce586
%RAWIMUSA,2283,41739.730;2283,41739.729999265,00000077,-31,-64228,103,1,-16085,-785*fbf26f96
%RAWIMUSA,2283,41739.740;2283,41739.739999265,00000077,101,-64249,110,-7,-16093,960*963c8609
%RAWIMUSA,2283,41739.750;2283,41739.749999265,00000077,-19,-64231,93,-7,-16074,970*254e7afe
%RAWIMUSA,2283,41739.760;2283,41739.759999265,00000077,19,-64238,101,19,-16066,-374*8012de3e
%RAWIMUSA,2283,41739.770;2283,41739.769999265,00000077,75,-64247,105,19,-16085,-1014*db4b7e5f
%RAWIMUSA,2283,41739.780;2283,41739.779999265,00000077,-40,-64225,101,-17,-16084,128*4d41ddaf
%RAWIMUSA,2283,41739.790;2283,41739.789999265,00000077,92,-64248,100,-16,-16093,988*3fc5ede6
%RAWIMUSA,2283,41739.800;2283,41739.799999265,00000077,8,-64232,97,19,-16065,458*65f36fba
%RAWIMUSA,2283,41739.810;2283,41739.809999265,00000077,-2,-64234,100,19,-16076,-822*6fdb3b43
%RAWIMUSA,2283,41739.820;2283,41739.819999265,00000077,91,-64248,111,1,-16094,-1014*cbf9b55c
%RAWIMUSA,2283,41739.830;2283,41739.829999265,00000077,-37,-64224,99,-16,-16074,1043*ec58e1e9
%RAWIMUSA,2283,41739.840;2283,41739.839999265,00000077,80,-64246,98,-7,-16083,1006*4a3bbeeb
%RAWIMUSA,2283,41739.850;2283,41739.849999265,00000077,15,-64237,94,28,-16075,-492*50c51c73
%RAWIMUSA,2283,41739.860;2283,41739.859999265,00000077,-5,-64228,107,10,-16076,-822*7a03274f
%RAWIMUSA,2283,41739.870;2283,41739.869999265,00000077,101,-64248,110,-17,-16093,-72*a9fa179c
%RAWIMUSA,2283,41739.880;2283,41739.879999265,00000077,-42,-64223,96,-16,-16092,1034*31207afa
%RAWIMUSA,2283,41739.890;2283,41739.889999265,00000077,66,-64245,93,19,-16074,595*ecd9b20c
%RAWIMUSA,2283,41739.900;2283,41739.899999265,00000077,38,-64242,103,28,-16085,-1014*fa214830
%RAWIMUSA,2283,41739.910;2283,41739.909999265,00000077,-26,-64228,109,-8,-16076,-822*c56b50f1
%RAWIMUSA,2283,41739.920;2283,41739.919999265,00000077,99,-64252,101,-16,-16083,869*01a9cef6
%RAWIMUSA,2283,41739.930;2283,41739.929999265,00000077,-33,-64229,93,1,-16083,1006*0241e35a
%RAWIMUSA,2283,41739.940;2283,41739.939999265,00000077,51,-64243,96,19,-16066,-310*22c79a5a
%RAWIMUSA,2283,41739.950;2283,41739.949999265,00000077,53,-64245,107,19,-16094,-1023*f9a86001
%RAWIMUSA,2283,41739.960;2283,41739.959999265,00000077,-36,-64224,102,-17,-16084,46*31887bdd
%RAWIMUSA,2283,41739.970;2283,41739.969999265,00000077,96,-64251,100,-16,-16093,942*8ac13b03
%RAWIMUSA,2283,41739.980;2283,41739.979999265,00000077,-18,-64229,90,19,-16074,595*e5d5ad96
%RAWIMUSA,2283,41739.990;2283,41739.989999265,00000077,29,-64240,101,19,-16066,-840*5431659a
%RAWIMUSA,2283,41740.000;2283,41739.999999265,00000077,72,-64248,110,-8,-16094,-1023*ee7203aa
%RAWIMUSA,2283,41740.010;2283,41740.009999265,00000077,-44,-64224,97,-16,-16129,960*3eb3f3d0
%RAWIMUSA,2283,41740.020;2283,41740.019999265,00000077,99,-64250,97,1,-16074,979*aedd1095
%RAWIMUSA,2283,41740.030;2283,41740.029999265,00000077,1,-64230,98,19,-16075,-364*6a6ef033
%RAWIMUSA,2283,41740.040;2283,41740.039999265,00000077,5,-64232,103,19,-16085,-822*ed6a568d
%RAWIMUSA,2283,41740.050;2283,41740.049999265,00000077,80,-64252,106,-17,-16093,-191*5c999c37
%RAWIMUSA,2283,41740.060;2283,41740.059999265,00000077,-36,-64224,92,-7,-16083,1052*f4653d43
%RAWIMUSA,2283,41740.070;2283,41740.069999265,00000077,86,-64248,100,10,-16065,686*199a9048
%RAWIMUSA,2283,41740.080;2283,41740.079999265,00000077,17,-64236,101,28,-16076,-995*18ddf7d4
%RAWIMUSA,2283,41740.090;2283,41740.089999265,00000077,-21,-64230,103,-8,-16094,-822*1d6a58c7
%RAWIMUSA,2283,41740.100;2283,41740.099999265,00000077,106,-64252,104,-16,-16093,750*ab4c80cc
%RAWIMUSA,2283,41740.110;2283,41740.109999265,00000077,-33,-64226,97,1,-16074,1034*20761f19
%RAWIMUSA,2283,41740.120;2283,41740.119999265,00000077,59,-64246,100,19,-16075,-227*26260de8
%RAWIMUSA,2283,41740.130;2283,41740.129999265,00000077,40,-64243,103,19,-16094,-995*ee8447a7
%RAWIMUSA,2283,41740.140;2283,41740.139999265,00000077,-30,-64224,99,-17,-16084,-54*bb77d17b
%RAWIMUSA,2283,41740.150;2283,41740.149999265,00000077,104,-64251,103,-16,-16093,942*0d1f8e23
%RAWIMUSA,2283,41740.160;2283,41740.159999265,00000077,-29,-64228,95,19,-16074,704*c64295ce
%RAWIMUSA,2283,41740.170;2283,41740.169999265,00000077,37,-64243,98,19,-16085,-867*ec901dee
%RAWIMUSA,2283,41740.180;2283,41740.179999265,00000077,67,-64244,105,-8,-16103,-1014*3c06108b
%RAWIMUSA,2283,41740.190;2283,41740.189999265,00000077,-38,-64223,97,-16,-16083,851*0615e21b
%RAWIMUSA,2283,41740.200;2283,41740.199999265,00000077,89,-64249,99,10,-16074,970*810c1c5f
%RAWIMUSA,2283,41740.210;2283,41740.209999265,00000077,-14,-64230,97,19,-16075,-255*4fc7f6fa
%RAWIMUSA,2283,41740.220;2283,41740.219999265,00000077,21,-64236,98,10,-16076,-822*0c31dfb0
%RAWIMUSA,2283,41740.230;2283,41740.229999265,00000077,77,-64251,104,-17,-16094,-291*c0934303
%RAWIMUSA,2283,41740.240;2283,41740.239999265,00000077,-49,-64225,102,-7,-16083,1052*2838be43
%RAWIMUSA,2283,41740.250;2283,41740.249999265,00000077,95,-64249,99,20,-16074,768*314ded69
%RAWIMUSA,2283,41740.260;2283,41740.259999265,00000077,8,-64235,96,19,-16085,-977*aec16511
%RAWIMUSA,2283,41740.270;2283,41740.269999265,00000077,-3,-64231,97,-8,-16094,-822*13408ada
%RAWIMUSA,2283,41740.280;2283,41740.279999265,00000077,91,-64250,107,-16,-16093,650*5be029b3
%RAWIMUSA,2283,41740.290;2283,41740.289999265,00000077,-41,-64225,92,1,-16074,1024*520b51a4
%RAWIMUSA,2283,41740.300;2283,41740.299999265,00000077,78,-64249,97,19,-16084,-127*f1aa6035
%RAWIMUSA,2283,41740.310;2283,41740.309999265,00000077,29,-64239,102,10,-16094,-995*3184440e
%RAWIMUSA,2283,41740.320;2283,41740.319999265,00000077,-19,-64228,99,-17,-16093,-145*5bbad5e4
%RAWIMUSA,2283,41740.330;2283,41740.329999265,00000077,101,-64251,98,-7,-16074,924*3cd5f99e
%RAWIMUSA,2283,41740.340;2283,41740.339999265,00000077,-44,-64224,97,20,-16083,832*a0900bda
%RAWIMUSA,2283,41740.350;2283,41740.349999265,00000077,57,-64246,101,19,-16085,-867*fd1fe106
%RAWIMUSA,2283,41740.360;2283,41740.359999265,00000077,51,-64243,101,-8,-16085,-1023*2e9f6fbd
%RAWIMUSA,2283,41740.370;2283,41740.369999265,00000077,-29,-64227,93,-16,-16093,768*59a4f3b4
%RAWIMUSA,2283,41740.380;2283,41740.379999265,00000077,96,-64248,103,10,-16083,933*17f88432
%RAWIMUSA,2283,41740.390;2283,41740.389999265,00000077,-27,-64228,98,19,-16075,-118*3bf72ead
%RAWIMUSA,2283,41740.400;2283,41740.399999265,00000077,33,-64242,99,1,-16085,-849*bad7ce28
%RAWIMUSA,2283,41740.410;2283,41740.409999265,00000077,64,-64250,97,-7,-16103,-410*b8a8f005
%RAWIMUSA,2283,41740.420;2283,41740.419999265,00000077,-44,-64224,94,-7,-16074,1079*edb85873
%RAWIMUSA,2283,41740.430;2283,41740.429999265,00000077,99,-64249,103,20,-16083,851*63c3ceb5
%RAWIMUSA,2283,41740.440;2283,41740.439999265,00000077,-6,-64230,100,19,-16085,-968*ffcd2cea
%RAWIMUSA,2283,41740.450;2283,41740.449999265,00000077,1,-64234,97,-17,-16103,-831*a3d530e0
%RAWIMUSA,2283,41740.460;2283,41740.459999265,00000077,89,-64254,96,-7,-16093,531*24dd47a9
%RAWIMUSA,2283,41740.470;2283,41740.469999265,00000077,-42,-64223,93,10,-16065,1052*69de85c4
%RAWIMUSA,2283,41740.480;2283,41740.479999265,00000077,79,-64249,107,19,-16084,-63*fe9884f2
%RAWIMUSA,2283,41740.490;2283,41740.489999265,00000077,7,-64233,99,1,-16103,-986*f59c20e9
%RAWIMUSA,2283,41740.500;2283,41740.499999265,00000077,3,-64231,92,-7,-16084,-264*2d2a7984
%RAWIMUSA,2283,41740.510;2283,41740.509999265,00000077,86,-64252,100,-7,-16074,915*489d4dd8
%RAWIMUSA,2283,41740.520;2283,41740.519999265,00000077,-41,-64223,100,20,-16074,970*9626892c
%RAWIMUSA,2283,41740.530;2283,41740.529999265,00000077,74,-64249,99,19,-16103,-904*3d02e7a4
%RAWIMUSA,2283,41740.540;2283,41740.539999265,00000077,26,-64238,92,-8,-16094,-1014*af5043b2
%RAWIMUSA,2283,41740.550;2283,41740.549999265,00000077,-15,-64228,95,-16,-16074,677*2f1bbc5d
%RAWIMUSA,2283,41740.560;2283,41740.559999265,00000077,101,-64252,102,10,-16074,924*b6a3be5d
%RAWIMUSA,2283,41740.570;2283,41740.569999265,00000077,-42,-64227,94,19,-16084,10*4950b7d0
%RAWIMUSA,2283,41740.580;2283,41740.579999265,00000077,52,-64243,96,10,-16103,-867*414e9b68
%RAWIMUSA,2283,41740.590;2283,41740.589999265,00000077,57,-64243,98,-17,-16094,-492*ae8f2d4c
%RAWIMUSA,2283,41740.600;2283,41740.599999265,00000077,-27,-64226,98,-7,-16074,1079*1d2bbad5
%RAWIMUSA,2283,41740.610;2283,41740.609999265,00000077,87,-64253,99,20,-16074,924*4c93e111
%RAWIMUSA,2283,41740.620;2283,41740.619999265,00000077,-33,-64227,98,28,-16094,-922*3ebc384e
%RAWIMUSA,2283,41740.630;2283,41740.629999265,00000077,47,-64239,97,-17,-16103,-858*f8fecc27
%RAWIMUSA,2283,41740.640;2283,41740.639999265,00000077,76,-64246,98,-16,-16084,412*6115b647
%RAWIMUSA,2283,41740.650;2283,41740.649999265,00000077,-56,-64223,94,10,-16074,1079*794dee06
%RAWIMUSA,2283,41740.660;2283,41740.659999265,00000077,89,-64253,101,19,-16084,19*5c9898b3
%RAWIMUSA,2283,41740.670;2283,41740.669999265,00000077,3,-64230,102,1,-16103,-968*690547db
%RAWIMUSA,2283,41740.680;2283,41740.679999265,00000077,18,-64235,96,-7,-16094,-364*faa6203d
%RAWIMUSA,2283,41740.690;2283,41740.689999265,00000077,77,-64250,98,-7,-16083,906*9c17a051
%RAWIMUSA,2283,41740.700;2283,41740.699999265,00000077,-54,-64226,92,20,-16065,1043*2f0cba56
%RAWIMUSA,2283,41740.710;2283,41740.709999265,00000077,102,-64249,102,19,-16094,-867*fdd5c996
%RAWIMUSA,2283,41740.720;2283,41740.719999265,00000077,11,-64236,92,-8,-16103,-986*f2c55368
%RAWIMUSA,2283,41740.730;2283,41740.729999265,00000077,-16,-64230,91,-16,-16093,586*76e63302
%RAWIMUSA,2283,41740.740;2283,41740.739999265,00000077,87,-64250,99,10,-16074,906*c7d7a902
%RAWIMUSA,2283,41740.750;2283,41740.749999265,00000077,-34,-64228,95,19,-16084,138*afabe1e0
%RAWIMUSA,2283,41740.760;2283,41740.759999265,00000077,73,-64244,100,10,-16103,-886*8e69c174
%RAWIMUSA,2283,41740.770;2283,41740.769999265,00000077,23,-64240,97,-17,-16094,-593*ada10307
%RAWIMUSA,2283,41740.780;2283,41740.779999265,00000077,-22,-64227,92,1,-16074,1088*ae977336
%RAWIMUSA,2283,41740.790;2283,41740.789999265,00000077,106,-64251,106,20,-16074,924*7e9f3916
%RAWIMUSA,2283,41740.800;2283,41740.799999265,00000077,-39,-64225,93,19,-16103,-831*5cdfec52
%RAWIMUSA,2283,41740.810;2283,41740.809999265,00000077,45,-64245,90,-17,-16094,-867*a7769cf2
%RAWIMUSA,2283,41740.820;2283,41740.819999265,00000077,56,-64247,106,-16,-16102,320*f7e9d77c
%RAWIMUSA,2283,41740.830;2283,41740.829999265,00000077,-29,-64225,99,20,-16083,1088*3a323e3b
%RAWIMUSA,2283,41740.840;2283,41740.839999265,00000077,92,-64252,99,19,-16084,119*a906075d
%RAWIMUSA,2283,41740.850;2283,41740.849999265,00000077,-22,-64233,87,1,-16094,-950*87c36c45
%RAWIMUSA,2283,41740.860;2283,41740.859999265,00000077,26,-64233,94,-17,-16094,-483*eeeb85ac
%RAWIMUSA,2283,41740.870;2283,41740.869999265,00000077,80,-64247,103,1,-16083,896*f1ce7137
%RAWIMUSA,2283,41740.880;2283,41740.879999265,00000077,-57,-64226,97,20,-16092,1070*60edf5fb
%RAWIMUSA,2283,41740.890;2283,41740.889999265,00000077,81,-64246,90,19,-16112,-803*b8c0b614
%RAWIMUSA,2283,41740.900;2283,41740.899999265,00000077,5,-64235,90,-8,-16094,-968*7a705628
%RAWIMUSA,2283,41740.910;2283,41740.909999265,00000077,10,-64233,101,-16,-16084,448*29c20934
%RAWIMUSA,2283,41740.920;2283,41740.919999265,00000077,82,-64251,103,20,-16083,906*cb0ff1c4
%RAWIMUSA,2283,41740.930;2283,41740.929999265,00000077,-57,-64227,88,19,-16084,247*6ce96abb
%RAWIMUSA,2283,41740.940;2283,41740.939999265,00000077,85,-64249,93,1,-16094,-913*8a2db3ad
%RAWIMUSA,2283,41740.950;2283,41740.949999265,00000077,37,-64236,97,-17,-16085,-703*788aa3ec
%RAWIMUSA,2283,41740.960;2283,41740.959999265,00000077,-18,-64229,99,1,-16083,1098*6610bcce
%RAWIMUSA,2283,41740.970;2283,41740.969999265,00000077,84,-64253,96,20,-16093,906*10abeda8
%RAWIMUSA,2283,41740.980;2283,41740.979999264,00000077,-41,-64227,93,19,-16094,-712*29feeb4e
%RAWIMUSA,2283,41740.990;2283,41740.989999264,00000077,71,-64243,98,-17,-16094,-867*27177707
%RAWIMUSA,2283,41741.000;2283,41740.999999264,00000077,40,-64243,100,-7,-16084,229*2c7573ab
%RAWIMUSA,2283,41741.010;2283,41741.009999264,00000077,-41,-64226,85,20,-16111,1079*b3bafbe7
%RAWIMUSA,2283,41741.020;2283,41741.019999264,00000077,105,-64253,92,19,-16084,192*84720650
%RAWIMUSA,2283,41741.030;2283,41741.029999264,00000077,-25,-64226,95,1,-16103,-913*9977ae50
%RAWIMUSA,2283,41741.040;2283,41741.039999264,00000077,42,-64241,102,-17,-16085,-611*dc5c7bec
%RAWIMUSA,2283,41741.050;2283,41741.049999264,00000077,53,-64245,99,10,-16083,906*f10b57ab
%RAWIMUSA,2283,41741.060;2283,41741.059999264,00000077,-44,-64224,90,10,-16074,1088*75bc60fd
%RAWIMUSA,2283,41741.070;2283,41741.069999264,00000077,102,-64247,99,19,-16094,-721*77843054
