%RAWIMUSA,2283,30922.770;2283,30922.770001736,00000077,64185,5,458,-18,-9,-155*9ec7b87a
%RAWIMUSA,2283,30922.780;2283,30922.780001736,00000077,64184,30,451,18,-9,-923*611a6111
%RAWIMUSA,2283,30922.790;2283,30922.790001736,00000077,64186,30,450,18,8,-301*2557dfcf
%RAWIMUSA,2283,30922.800;2283,30922.800001736,00000077,64187,3,455,0,9,941*97f9330e
%RAWIMUSA,2283,30922.810;2283,30922.810001736,00000077,64187,8,454,-8,-8,786*5ea4f96b
%RAWIMUSA,2283,30922.820;2283,30922.820001736,00000077,64191,27,456,0,-9,-923*04208e73
%RAWIMUSA,2283,30922.830;2283,30922.830001736,00000077,64187,27,455,18,8,-923*4bba067b
%RAWIMUSA,2283,30922.840;2283,30922.840001736,00000077,64189,4,451,9,0,594*1c5288e1
%RAWIMUSA,2283,30922.850;2283,30922.850001736,00000077,64187,10,451,-8,0,932*40b71a55
%RAWIMUSA,2283,30922.860;2283,30922.860001736,00000077,64186,30,455,-18,-9,-109*f1eb96c2
%RAWIMUSA,2283,30922.870;2283,30922.870001736,00000077,64185,20,452,18,8,-914*11923e9e
%RAWIMUSA,2283,30922.880;2283,30922.880001736,00000077,64187,3,450,18,0,-347*6f88b572
%RAWIMUSA,2283,30922.890;2283,30922.890001736,00000077,64187,15,450,0,9,923*3b382f9c
%RAWIMUSA,2283,30922.900;2283,30922.900001736,00000077,64189,28,459,-18,-8,841*49a6d42e
%RAWIMUSA,2283,30922.910;2283,30922.910001736,00000077,64187,21,454,0,-9,-914*ab5bff33
%RAWIMUSA,2283,30922.920;2283,30922.920001736,00000077,64185,5,450,18,8,-923*2e55ea31
%RAWIMUSA,2283,30922.930;2283,30922.930001736,00000077,64186,16,451,18,9,539*73c2170d
%RAWIMUSA,2283,30922.940;2283,30922.940001736,00000077,64188,28,456,-18,0,932*bcc720f1
%RAWIMUSA,2283,30922.950;2283,30922.950001736,00000077,64186,15,453,-9,-9,-54*ae126230
%RAWIMUSA,2283,30922.960;2283,30922.960001736,00000077,64186,9,449,18,0,-923*d34266eb
%RAWIMUSA,2283,30922.970;2283,30922.970001736,00000077,64186,21,453,18,8,-411*0e51037e
%RAWIMUSA,2283,30922.980;2283,30922.980001736,00000077,64188,25,458,-8,0,923*b0bc10c7
%RAWIMUSA,2283,30922.990;2283,30922.990001736,00000077,64187,17,455,-8,0,896*aea3e31a
%RAWIMUSA,2283,30923.000;2283,30923.000001736,00000077,64188,11,451,0,-9,-914*b17a1a16
#RANGECMPA,COM3,0,78.5,FREEWHEELING,2283,30923.000,02484000,9691,15823;0*271ffefb
%RAWIMUSA,2283,30923.010;2283,30923.010001736,00000077,64181,21,451,27,8,-932*54af8d03
%RAWIMUSA,2283,30923.020;2283,30923.020001736,00000077,64189,19,455,9,9,484*eaefb3df
%RAWIMUSA,2283,30923.030;2283,30923.030001736,00000077,64187,12,459,-18,-8,941*88fc0672
%RAWIMUSA,2283,30923.040;2283,30923.040001736,00000077,64186,18,450,-9,-9,-18*12e5a6ef
%RAWIMUSA,2283,30923.050;2283,30923.050001736,00000077,64188,22,449,18,8,-923*4a89f29c
%RAWIMUSA,2283,30923.060;2283,30923.060001736,00000077,64186,21,454,18,8,-457*1ea42f31
%RAWIMUSA,2283,30923.070;2283,30923.070001736,00000077,64186,13,456,0,0,932*75e331a4
%RAWIMUSA,2283,30923.080;2283,30923.080001736,00000077,64187,16,456,-18,-8,932*fc379396
%RAWIMUSA,2283,30923.090;2283,30923.090001736,00000077,64185,22,445,9,0,-896*a9dc98e0
%RAWIMUSA,2283,30923.100;2283,30923.100001736,00000077,64188,20,450,18,0,-914*7bb75854
%RAWIMUSA,2283,30923.110;2283,30923.110001736,00000077,64187,18,460,9,9,448*92f51321
%RAWIMUSA,2283,30923.120;2283,30923.120001736,00000077,64186,10,453,-8,-8,932*107aed71
%RAWIMUSA,2283,30923.130;2283,30923.130001736,00000077,64188,24,445,-18,0,45*c318e4bd
%RAWIMUSA,2283,30923.140;2283,30923.140001736,00000077,64187,22,455,27,0,-923*59728679
%RAWIMUSA,2283,30923.150;2283,30923.150001736,00000077,64188,14,458,18,8,-502*a2392935
%RAWIMUSA,2283,30923.160;2283,30923.160001736,00000077,64186,16,452,-8,0,932*805aaf61
%RAWIMUSA,2283,30923.170;2283,30923.170001736,00000077,64186,19,447,-8,-8,923*f6a06aec
%RAWIMUSA,2283,30923.180;2283,30923.180001736,00000077,64186,23,458,0,0,-868*ee3ddfc9
%RAWIMUSA,2283,30923.190;2283,30923.190001736,00000077,64187,15,459,18,8,-905*52dd7513
%RAWIMUSA,2283,30923.200;2283,30923.200001736,00000077,64185,17,448,9,0,393*850ee9e1
%RAWIMUSA,2283,30923.210;2283,30923.210001736,00000077,64188,21,446,-8,0,941*d1ed222d
%RAWIMUSA,2283,30923.220;2283,30923.220001736,00000077,64186,15,458,-9,-9,100*ffd01d1c
%RAWIMUSA,2283,30923.230;2283,30923.230001736,00000077,64190,20,458,18,8,-923*d193352b
%RAWIMUSA,2283,30923.240;2283,30923.240001736,00000077,64187,14,448,18,0,-557*661ce119
%RAWIMUSA,2283,30923.250;2283,30923.250001736,00000077,64187,25,447,-8,0,941*06c27be0
%RAWIMUSA,2283,30923.260;2283,30923.260001736,00000077,64186,22,458,-8,-8,932*2f6c6312
%RAWIMUSA,2283,30923.270;2283,30923.270001736,00000077,64187,12,459,9,0,-804*247013a2
%RAWIMUSA,2283,30923.280;2283,30923.280001736,00000077,64188,16,448,18,8,-923*7c104d96
%RAWIMUSA,2283,30923.290;2283,30923.290001736,00000077,64188,21,447,9,9,338*eb42f4a3
%RAWIMUSA,2283,30923.300;2283,30923.300001736,00000077,64188,19,459,-8,-8,941*ba49332c
%RAWIMUSA,2283,30923.310;2283,30923.310001736,00000077,64188,16,459,-9,-9,137*3a7d9a82
%RAWIMUSA,2283,30923.320;2283,30923.320001736,00000077,64187,16,448,18,8,-923*0f0d3159
%RAWIMUSA,2283,30923.330;2283,30923.330001736,00000077,64186,23,446,18,0,-603*f0182042
%RAWIMUSA,2283,30923.340;2283,30923.340001736,00000077,64185,17,457,-8,0,932*f740de06
%RAWIMUSA,2283,30923.350;2283,30923.350001736,00000077,64186,13,460,-18,-8,932*46057ab1
%RAWIMUSA,2283,30923.360;2283,30923.360001736,00000077,64187,20,446,9,0,-758*59104520
%RAWIMUSA,2283,30923.370;2283,30923.370001736,00000077,64187,21,442,27,8,-923*6a0e5294
%RAWIMUSA,2283,30923.380;2283,30923.380001736,00000077,64190,19,461,0,9,301*356fbea6
%RAWIMUSA,2283,30923.390;2283,30923.390001736,00000077,64189,12,456,-8,-8,932*f2072ee1
%RAWIMUSA,2283,30923.400;2283,30923.400001736,00000077,64186,14,443,-9,-9,192*500092a2
%RAWIMUSA,2283,30923.410;2283,30923.410001736,00000077,64189,27,451,18,8,-923*8f5dd919
%RAWIMUSA,2283,30923.420;2283,30923.420001736,00000077,64186,14,460,18,8,-658*68f0c300
%RAWIMUSA,2283,30923.430;2283,30923.430001736,00000077,64187,9,456,-8,-8,941*4926eef2
%RAWIMUSA,2283,30923.440;2283,30923.440001736,00000077,64184,19,449,-18,-8,923*3a736623
%RAWIMUSA,2283,30923.450;2283,30923.450001736,00000077,64186,26,452,18,0,-713*cc54b3a3
%RAWIMUSA,2283,30923.460;2283,30923.460001736,00000077,64188,19,460,18,8,-914*b3dae208
%RAWIMUSA,2283,30923.470;2283,30923.470001736,00000077,64186,7,453,9,0,246*649f52e2
%RAWIMUSA,2283,30923.480;2283,30923.480001736,00000077,64185,22,447,-18,-8,932*c2c54765
%RAWIMUSA,2283,30923.490;2283,30923.490001736,00000077,64187,27,455,0,0,246*4c5033aa
%RAWIMUSA,2283,30923.500;2283,30923.500001736,00000077,64187,14,459,18,8,-923*6cc3567f
%RAWIMUSA,2283,30923.510;2283,30923.510001736,00000077,64186,13,457,18,0,-722*566b7a24
%RAWIMUSA,2283,30923.520;2283,30923.520001736,00000077,64189,21,447,-8,0,923*c49f48fc
%RAWIMUSA,2283,30923.530;2283,30923.530001736,00000077,64186,28,451,-8,-8,932*43f80cc8
%RAWIMUSA,2283,30923.540;2283,30923.540001736,00000077,64186,9,458,9,0,-639*d53a2f20
%RAWIMUSA,2283,30923.550;2283,30923.550001736,00000077,64188,9,449,18,8,-923*ff433c1a
%RAWIMUSA,2283,30923.560;2283,30923.560001736,00000077,64186,26,447,0,0,201*09da5408
%RAWIMUSA,2283,30923.570;2283,30923.570001736,00000077,64187,23,452,-18,0,932*c4c1cedb
%RAWIMUSA,2283,30923.580;2283,30923.580001736,00000077,64185,10,459,0,-9,301*ebd1b15f
%RAWIMUSA,2283,30923.590;2283,30923.590001736,00000077,64189,10,454,18,8,-914*bd17949b
%RAWIMUSA,2283,30923.600;2283,30923.600001736,00000077,64186,24,450,18,8,-767*7d7dc525
%RAWIMUSA,2283,30923.610;2283,30923.610001736,00000077,64188,24,458,-8,-8,932*60644e14
%RAWIMUSA,2283,30923.620;2283,30923.620001736,00000077,64188,6,458,-8,-8,932*d1c11431
%RAWIMUSA,2283,30923.630;2283,30923.630001736,00000077,64187,16,451,9,8,-603*e9eee72b
%RAWIMUSA,2283,30923.640;2283,30923.640001736,00000077,64186,27,449,18,0,-914*e4e23a33
%RAWIMUSA,2283,30923.650;2283,30923.650001736,00000077,64188,16,454,0,0,137*5c8aaea9
%RAWIMUSA,2283,30923.660;2283,30923.660001736,00000077,64186,11,455,-8,-8,932*bca5f1c4
%RAWIMUSA,2283,30923.670;2283,30923.670001736,00000077,64188,19,448,0,0,338*dce6b74e
%RAWIMUSA,2283,30923.680;2283,30923.680001736,00000077,64187,26,455,18,8,-923*937e5d3e
%RAWIMUSA,2283,30923.690;2283,30923.690001736,00000077,64187,17,459,18,8,-804*29801ca2
%RAWIMUSA,2283,30923.700;2283,30923.700001736,00000077,64188,13,448,-18,-8,932*aa9c7d55
%RAWIMUSA,2283,30923.710;2283,30923.710001736,00000077,64189,23,446,-8,-8,932*286613f0
%RAWIMUSA,2283,30923.720;2283,30923.720001736,00000077,64186,20,456,18,8,-557*03602a31
%RAWIMUSA,2283,30923.730;2283,30923.730001736,00000077,64185,9,454,18,8,-914*b0e0d6ec
%RAWIMUSA,2283,30923.740;2283,30923.740001736,00000077,64187,16,455,0,-9,91*81a2bb6e
%RAWIMUSA,2283,30923.750;2283,30923.750001736,00000077,64189,25,454,-18,0,932*e62886a1
%RAWIMUSA,2283,30923.760;2283,30923.760001736,00000077,64187,19,454,0,-8,402*69f0af30
%RAWIMUSA,2283,30923.770;2283,30923.770001736,00000077,64188,11,451,18,8,-923*37bb4753
%RAWIMUSA,2283,30923.780;2283,30923.780001736,00000077,64189,14,451,18,0,-868*50694ef6
%RAWIMUSA,2283,30923.790;2283,30923.790001736,00000077,64186,26,454,-18,0,932*e8bad811
%RAWIMUSA,2283,30923.800;2283,30923.800001736,00000077,64187,18,450,-18,-8,932*3e9565fe
%RAWIMUSA,2283,30923.810;2283,30923.810001736,00000077,64188,9,455,18,8,-502*a1c37609
%RAWIMUSA,2283,30923.820;2283,30923.820001736,00000077,64190,17,454,18,0,-914*4cb97b47
%RAWIMUSA,2283,30923.830;2283,30923.830001736,00000077,64186,25,455,0,0,36*3a383eee
%RAWIMUSA,2283,30923.840;2283,30923.840001736,00000077,64186,19,449,-8,-8,923*dc3ca590
%RAWIMUSA,2283,30923.850;2283,30923.850001736,00000077,64186,12,455,0,0,448*1f93bf52
%RAWIMUSA,2283,30923.860;2283,30923.860001736,00000077,64188,18,455,18,8,-923*189982dc
%RAWIMUSA,2283,30923.870;2283,30923.870001736,00000077,64188,25,452,18,8,-914*dc6ab696
%RAWIMUSA,2283,30923.880;2283,30923.880001736,00000077,64188,17,451,-18,-8,923*c789db06
%RAWIMUSA,2283,30923.890;2283,30923.890001736,00000077,64189,11,457,-8,-8,932*26d21a37
%RAWIMUSA,2283,30923.900;2283,30923.900001736,00000077,64187,17,454,18,8,-447*4efd8223
%RAWIMUSA,2283,30923.910;2283,30923.910001736,00000077,64189,26,451,18,8,-923*621c8269
%RAWIMUSA,2283,30923.920;2283,30923.920001736,00000077,64189,18,455,-9,-9,-18*38efe477
%RAWIMUSA,2283,30923.930;2283,30923.930001736,00000077,64187,10,459,-8,-8,923*3f0c2120
%RAWIMUSA,2283,30923.940;2283,30923.940001736,00000077,64187,19,451,0,9,493*98ceea64
%RAWIMUSA,2283,30923.950;2283,30923.950001736,00000077,64189,24,452,18,0,-914*52ed9e6b
%RAWIMUSA,2283,30923.960;2283,30923.960001736,00000077,64184,20,454,18,8,-914*63641975
%RAWIMUSA,2283,30923.970;2283,30923.970001736,00000077,64182,11,456,-18,-8,887*bc88d002
%RAWIMUSA,2283,30923.980;2283,30923.980001736,00000077,64186,17,448,-8,-8,914*599ab792
%RAWIMUSA,2283,30923.990;2283,30923.990001736,00000077,64188,25,453,18,8,-393*9b23a413
%RAWIMUSA,2283,30924.000;2283,30924.000001736,00000077,64186,21,460,18,0,-914*78532eab
#RANGECMPA,COM3,0,75.5,FREEWHEELING,2283,30924.000,02484000,9691,15823;0*eb2641f3
%RAWIMUSA,2283,30924.010;2283,30924.010001736,00000077,64189,13,457,-9,0,-45*69c4de9e
%RAWIMUSA,2283,30924.020;2283,30924.020001736,00000077,64187,16,448,-8,-8,932*b1fa2927
%RAWIMUSA,2283,30924.030;2283,30924.030001736,00000077,64188,26,451,0,9,539*1d2bc61c
%RAWIMUSA,2283,30924.040;2283,30924.040001736,00000077,64186,7,458,18,0,-923*e5926cd8
%RAWIMUSA,2283,30924.050;2283,30924.050001736,00000077,64184,19,456,9,8,-923*4da69ad8
%RAWIMUSA,2283,30924.060;2283,30924.060001736,00000077,64190,17,448,-8,-17,859*0f8bce5c
%RAWIMUSA,2283,30924.070;2283,30924.070001736,00000077,64186,24,446,-8,0,914*3b0897c4
%RAWIMUSA,2283,30924.080;2283,30924.080001736,00000077,64192,16,458,18,8,-347*6f284cd2
%RAWIMUSA,2283,30924.090;2283,30924.090001736,00000077,64184,7,459,18,8,-923*a06a97ab
%RAWIMUSA,2283,30924.100;2283,30924.100001736,00000077,64184,31,451,-9,-9,-100*f2c79504
%RAWIMUSA,2283,30924.110;2283,30924.110001736,00000077,64190,7,447,-8,-8,923*58612eea
%RAWIMUSA,2283,30924.120;2283,30924.120001736,00000077,64184,27,456,0,9,603*763c4aa0
%RAWIMUSA,2283,30924.130;2283,30924.130001736,00000077,64189,8,458,27,8,-914*75debfbf
%RAWIMUSA,2283,30924.140;2283,30924.140001736,00000077,64185,29,450,9,0,-914*4d128ce0
%RAWIMUSA,2283,30924.150;2283,30924.150001736,00000077,64190,8,445,-8,-8,786*335deb84
%RAWIMUSA,2283,30924.160;2283,30924.160001736,00000077,64184,29,454,-18,-8,923*3ba455b8
%RAWIMUSA,2283,30924.170;2283,30924.170001736,00000077,64190,5,463,27,18,-292*792c90a3
%RAWIMUSA,2283,30924.180;2283,30924.180001736,00000077,64185,28,450,18,0,-914*d7a4aa1e
%RAWIMUSA,2283,30924.190;2283,30924.190001736,00000077,64189,1,442,-9,-9,-146*94aa491e
%RAWIMUSA,2283,30924.200;2283,30924.200001736,00000077,64183,38,461,-18,0,905*74c7da9d
%RAWIMUSA,2283,30924.210;2283,30924.210001736,00000077,64189,2,464,9,0,667*a90a33ef
%RAWIMUSA,2283,30924.220;2283,30924.220001736,00000077,64183,28,444,18,8,-941*a6fc73db
%RAWIMUSA,2283,30924.230;2283,30924.230001736,00000077,64193,5,445,9,0,-896*7004240e
%RAWIMUSA,2283,30924.240;2283,30924.240001736,00000077,64183,33,462,-8,-8,722*ba607444
%RAWIMUSA,2283,30924.250;2283,30924.250001736,00000077,64189,-1,464,-8,0,951*7eface08
%RAWIMUSA,2283,30924.260;2283,30924.260001736,00000077,64184,37,446,18,8,-283*f33fdc2c
%RAWIMUSA,2283,30924.270;2283,30924.270001736,00000077,64191,1,445,18,8,-886*2f072579
%RAWIMUSA,2283,30924.280;2283,30924.280001736,00000077,64183,28,461,-9,-18,-237*d2fdf308
%RAWIMUSA,2283,30924.290;2283,30924.290001736,00000077,64191,3,457,-8,0,951*314144af
%RAWIMUSA,2283,30924.300;2283,30924.300001736,00000077,64186,34,443,9,0,667*1e3b510e
%RAWIMUSA,2283,30924.310;2283,30924.310001736,00000077,64192,8,451,18,17,-886*5b7e367c
%RAWIMUSA,2283,30924.320;2283,30924.320001736,00000077,64184,24,464,9,-9,-941*359c886a
%RAWIMUSA,2283,30924.330;2283,30924.330001736,00000077,64188,12,455,-18,-8,713*55072e39
%RAWIMUSA,2283,30924.340;2283,30924.340001736,00000077,64186,25,441,-8,0,914*d916ee52
%RAWIMUSA,2283,30924.350;2283,30924.350001736,00000077,64190,14,449,27,18,-182*6598a7bf
%RAWIMUSA,2283,30924.360;2283,30924.360001736,00000077,64182,17,463,18,0,-950*deacb61a
%RAWIMUSA,2283,30924.370;2283,30924.370001736,00000077,64186,18,455,-18,-9,-237*b15934fb
%RAWIMUSA,2283,30924.380;2283,30924.380001736,00000077,64187,23,441,-8,0,905*3b5bfb76
%RAWIMUSA,2283,30924.390;2283,30924.390001736,00000077,64190,13,452,9,9,777*bf774e99
%RAWIMUSA,2283,30924.400;2283,30924.400001736,00000077,64186,17,463,18,8,-960*2e14f943
%RAWIMUSA,2283,30924.410;2283,30924.410001736,00000077,64193,9,455,0,-9,-895*4d4ea75d
%RAWIMUSA,2283,30924.420;2283,30924.420001736,00000077,64186,33,448,-8,-8,603*dd11211c
%RAWIMUSA,2283,30924.430;2283,30924.430001736,00000077,64191,0,447,0,9,969*aed90dbe
%RAWIMUSA,2283,30924.440;2283,30924.440001736,00000077,64183,22,459,18,0,-191*0fc068ba
%RAWIMUSA,2283,30924.450;2283,30924.450001736,00000077,64190,13,459,18,8,-896*5236578c
%RAWIMUSA,2283,30924.460;2283,30924.460001736,00000077,64183,30,447,-9,-9,-329*0e85fa65
%RAWIMUSA,2283,30924.470;2283,30924.470001736,00000077,64193,6,448,-18,0,951*5b17f2f2
%RAWIMUSA,2283,30924.480;2283,30924.480001736,00000077,64183,24,460,18,0,768*87669cf4
%RAWIMUSA,2283,30924.490;2283,30924.490001736,00000077,64191,11,457,18,8,-896*ae04eb5b
%RAWIMUSA,2283,30924.500;2283,30924.500001736,00000077,64183,27,448,0,0,-950*30e6eac8
%RAWIMUSA,2283,30924.510;2283,30924.510001736,00000077,64189,12,447,-8,-8,612*51eb6820
%RAWIMUSA,2283,30924.520;2283,30924.520001736,00000077,64185,20,464,-8,0,905*3e9ca99a
%RAWIMUSA,2283,30924.530;2283,30924.530001736,00000077,64188,20,462,18,9,-73*f519a69b
%RAWIMUSA,2283,30924.540;2283,30924.540001736,00000077,64188,16,443,18,0,-932*b0deb550
%RAWIMUSA,2283,30924.550;2283,30924.550001736,00000077,64187,16,445,-9,-9,-338*9e0244bd
%RAWIMUSA,2283,30924.560;2283,30924.560001736,00000077,64186,16,466,-18,0,914*81a7dbc9
%RAWIMUSA,2283,30924.570;2283,30924.570001736,00000077,64186,25,460,18,9,868*478ce732
%RAWIMUSA,2283,30924.580;2283,30924.580001736,00000077,64188,8,441,18,8,-932*b4649c4d
%RAWIMUSA,2283,30924.590;2283,30924.590001736,00000077,64185,20,449,0,-9,-905*15844447
%RAWIMUSA,2283,30924.600;2283,30924.600001736,00000077,64187,17,465,-18,-8,530*8e0b6bc3
%RAWIMUSA,2283,30924.610;2283,30924.610001736,00000077,64187,21,458,0,9,951*57c190f1
%RAWIMUSA,2283,30924.620;2283,30924.620001736,00000077,64189,13,444,27,9,-73*31825b51
%RAWIMUSA,2283,30924.630;2283,30924.630001736,00000077,64190,15,448,9,0,-896*baabb1c5
%RAWIMUSA,2283,30924.640;2283,30924.640001736,00000077,64186,22,465,-9,-9,-429*21020f56
%RAWIMUSA,2283,30924.650;2283,30924.650001736,00000077,64189,16,457,-8,0,960*6cd063ab
%RAWIMUSA,2283,30924.660;2283,30924.660001736,00000077,64188,18,445,9,9,877*c67f5668
%RAWIMUSA,2283,30924.670;2283,30924.670001736,00000077,64188,12,448,27,8,-896*60735bb4
%RAWIMUSA,2283,30924.680;2283,30924.680001736,00000077,64188,29,462,0,-9,-950*1aeb275e
%RAWIMUSA,2283,30924.690;2283,30924.690001736,00000077,64186,12,457,-18,-8,521*280f44c9
%RAWIMUSA,2283,30924.700;2283,30924.700001736,00000077,64184,21,447,0,9,905*88145f0c
%RAWIMUSA,2283,30924.710;2283,30924.710001736,00000077,64189,9,450,27,9,18*1765c792
%RAWIMUSA,2283,30924.720;2283,30924.720001736,00000077,64182,27,460,9,-10,-950*7e13c3bf
%RAWIMUSA,2283,30924.730;2283,30924.730001736,00000077,64189,10,454,-9,-9,-429*8c4513d5
%RAWIMUSA,2283,30924.740;2283,30924.740001736,00000077,64187,25,444,-8,0,896*c703e0d9
%RAWIMUSA,2283,30924.750;2283,30924.750001736,00000077,64192,8,455,18,9,951*514a3fa8
%RAWIMUSA,2283,30924.760;2283,30924.760001736,00000077,64184,27,461,18,0,-914*a29d07eb
%RAWIMUSA,2283,30924.770;2283,30924.770001736,00000077,64190,8,451,0,0,-905*a35912de
%RAWIMUSA,2283,30924.780;2283,30924.780001736,00000077,64178,30,446,-18,-8,420*ef968d6d
%RAWIMUSA,2283,30924.790;2283,30924.790001736,00000077,64191,0,458,0,9,951*58fe33f5
%RAWIMUSA,2283,30924.800;2283,30924.800001736,00000077,64179,39,457,27,0,27*c7c67413
%RAWIMUSA,2283,30924.810;2283,30924.810001736,00000077,64187,1,450,9,0,-914*8df37a44
%RAWIMUSA,2283,30924.820;2283,30924.820001736,00000077,64185,33,449,-9,-9,-530*101195eb
%RAWIMUSA,2283,30924.830;2283,30924.830001736,00000077,64191,0,453,-18,0,932*d455954c
%RAWIMUSA,2283,30924.840;2283,30924.840001736,00000077,64184,33,455,18,9,923*ea9c6b82
%RAWIMUSA,2283,30924.850;2283,30924.850001736,00000077,64189,0,450,18,0,-841*4577a0ee
%RAWIMUSA,2283,30924.860;2283,30924.860001736,00000077,64186,29,450,0,-9,-923*435f4e96
%RAWIMUSA,2283,30924.870;2283,30924.870001736,00000077,64188,16,452,-18,0,374*ddfdebad
%RAWIMUSA,2283,30924.880;2283,30924.880001736,00000077,64186,19,457,0,9,941*7013e0c1
%RAWIMUSA,2283,30924.890;2283,30924.890001736,00000077,64188,17,446,18,9,82*7f38a34f
%RAWIMUSA,2283,30924.900;2283,30924.900001736,00000077,64186,16,448,18,-9,-905*77d46fd6
%RAWIMUSA,2283,30924.910;2283,30924.910001736,00000077,64190,19,464,-18,0,-575*3fb29e36
%RAWIMUSA,2283,30924.920;2283,30924.920001736,00000077,64186,19,454,-18,0,960*4b46adca
%RAWIMUSA,2283,30924.930;2283,30924.930001736,00000077,64189,9,445,18,9,914*efaea75a
%RAWIMUSA,2283,30924.940;2283,30924.940001736,00000077,64183,27,451,18,0,-786*51cc6fbc
%RAWIMUSA,2283,30924.950;2283,30924.950001736,00000077,64186,14,463,0,-9,-941*798b1cfd
%RAWIMUSA,2283,30924.960;2283,30924.960001736,00000077,64187,18,455,-18,-8,347*6ec814b5
%RAWIMUSA,2283,30924.970;2283,30924.970001736,00000077,64184,17,446,9,9,923*d56809bf
%RAWIMUSA,2283,30924.980;2283,30924.980001736,00000077,64186,20,449,18,9,155*f6cbed23
%RAWIMUSA,2283,30924.990;2283,30924.990001736,00000077,64188,22,462,9,-9,-932*39615033
%RAWIMUSA,2283,30925.000;2283,30925.000001736,00000077,64189,6,455,-9,-9,-594*58fa72ab
#RANGECMPA,COM3,0,75.5,FREEWHEELING,2283,30925.000,02484000,9691,15823;0*85aa5ab2
%RAWIMUSA,2283,30925.010;2283,30925.010001736,00000077,64190,29,447,-18,9,914*89552236
%RAWIMUSA,2283,30925.020;2283,30925.020001736,00000077,64188,17,450,18,9,941*e1c5b300
%RAWIMUSA,2283,30925.030;2283,30925.030001736,00000077,64189,18,463,18,0,-777*ccd508b9
%RAWIMUSA,2283,30925.040;2283,30925.040001736,00000077,64190,11,458,-9,-9,-886*83297707
%RAWIMUSA,2283,30925.050;2283,30925.050001736,00000077,64184,26,447,-8,0,256*4065f1ed
%RAWIMUSA,2283,30925.060;2283,30925.060001736,00000077,64189,13,452,9,9,951*52f29a58
%RAWIMUSA,2283,30925.070;2283,30925.070001736,00000077,64184,22,462,18,9,182*ef540a55
%RAWIMUSA,2283,30925.080;2283,30925.080001736,00000077,64188,12,455,9,-9,-895*9f846d51
%RAWIMUSA,2283,30925.090;2283,30925.090001736,00000077,64184,24,444,-18,-9,-694*b0032f09
%RAWIMUSA,2283,30925.100;2283,30925.100001736,00000077,64192,8,451,-8,9,941*6e45b42f
%RAWIMUSA,2283,30925.110;2283,30925.110001736,00000077,64180,39,458,28,9,923*1df65e44
%RAWIMUSA,2283,30925.120;2283,30925.120001736,00000077,64186,-4,458,18,-9,-694*bdef3457
%RAWIMUSA,2283,30925.130;2283,30925.130001736,00000077,64190,38,446,0,0,-923*9ba9a049
%RAWIMUSA,2283,30925.140;2283,30925.140001736,00000077,64187,-3,449,-18,-9,246*9abeb398
%RAWIMUSA,2283,30925.150;2283,30925.150001736,00000077,64182,31,457,9,9,914*5627c67c
%RAWIMUSA,2283,30925.160;2283,30925.160001736,00000077,64187,5,456,18,0,265*9fe4613e
%RAWIMUSA,2283,30925.170;2283,30925.170001736,00000077,64184,35,453,9,0,-923*6f22c0ae
%RAWIMUSA,2283,30925.180;2283,30925.180001736,00000077,64186,6,449,-18,-9,-722*af30ef41
%RAWIMUSA,2283,30925.190;2283,30925.190001736,00000077,64187,22,457,-8,9,941*33956691
%RAWIMUSA,2283,30925.200;2283,30925.200001736,00000077,64182,22,457,18,0,914*fb40115e
%RAWIMUSA,2283,30925.210;2283,30925.210001736,00000077,64190,5,448,18,0,-630*c51a894e
%RAWIMUSA,2283,30925.220;2283,30925.220001736,00000077,64192,30,455,-9,-9,-932*0ef6ac09
%RAWIMUSA,2283,30925.230;2283,30925.230001736,00000077,64190,10,457,-9,0,219*1ecfc301
%RAWIMUSA,2283,30925.240;2283,30925.240001736,00000077,64185,19,455,0,9,905*e7e4eec9
%RAWIMUSA,2283,30925.250;2283,30925.250001736,00000077,64192,17,447,27,9,320*bcad573e
%RAWIMUSA,2283,30925.260;2283,30925.260001736,00000077,64179,23,453,9,-9,-932*369d2bda
%RAWIMUSA,2283,30925.270;2283,30925.270001736,00000077,64191,12,462,-18,-9,-758*5846ca7b
%RAWIMUSA,2283,30925.280;2283,30925.280001736,00000077,64187,17,458,-8,9,941*54d4feaf
%RAWIMUSA,2283,30925.290;2283,30925.290001736,00000077,64182,24,449,18,9,914*8a0f6fce
%RAWIMUSA,2283,30925.300;2283,30925.300001736,00000077,64186,11,448,18,-9,-603*4fec44fa
%RAWIMUSA,2283,30925.310;2283,30925.310001736,00000077,64186,17,459,-9,0,-914*bc8948c1
%RAWIMUSA,2283,30925.320;2283,30925.320001736,00000077,64188,21,457,-9,-9,128*33245474
%RAWIMUSA,2283,30925.330;2283,30925.330001736,00000077,64187,11,447,9,9,923*4fb091ae
%RAWIMUSA,2283,30925.340;2283,30925.340001736,00000077,64188,19,447,18,9,356*b6c6acb6
%RAWIMUSA,2283,30925.350;2283,30925.350001736,00000077,64186,18,459,0,-9,-923*ed6b02b6
%RAWIMUSA,2283,30925.360;2283,30925.360001736,00000077,64188,15,460,-9,-9,-813*0000b5c7
%RAWIMUSA,2283,30925.370;2283,30925.370001736,00000077,64188,26,449,-8,9,932*49276686
%RAWIMUSA,2283,30925.380;2283,30925.380001736,00000077,64186,12,445,18,9,932*13bacdbf
%RAWIMUSA,2283,30925.390;2283,30925.390001736,00000077,64189,18,457,27,0,-548*e63fc594
%RAWIMUSA,2283,30925.400;2283,30925.400001736,00000077,64186,25,462,-18,-9,-923*8821965e
%RAWIMUSA,2283,30925.410;2283,30925.410001736,00000077,64187,11,445,-9,0,91*0f734e6f
%RAWIMUSA,2283,30925.420;2283,30925.420001736,00000077,64186,16,443,9,9,941*bcf5b47e
%RAWIMUSA,2283,30925.430;2283,30925.430001736,00000077,64188,22,463,18,0,393*4a4abf50
%RAWIMUSA,2283,30925.440;2283,30925.440001736,00000077,64185,18,465,0,-9,-905*8965fb82
%RAWIMUSA,2283,30925.450;2283,30925.450001736,00000077,64188,15,443,-9,0,-859*92a621a2
%RAWIMUSA,2283,30925.460;2283,30925.460001736,00000077,64188,14,444,-8,0,923*74dd687c
%RAWIMUSA,2283,30925.470;2283,30925.470001736,00000077,64184,20,462,18,9,951*74013f28
%RAWIMUSA,2283,30925.480;2283,30925.480001736,00000077,64185,24,461,27,-9,-502*22899e86
%RAWIMUSA,2283,30925.490;2283,30925.490001736,00000077,64188,11,447,-18,0,-914*63d6b0a4
%RAWIMUSA,2283,30925.500;2283,30925.500001736,00000077,64186,18,444,-9,0,27*871e5217
%RAWIMUSA,2283,30925.510;2283,30925.510001736,00000077,64188,21,459,9,9,932*b06c3530
%RAWIMUSA,2283,30925.520;2283,30925.520001736,00000077,64187,20,463,18,0,457*015a56f0
%RAWIMUSA,2283,30925.530;2283,30925.530001736,00000077,64186,16,450,0,-9,-923*b2b9eec1
%RAWIMUSA,2283,30925.540;2283,30925.540001736,00000077,64189,14,443,-9,0,-923*129cfb64
%RAWIMUSA,2283,30925.550;2283,30925.550001736,00000077,64190,25,461,0,9,941*ecfcaa11
%RAWIMUSA,2283,30925.560;2283,30925.560001736,00000077,64186,19,461,18,9,932*f919f4a1
%RAWIMUSA,2283,30925.570;2283,30925.570001736,00000077,64183,4,442,18,-9,-447*e200faa3
%RAWIMUSA,2283,30925.580;2283,30925.580001736,00000077,64189,26,449,-18,-9,-932*0e8699dd
%RAWIMUSA,2283,30925.590;2283,30925.590001736,00000077,64189,25,465,-9,9,-18*6b17419d
%RAWIMUSA,2283,30925.600;2283,30925.600001736,00000077,64187,9,453,18,9,932*c1aa1834
%RAWIMUSA,2283,30925.610;2283,30925.610001736,00000077,64189,15,444,18,0,493*59050046
%RAWIMUSA,2283,30925.620;2283,30925.620001736,00000077,64186,20,452,0,-9,-923*a956958c
%RAWIMUSA,2283,30925.630;2283,30925.630001736,00000077,64190,25,459,-18,0,-914*e5ef22b3
%RAWIMUSA,2283,30925.640;2283,30925.640001736,00000077,64186,11,458,0,9,887*a5b6612f
%RAWIMUSA,2283,30925.650;2283,30925.650001736,00000077,64189,11,446,18,9,923*45a3f9b4
%RAWIMUSA,2283,30925.660;2283,30925.660001736,00000077,64186,29,454,18,-9,-402*a1abf75b
%RAWIMUSA,2283,30925.670;2283,30925.670001736,00000077,64188,18,459,-9,-9,-914*7140db42
%RAWIMUSA,2283,30925.680;2283,30925.680001736,00000077,64186,8,449,-18,9,-63*e526545a
%RAWIMUSA,2283,30925.690;2283,30925.690001736,00000077,64186,16,452,18,9,923*ddbc8b1d
%RAWIMUSA,2283,30925.700;2283,30925.700001736,00000077,64188,22,455,18,0,557*ec2edd28
%RAWIMUSA,2283,30925.710;2283,30925.710001736,00000077,64186,17,451,0,-9,-923*3b47aeab
%RAWIMUSA,2283,30925.720;2283,30925.720001736,00000077,64188,11,454,-18,0,-932*076900d6
%RAWIMUSA,2283,30925.730;2283,30925.730001736,00000077,64188,15,452,0,9,841*6f7bd500
%RAWIMUSA,2283,30925.740;2283,30925.740001736,00000077,64188,23,454,18,0,923*381672e7
%RAWIMUSA,2283,30925.750;2283,30925.750001736,00000077,64186,17,456,18,-9,-338*8c5abde2
%RAWIMUSA,2283,30925.760;2283,30925.760001736,00000077,64189,14,452,-9,-9,-914*3c03f920
%RAWIMUSA,2283,30925.770;2283,30925.770001736,00000077,64185,20,446,-18,9,-127*291a5a74
%RAWIMUSA,2283,30925.780;2283,30925.780001736,00000077,64187,19,450,18,9,932*a40ca60a
%RAWIMUSA,2283,30925.790;2283,30925.790001736,00000077,64184,19,460,18,0,603*7b3e7f89
%RAWIMUSA,2283,30925.800;2283,30925.800001736,00000077,64187,13,454,0,-9,-923*c6b77009
%RAWIMUSA,2283,30925.810;2283,30925.810001736,00000077,64188,19,449,-18,0,-923*ca7ecf5d
%RAWIMUSA,2283,30925.820;2283,30925.820001736,00000077,64186,25,456,9,9,786*1371b0b9
%RAWIMUSA,2283,30925.830;2283,30925.830001736,00000077,64186,16,457,18,0,932*fa59a9b4
%RAWIMUSA,2283,30925.840;2283,30925.840001736,00000077,64187,14,452,18,-9,-283*a7c75196
%RAWIMUSA,2283,30925.850;2283,30925.850001736,00000077,64189,22,451,-18,0,-923*afaf911d
%RAWIMUSA,2283,30925.860;2283,30925.860001736,00000077,64187,17,452,-9,0,-164*21b9d553
%RAWIMUSA,2283,30925.870;2283,30925.870001736,00000077,64188,18,455,18,9,932*9ec038d3
%RAWIMUSA,2283,30925.880;2283,30925.880001736,00000077,64188,13,457,18,-8,649*59809277
%RAWIMUSA,2283,30925.890;2283,30925.890001736,00000077,64186,22,447,-9,-9,-914*08bb798d
%RAWIMUSA,2283,30925.900;2283,30925.900001736,00000077,64186,25,447,-9,8,-914*64a48be8
%RAWIMUSA,2283,30925.910;2283,30925.910001736,00000077,64186,13,457,0,9,731*b12b25fc
%RAWIMUSA,2283,30925.920;2283,30925.920001736,00000077,64189,9,458,18,0,941*dd015f44
%RAWIMUSA,2283,30925.930;2283,30925.930001736,00000077,64186,25,444,9,-9,-246*868e06fa
%RAWIMUSA,2283,30925.940;2283,30925.940001736,00000077,64187,25,451,-18,0,-914*3f736c62
%RAWIMUSA,2283,30925.950;2283,30925.950001736,00000077,64185,14,461,-9,8,-219*bdb350d8
%RAWIMUSA,2283,30925.960;2283,30925.960001736,00000077,64185,8,455,18,0,923*d1251aee
%RAWIMUSA,2283,30925.970;2283,30925.970001736,00000077,64189,25,451,18,0,704*fe8dd112
%RAWIMUSA,2283,30925.980;2283,30925.980001736,00000077,64187,29,456,-9,-9,-932*54f555c9
%RAWIMUSA,2283,30925.990;2283,30925.990001736,00000077,64186,4,456,-9,0,-914*ac5c04c6
%RAWIMUSA,2283,30926.000;2283,30926.000001736,00000077,64187,13,448,9,18,676*1f6633db
#RANGECMPA,COM3,0,79.0,FREEWHEELING,2283,30926.000,02484000,9691,15823;0*022d0fe3
%RAWIMUSA,2283,30926.010;2283,30926.010001736,00000077,64189,30,454,18,-8,932*81d7329a
%RAWIMUSA,2283,30926.020;2283,30926.020001736,00000077,64186,21,452,9,0,-201*108a7341
%RAWIMUSA,2283,30926.030;2283,30926.030001736,00000077,64188,13,449,-9,0,-914*a609bfc8
%RAWIMUSA,2283,30926.040;2283,30926.040001736,00000077,64188,11,457,-9,8,-265*0b2b48ca
%RAWIMUSA,2283,30926.050;2283,30926.050001736,00000077,64188,25,453,18,0,932*06cb9618
%RAWIMUSA,2283,30926.060;2283,30926.060001736,00000077,64185,24,452,18,-8,740*ee6945e7
%RAWIMUSA,2283,30926.070;2283,30926.070001736,00000077,64186,11,451,-9,0,-914*6e4b3e65
%RAWIMUSA,2283,30926.080;2283,30926.080001736,00000077,64187,18,456,-18,0,-923*b5b8ee16
%RAWIMUSA,2283,30926.090;2283,30926.090001736,00000077,64187,24,452,9,9,640*91b014f7
%RAWIMUSA,2283,30926.100;2283,30926.100001736,00000077,64185,18,451,18,-8,932*dc95ac17
%RAWIMUSA,2283,30926.110;2283,30926.110001736,00000077,64190,13,456,9,0,-146*0568558e
%RAWIMUSA,2283,30926.120;2283,30926.120001736,00000077,64185,19,458,-9,-9,-923*0c33394e
%RAWIMUSA,2283,30926.130;2283,30926.130001736,00000077,64183,22,451,-9,8,-310*f9a04e42
%RAWIMUSA,2283,30926.140;2283,30926.140001736,00000077,64188,18,449,18,9,932*b99b220a
%RAWIMUSA,2283,30926.150;2283,30926.150001736,00000077,64187,9,458,18,-8,795*77e68165
%RAWIMUSA,2283,30926.160;2283,30926.160001736,00000077,64186,19,457,-9,-9,-914*0850e7ac
%RAWIMUSA,2283,30926.170;2283,30926.170001736,00000077,64183,25,449,-18,8,-923*980ce80f
%RAWIMUSA,2283,30926.180;2283,30926.180001736,00000077,64188,12,450,9,9,585*8fcd4b2b
%RAWIMUSA,2283,30926.190;2283,30926.190001736,00000077,64187,16,458,18,0,923*45dba51e
%RAWIMUSA,2283,30926.200;2283,30926.200001736,00000077,64187,19,452,9,-9,-100*a75b1a26
%RAWIMUSA,2283,30926.210;2283,30926.210001736,00000077,64187,20,443,-18,0,-914*f94868bf
%RAWIMUSA,2283,30926.220;2283,30926.220001736,00000077,64188,21,458,-9,8,-365*19dda914
%RAWIMUSA,2283,30926.230;2283,30926.230001736,00000077,64188,16,461,28,0,932*c02ae689
%RAWIMUSA,2283,30926.240;2283,30926.240001736,00000077,64188,18,456,18,-8,850*22ead6a6
%RAWIMUSA,2283,30926.250;2283,30926.250001736,00000077,64187,19,445,-9,0,-932*4f32f81b
%RAWIMUSA,2283,30926.260;2283,30926.260001736,00000077,64189,14,453,-18,8,-914*7e45b043
%RAWIMUSA,2283,30926.270;2283,30926.270001736,00000077,64184,23,460,18,9,530*ac669215
%RAWIMUSA,2283,30926.280;2283,30926.280001736,00000077,64188,12,452,18,-8,923*cb26e5d9
%RAWIMUSA,2283,30926.290;2283,30926.290001736,00000077,64188,17,448,0,-9,-36*78490a30
%RAWIMUSA,2283,30926.300;2283,30926.300001736,00000077,64184,20,458,-9,0,-923*e469abe5
%RAWIMUSA,2283,30926.310;2283,30926.310001736,00000077,64187,18,459,-9,8,-429*a0390845
%RAWIMUSA,2283,30926.320;2283,30926.320001736,00000077,64188,18,453,28,0,932*54cd867d
%RAWIMUSA,2283,30926.330;2283,30926.330001736,00000077,64186,17,451,18,0,905*336279bc
%RAWIMUSA,2283,30926.340;2283,30926.340001736,00000077,64182,16,450,-18,-9,-923*72d33ec7
%RAWIMUSA,2283,30926.350;2283,30926.350001736,00000077,64191,21,459,-9,8,-923*969f62d7
%RAWIMUSA,2283,30926.360;2283,30926.360001736,00000077,64186,19,458,9,9,484*aaf66db1
%RAWIMUSA,2283,30926.370;2283,30926.370001736,00000077,64190,13,445,18,-8,932*3e463e31
%RAWIMUSA,2283,30926.380;2283,30926.380001736,00000077,64186,19,454,9,0,9*a191ed83
%RAWIMUSA,2283,30926.390;2283,30926.390001736,00000077,64187,18,462,-18,8,-923*03614563
%RAWIMUSA,2283,30926.400;2283,30926.400001736,00000077,64186,18,451,0,0,-475*d1aea39d
%RAWIMUSA,2283,30926.410;2283,30926.410001736,00000077,64189,20,448,18,0,932*83ec16a3
%RAWIMUSA,2283,30926.420;2283,30926.420001736,00000077,64186,15,454,18,0,932*da77f80d
%RAWIMUSA,2283,30926.430;2283,30926.430001736,00000077,64184,18,456,-9,-9,-905*8012b939
%RAWIMUSA,2283,30926.440;2283,30926.440001736,00000077,64189,21,457,-18,8,-914*477df6bd
%RAWIMUSA,2283,30926.450;2283,30926.450001736,00000077,64185,16,446,18,9,429*8d40f858
%RAWIMUSA,2283,30926.460;2283,30926.460001736,00000077,64185,13,445,18,-8,932*25077c58
%RAWIMUSA,2283,30926.470;2283,30926.470001736,00000077,64188,20,461,0,-9,54*3356c377
%RAWIMUSA,2283,30926.480;2283,30926.480001736,00000077,64183,23,460,-18,8,-923*60eb8865
%RAWIMUSA,2283,30926.490;2283,30926.490001736,00000077,64188,18,448,0,8,-530*0f5ccef4
%RAWIMUSA,2283,30926.500;2283,30926.500001736,00000077,64191,11,451,18,-8,932*1645ed7c
%RAWIMUSA,2283,30926.510;2283,30926.510001736,00000077,64188,18,457,18,0,932*9bac0cb5
%RAWIMUSA,2283,30926.520;2283,30926.520001736,00000077,64186,23,456,-9,-9,-859*c4f5c854
%RAWIMUSA,2283,30926.530;2283,30926.530001736,00000077,64185,19,452,-18,8,-923*b65a476a
%RAWIMUSA,2283,30926.540;2283,30926.540001736,00000077,64184,15,453,18,9,384*125a03be
%RAWIMUSA,2283,30926.550;2283,30926.550001736,00000077,64190,17,454,18,-8,932*7f728de5
%RAWIMUSA,2283,30926.560;2283,30926.560001736,00000077,64189,20,455,0,-9,100*5e2a6158
%RAWIMUSA,2283,30926.570;2283,30926.570001736,00000077,64187,22,451,-9,8,-914*c095564e
%RAWIMUSA,2283,30926.580;2283,30926.580001736,00000077,64187,9,451,0,8,-566*825a978e
%RAWIMUSA,2283,30926.590;2283,30926.590001736,00000077,64186,14,456,18,0,932*0b49140b
%RAWIMUSA,2283,30926.600;2283,30926.600001736,00000077,64183,25,456,18,-8,923*e51640b9
%RAWIMUSA,2283,30926.610;2283,30926.610001736,00000077,64188,24,450,-18,-9,-786*93adf8fa
%RAWIMUSA,2283,30926.620;2283,30926.620001736,00000077,64185,16,450,-9,8,-923*020cd8ef
%RAWIMUSA,2283,30926.630;2283,30926.630001736,00000077,64187,17,454,9,9,338*d75ddb6e
%RAWIMUSA,2283,30926.640;2283,30926.640001736,00000077,64188,22,456,28,-8,932*8cde8e40
%RAWIMUSA,2283,30926.650;2283,30926.650001736,00000077,64189,18,448,0,-9,155*d8aec234
%RAWIMUSA,2283,30926.660;2283,30926.660001736,00000077,64186,17,452,-18,8,-914*04698efb
%RAWIMUSA,2283,30926.670;2283,30926.670001736,00000077,64186,17,456,0,8,-621*076246be
%RAWIMUSA,2283,30926.680;2283,30926.680001736,00000077,64185,17,455,18,-8,923*42d98060
%RAWIMUSA,2283,30926.690;2283,30926.690001736,00000077,64186,19,449,9,0,941*61d3eaf9
%RAWIMUSA,2283,30926.700;2283,30926.700001736,00000077,64188,16,454,-9,0,-749*254142e0
%RAWIMUSA,2283,30926.710;2283,30926.710001736,00000077,64187,16,459,-18,8,-914*10fcef37
%RAWIMUSA,2283,30926.720;2283,30926.720001736,00000077,64188,17,445,18,0,283*806f13cc
%RAWIMUSA,2283,30926.730;2283,30926.730001736,00000077,64187,20,451,18,-8,932*2324dbae
%RAWIMUSA,2283,30926.740;2283,30926.740001736,00000077,64188,17,460,0,0,219*c919016f
%RAWIMUSA,2283,30926.750;2283,30926.750001736,00000077,64186,15,453,-9,8,-923*81a060a4
%RAWIMUSA,2283,30926.760;2283,30926.760001736,00000077,64188,20,450,0,0,-676*f2c36e15
%RAWIMUSA,2283,30926.770;2283,30926.770001736,00000077,64185,16,451,18,0,941*21bac3f1
%RAWIMUSA,2283,30926.780;2283,30926.780001736,00000077,64189,16,459,18,-8,932*765f32e4
%RAWIMUSA,2283,30926.790;2283,30926.790001736,00000077,64186,21,459,-18,0,-694*877b8172
%RAWIMUSA,2283,30926.800;2283,30926.800001736,00000077,64184,12,443,-9,0,-923*d985e4c2
%RAWIMUSA,2283,30926.810;2283,30926.810001736,00000077,64185,22,443,18,9,237*97c5a816
%RAWIMUSA,2283,30926.820;2283,30926.820001736,00000077,64190,22,465,18,-8,923*fdbce1c4
%RAWIMUSA,2283,30926.830;2283,30926.830001736,00000077,64188,15,458,0,-9,256*e3c65742
%RAWIMUSA,2283,30926.840;2283,30926.840001736,00000077,64186,15,442,-18,8,-923*3426e8f9
%RAWIMUSA,2283,30926.850;2283,30926.850001736,00000077,64189,14,448,0,8,-731*cc2974c5
%RAWIMUSA,2283,30926.860;2283,30926.860001736,00000077,64188,22,463,28,-8,923*b4b8b689
%RAWIMUSA,2283,30926.870;2283,30926.870001736,00000077,64189,15,458,9,-8,932*fceeacd9
%RAWIMUSA,2283,30926.880;2283,30926.880001736,00000077,64188,12,440,-18,0,-639*0e608664
%RAWIMUSA,2283,30926.890;2283,30926.890001736,00000077,64187,22,450,-9,8,-923*c8871b38
%RAWIMUSA,2283,30926.900;2283,30926.900001736,00000077,64189,24,469,18,0,182*ebf2d0dd
%RAWIMUSA,2283,30926.910;2283,30926.910001736,00000077,64188,11,460,18,-8,941*75839d3d
%RAWIMUSA,2283,30926.920;2283,30926.920001736,00000077,64186,12,441,0,0,301*da2624dc
%RAWIMUSA,2283,30926.930;2283,30926.930001736,00000077,64190,25,449,-18,8,-923*f218f32d
%RAWIMUSA,2283,30926.940;2283,30926.940001736,00000077,64186,21,463,9,0,-758*2108041e
%RAWIMUSA,2283,30926.950;2283,30926.950001736,00000077,64185,13,455,18,-8,932*a6a0d517
%RAWIMUSA,2283,30926.960;2283,30926.960001736,00000077,64189,15,443,9,0,923*38dd949d
%RAWIMUSA,2283,30926.970;2283,30926.970001736,00000077,64187,21,454,-18,0,-585*dc64e020
%RAWIMUSA,2283,30926.980;2283,30926.980001736,00000077,64185,18,460,-9,8,-923*8ccfc98e
%RAWIMUSA,2283,30926.990;2283,30926.990001736,00000077,64190,16,458,18,0,128*a2c5f8ba
%RAWIMUSA,2283,30927.000;2283,30927.000001736,00000077,64187,16,444,18,-8,923*488a4405
#RANGECMPA,COM3,0,79.0,FREEWHEELING,2283,30927.000,02484000,9691,15823;0*6ca114a2
%RAWIMUSA,2283,30927.010;2283,30927.010001736,00000077,64184,17,444,0,0,365*3bd07f8a
%RAWIMUSA,2283,30927.020;2283,30927.020001736,00000077,64186,24,467,-18,8,-914*5b57bd24
%RAWIMUSA,2283,30927.030;2283,30927.030001736,00000077,64186,20,459,0,0,-831*ba2f506b
%RAWIMUSA,2283,30927.040;2283,30927.040001736,00000077,64187,10,442,28,0,941*d5a3212c
%RAWIMUSA,2283,30927.050;2283,30927.050001736,00000077,64186,18,449,0,-8,932*2a404d08
%RAWIMUSA,2283,30927.060;2283,30927.060001736,00000077,64187,20,465,-9,8,-557*4ed27164
%RAWIMUSA,2283,30927.070;2283,30927.070001736,00000077,64185,18,457,-9,8,-914*fb8d452e
%RAWIMUSA,2283,30927.080;2283,30927.080001736,00000077,64188,16,441,18,-9,82*ad88fa1a
%RAWIMUSA,2283,30927.090;2283,30927.090001736,00000077,64187,16,446,18,0,923*ae483db0
%RAWIMUSA,2283,30927.100;2283,30927.100001736,00000077,64188,22,467,-8,-8,402*9a073a36
%RAWIMUSA,2283,30927.110;2283,30927.110001736,00000077,64188,20,462,-9,8,-923*31150264
%RAWIMUSA,2283,30927.120;2283,30927.120001736,00000077,64188,13,445,9,8,-877*f1dda22e
%RAWIMUSA,2283,30927.130;2283,30927.130001736,00000077,64185,15,452,18,-8,932*f81524ca
%RAWIMUSA,2283,30927.140;2283,30927.140001736,00000077,64189,19,456,0,-8,932*832398ae
%RAWIMUSA,2283,30927.150;2283,30927.150001736,00000077,64190,19,459,-9,8,-493*49001f1e
%RAWIMUSA,2283,30927.160;2283,30927.160001736,00000077,64186,13,448,-9,8,-905*d17b25ed
%RAWIMUSA,2283,30927.170;2283,30927.170001736,00000077,64185,17,445,18,-9,27*0e505771
%RAWIMUSA,2283,30927.180;2283,30927.180001736,00000077,64183,16,459,18,-8,932*39920ff4
%RAWIMUSA,2283,30927.190;2283,30927.190001736,00000077,64186,18,463,-8,0,457*ba971548
%RAWIMUSA,2283,30927.200;2283,30927.200001736,00000077,64185,17,449,-18,8,-923*2654df36
%RAWIMUSA,2283,30927.210;2283,30927.210001736,00000077,64188,15,443,9,0,-914*bb0e0420
%RAWIMUSA,2283,30927.220;2283,30927.220001736,00000077,64187,21,458,18,0,941*b9976c25
%RAWIMUSA,2283,30927.230;2283,30927.230001736,00000077,64183,19,459,9,-8,932*25450af5
%RAWIMUSA,2283,30927.240;2283,30927.240001736,00000077,64192,18,453,-36,8,-457*ab26c386
%RAWIMUSA,2283,30927.250;2283,30927.250001736,00000077,64189,30,457,-110,8,-914*1de5fa03
%RAWIMUSA,2283,30927.260;2283,30927.260001736,00000077,64187,31,469,-257,-9,-36*2c56a938
%RAWIMUSA,2283,30927.270;2283,30927.270001736,00000077,64186,28,469,-395,-8,923*7aab8e4d
%RAWIMUSA,2283,30927.280;2283,30927.280001736,00000077,64186,27,462,-552,0,502*3e4e44bf
%RAWIMUSA,2283,30927.290;2283,30927.290001736,00000077,64189,27,455,-663,9,-923*834d1608
%RAWIMUSA,2283,30927.300;2283,30927.300001736,00000077,64188,28,458,-709,0,-923*35192924
%RAWIMUSA,2283,30927.310;2283,30927.310001736,00000077,64187,21,461,-773,-7,877*f4ea5fb8
%RAWIMUSA,2283,30927.320;2283,30927.320001736,00000077,64188,23,460,-875,1,923*dd8888c6
%RAWIMUSA,2283,30927.330;2283,30927.330001736,00000077,64187,24,460,-939,0,-402*8195f70c
%RAWIMUSA,2283,30927.340;2283,30927.340001736,00000077,64186,29,459,-1013,9,-923*e7e13bff
%RAWIMUSA,2283,30927.350;2283,30927.350001737,00000077,64187,26,460,-1068,-8,-91*338e70b3
%RAWIMUSA,2283,30927.360;2283,30927.360001737,00000077,64186,24,456,-1133,-7,923*3af8a464
%RAWIMUSA,2283,30927.370;2283,30927.370001737,00000077,64187,27,461,-1271,1,548*8d55393e
%RAWIMUSA,2283,30927.380;2283,30927.380001737,00000077,64193,18,458,-1354,9,-932*b2671190
%RAWIMUSA,2283,30927.390;2283,30927.390001737,00000077,64183,26,453,-1410,0,-932*41ad36b2
%RAWIMUSA,2283,30927.400;2283,30927.400001737,00000077,64187,26,457,-1501,-7,831*86daad5f
%RAWIMUSA,2283,30927.410;2283,30927.410001737,00000077,64185,23,462,-1584,-7,904*b75351be
%RAWIMUSA,2283,30927.420;2283,30927.420001737,00000077,64189,23,466,-1677,10,-347*0fc347d9
%RAWIMUSA,2283,30927.430;2283,30927.430001737,00000077,64184,27,457,-1769,0,-942*67af5d1e
%RAWIMUSA,2283,30927.440;2283,30927.440001737,00000077,64185,22,451,-1797,-7,-119*2454661f
%RAWIMUSA,2283,30927.450;2283,30927.450001737,00000077,64186,25,463,-1907,-6,895*dd61e623
%RAWIMUSA,2283,30927.460;2283,30927.460001737,00000077,64187,29,470,-2018,2,603*343b461d
%RAWIMUSA,2283,30927.470;2283,30927.470001737,00000077,64190,12,457,-2073,10,-942*f81cb83d
%RAWIMUSA,2283,30927.480;2283,30927.480001737,00000077,64190,38,455,-2147,-7,-933*70d6612b
%RAWIMUSA,2283,30927.490;2283,30927.490001737,00000077,64189,17,464,-2202,-6,758*fb75e719
%RAWIMUSA,2283,30927.500;2283,30927.500001737,00000077,64182,30,465,-2303,-6,904*d02c7010
%RAWIMUSA,2283,30927.510;2283,30927.510001737,00000077,64190,14,449,-2414,11,-302*64b6ea59
%RAWIMUSA,2283,30927.520;2283,30927.520001737,00000077,64179,34,449,-2469,1,-951*2bcbb2f8
%RAWIMUSA,2283,30927.530;2283,30927.530001737,00000077,64191,16,463,-2552,-7,-183*104fd65c
%RAWIMUSA,2283,30927.540;2283,30927.540001737,00000077,64187,32,469,-2653,-15,886*5c1e1a01
%RAWIMUSA,2283,30927.550;2283,30927.550001737,00000077,64192,15,463,-2718,12,648*31e726e5
%RAWIMUSA,2283,30927.560;2283,30927.560001737,00000077,64185,34,458,-2792,1,-960*e633739a
%RAWIMUSA,2283,30927.570;2283,30927.570001737,00000077,64188,18,458,-2857,1,-915*4b8fbfef
%RAWIMUSA,2283,30927.580;2283,30927.580001737,00000077,64183,32,465,-2921,-15,685*295c8d3a
%RAWIMUSA,2283,30927.590;2283,30927.590001737,00000077,64190,19,464,-3031,3,931*6df6b3ab
%RAWIMUSA,2283,30927.600;2283,30927.600001737,00000077,64183,26,444,-3124,2,-284*23e5ca82
%RAWIMUSA,2283,30927.610;2283,30927.610001737,00000077,64190,17,450,-3179,2,-924*897ce687
%RAWIMUSA,2283,30927.620;2283,30927.620001737,00000077,64187,27,469,-3280,-15,-275*b22115d5
%RAWIMUSA,2283,30927.630;2283,30927.630001737,00000077,64188,17,465,-3354,-5,931*ca6a7789
%RAWIMUSA,2283,30927.640;2283,30927.640001737,00000077,64187,28,456,-3464,3,657*79d98f18
%RAWIMUSA,2283,30927.650;2283,30927.650001737,00000077,64188,24,453,-3539,2,-933*6a3c4515
%RAWIMUSA,2283,30927.660;2283,30927.660001737,00000077,64185,23,465,-3566,-6,-961*d2b3f50e
%RAWIMUSA,2283,30927.670;2283,30927.670001737,00000077,64189,24,467,-3658,-14,657*10a17b82
%RAWIMUSA,2283,30927.680;2283,30927.680001737,00000077,64186,21,454,-3778,4,895*92c5fba1
%RAWIMUSA,2283,30927.690;2283,30927.690001737,00000077,64184,23,446,-3842,3,-193*2be04961
%RAWIMUSA,2283,30927.700;2283,30927.700001737,00000077,64187,27,466,-3926,2,-970*099040c9
%RAWIMUSA,2283,30927.710;2283,30927.710001737,00000077,64185,26,469,-3981,-14,-293*a1f654bd
%RAWIMUSA,2283,30927.720;2283,30927.720001737,00000077,64191,17,464,-4045,-13,885*b26d3ccf
%RAWIMUSA,2283,30927.730;2283,30927.730001737,00000077,64188,36,451,-4192,4,739*5136a64c
%RAWIMUSA,2283,30927.740;2283,30927.740001737,00000077,64187,18,458,-4248,3,-952*1123ed96
%RAWIMUSA,2283,30927.750;2283,30927.750001737,00000077,64186,34,468,-4285,-5,-952*da22fa94
%RAWIMUSA,2283,30927.760;2283,30927.760001737,00000077,64188,16,462,-4404,-13,584*751a5402
%RAWIMUSA,2283,30927.770;2283,30927.770001737,00000077,64184,31,448,-4478,4,894*47b987a0
%RAWIMUSA,2283,30927.780;2283,30927.780001737,00000077,64194,14,458,-4543,4,-156*93d5fe69
%RAWIMUSA,2283,30927.790;2283,30927.790001737,00000077,64187,39,470,-4644,-5,-970*5a35c1ca
%RAWIMUSA,2283,30927.800;2283,30927.800001737,00000077,64188,7,464,-4700,-14,-339*b4413ba0
%RAWIMUSA,2283,30927.810;2283,30927.810001737,00000077,64183,40,448,-4791,-4,876*21c27e01
%RAWIMUSA,2283,30927.820;2283,30927.820001737,00000077,64192,14,452,-4893,14,785*33545d70
%RAWIMUSA,2283,30927.830;2283,30927.830001737,00000077,64183,30,470,-4949,-5,-970*737c0d69
%RAWIMUSA,2283,30927.840;2283,30927.840001737,00000077,64192,9,470,-5022,-5,-943*a4ef39c6
%RAWIMUSA,2283,30927.850;2283,30927.850001737,00000077,64185,46,453,-5105,-13,529*b97450b9
%RAWIMUSA,2283,30927.860;2283,30927.860001737,00000077,64190,9,455,-5197,5,894*05c5bc91
%RAWIMUSA,2283,30927.870;2283,30927.870001737,00000077,64183,37,466,-5317,4,-129*5e0be244
%RAWIMUSA,2283,30927.880;2283,30927.880001737,00000077,64190,0,457,-5354,-4,-952*7659777f
%RAWIMUSA,2283,30927.890;2283,30927.890001737,00000077,64186,44,456,-5418,-13,-431*601c821a
%RAWIMUSA,2283,30927.900;2283,30927.900001737,00000077,64188,15,459,-5529,-3,903*d718b956
%RAWIMUSA,2283,30927.910;2283,30927.910001737,00000077,64185,25,464,-5593,5,812*576a4828
%RAWIMUSA,2283,30927.920;2283,30927.920001737,00000077,64190,13,466,-5686,4,-979*c1862cb7
%RAWIMUSA,2283,30927.930;2283,30927.930001737,00000077,64186,40,457,-5760,-13,-952*2620bb8a
%RAWIMUSA,2283,30927.940;2283,30927.940001737,00000077,64188,17,455,-5824,-12,464*f1b19e59
%RAWIMUSA,2283,30927.950;2283,30927.950001737,00000077,64185,28,464,-5934,6,903*54277bb3
%RAWIMUSA,2283,30927.960;2283,30927.960001737,00000077,64187,14,463,-6017,-3,-102*8f368030
%RAWIMUSA,2283,30927.970;2283,30927.970001737,00000077,64185,32,458,-6055,-4,-952*0b500609
%RAWIMUSA,2283,30927.980;2283,30927.980001737,00000077,64185,25,460,-6156,-13,-495*9812b3d4
%RAWIMUSA,2283,30927.990;2283,30927.990001737,00000077,64187,20,458,-6238,-2,894*f13606a0
%RAWIMUSA,2283,30928.000;2283,30928.000001737,00000077,64185,24,464,-6321,6,848*bb900326
#RANGECMPA,COM3,0,79.0,FREEWHEELING,2283,30928.000,02484000,9691,15823;0*7cf684ae
%RAWIMUSA,2283,30928.010;2283,30928.010001737,00000077,64186,24,456,-6432,5,-952*bbb5a1e5
%RAWIMUSA,2283,30928.020;2283,30928.020001737,00000077,64189,22,455,-6460,-22,-989*84028b24
%RAWIMUSA,2283,30928.030;2283,30928.030001737,00000077,64187,23,464,-6543,-2,464*2b8dd9a7
%RAWIMUSA,2283,30928.040;2283,30928.040001737,00000077,64187,25,461,-6662,-2,848*bb8da181
%RAWIMUSA,2283,30928.050;2283,30928.050001737,00000077,64189,19,457,-6727,6,-10*34057613
%RAWIMUSA,2283,30928.060;2283,30928.060001737,00000077,64185,29,458,-6801,-12,-998*9c31da4b
%RAWIMUSA,2283,30928.070;2283,30928.070001737,00000077,64192,16,464,-6865,-12,-504*c1e19fb0
%RAWIMUSA,2283,30928.080;2283,30928.080001737,00000077,64186,27,463,-6930,-2,857*e90496be
%RAWIMUSA,2283,30928.090;2283,30928.090001737,00000077,64189,24,471,-7068,7,903*9559de6c
%RAWIMUSA,2283,30928.100;2283,30928.100001737,00000077,64185,32,458,-7133,-3,-980*ba45e3d5
%RAWIMUSA,2283,30928.110;2283,30928.110001737,00000077,64192,16,459,-7188,-12,-943*217c6a6b
%RAWIMUSA,2283,30928.120;2283,30928.120001737,00000077,64183,27,460,-7280,-11,345*171306c1
%RAWIMUSA,2283,30928.130;2283,30928.130001737,00000077,64192,8,448,-7381,7,903*18e2095b
%RAWIMUSA,2283,30928.140;2283,30928.140001737,00000077,64185,39,463,-7437,-2,-20*b338aa69
%RAWIMUSA,2283,30928.150;2283,30928.150001737,00000077,64194,16,469,-7520,-12,-943*1335fdd7
%RAWIMUSA,2283,30928.160;2283,30928.160001737,00000077,64183,32,467,-7575,-11,-605*4275c530
%RAWIMUSA,2283,30928.170;2283,30928.170001737,00000077,64194,13,453,-7676,-1,884*6f8759ff
%RAWIMUSA,2283,30928.180;2283,30928.180001737,00000077,64185,38,465,-7796,-1,866*9fad33a7
%RAWIMUSA,2283,30928.190;2283,30928.190001737,00000077,64187,13,464,-7852,-2,-898*6ca4403f
%RAWIMUSA,2283,30928.200;2283,30928.200001737,00000077,64192,21,457,-7916,-11,-962*54c13df5
%RAWIMUSA,2283,30928.210;2283,30928.210001737,00000077,64186,30,458,-7980,-10,299*487b622c
%RAWIMUSA,2283,30928.220;2283,30928.220001737,00000077,64185,19,463,-8091,-1,884*47471d20
%RAWIMUSA,2283,30928.230;2283,30928.230001737,00000077,64185,32,466,-8202,7,52*3ffb35ad
%RAWIMUSA,2283,30928.240;2283,30928.240001737,00000077,64189,12,453,-8248,-20,-989*17c0ecde
%RAWIMUSA,2283,30928.250;2283,30928.250001737,00000077,64188,26,461,-8331,-11,-633*b87d7b62
%RAWIMUSA,2283,30928.260;2283,30928.260001737,00000077,64183,31,459,-8423,0,857*ccf11d76
%RAWIMUSA,2283,30928.270;2283,30928.270001737,00000077,64185,17,463,-8487,8,875*9c5839eb
%RAWIMUSA,2283,30928.280;2283,30928.280001737,00000077,64189,21,465,-8570,-11,-852*66737df0
%RAWIMUSA,2283,30928.290;2283,30928.290001737,00000077,64185,26,458,-8644,-11,-989*706e5fb1
%RAWIMUSA,2283,30928.300;2283,30928.300001737,00000077,64189,20,459,-8699,-10,262*d01b7207
%RAWIMUSA,2283,30928.310;2283,30928.310001737,00000077,64187,32,464,-8828,8,866*f56c3328
%RAWIMUSA,2283,30928.320;2283,30928.320001737,00000077,64187,16,459,-8911,0,98*643332b8
%RAWIMUSA,2283,30928.330;2283,30928.330001737,00000077,64185,14,460,-8948,-20,-980*26b7c0c6
%RAWIMUSA,2283,30928.340;2283,30928.340001737,00000077,64187,29,460,-9040,-10,-697*2de4bbcb
%RAWIMUSA,2283,30928.350;2283,30928.350001737,00000077,64187,23,467,-9123,0,866*da9ab0f1
%RAWIMUSA,2283,30928.360;2283,30928.360001737,00000077,64187,22,468,-9215,0,857*e3703e11
%RAWIMUSA,2283,30928.370;2283,30928.370001737,00000077,64187,22,459,-9317,-1,-816*15a00f6b
%RAWIMUSA,2283,30928.380;2283,30928.380001737,00000077,64187,23,458,-9335,-10,-990*f564a640
%RAWIMUSA,2283,30928.390;2283,30928.390001737,00000077,64187,30,467,-9427,-9,207*ed4e8d74
%RAWIMUSA,2283,30928.400;2283,30928.400001737,00000077,64188,26,472,-9565,0,847*3eafae98
%RAWIMUSA,2283,30928.410;2283,30928.410001737,00000077,64186,12,460,-9621,0,134*6a08f73b
%RAWIMUSA,2283,30928.420;2283,30928.420001737,00000077,64188,30,457,-9704,-10,-999*115d0c1a
%RAWIMUSA,2283,30928.430;2283,30928.430001737,00000077,64188,26,463,-9778,-19,-752*c1bbbcda
%RAWIMUSA,2283,30928.440;2283,30928.440001737,00000077,64182,9,457,-9833,0,875*94a66f39
%RAWIMUSA,2283,30928.450;2283,30928.450001737,00000077,64188,29,463,-9962,9,856*ca660de3
%RAWIMUSA,2283,30928.460;2283,30928.460001737,00000077,64187,21,458,-10027,-9,-779*bfbba45c
%RAWIMUSA,2283,30928.470;2283,30928.470001737,00000077,64185,25,459,-10073,-18,-990*d195f21f
%RAWIMUSA,2283,30928.480;2283,30928.480001737,00000077,64185,26,465,-10155,-8,134*e04945df
%RAWIMUSA,2283,30928.490;2283,30928.490001737,00000077,64186,8,466,-10257,0,856*5b9c8768
%RAWIMUSA,2283,30928.500;2283,30928.500001737,00000077,64185,27,468,-10349,0,189*aed942b4
%RAWIMUSA,2283,30928.510;2283,30928.510001737,00000077,64188,35,466,-10432,-18,-999*262e3834
%RAWIMUSA,2283,30928.520;2283,30928.520001737,00000077,64188,15,458,-10469,-9,-798*185f48fd
%RAWIMUSA,2283,30928.530;2283,30928.530001737,00000077,64186,19,462,-10570,1,847*ba47ceda
%RAWIMUSA,2283,30928.540;2283,30928.540001737,00000077,64185,22,461,-10681,1,856*ea515637
%RAWIMUSA,2283,30928.550;2283,30928.550001737,00000077,64188,21,461,-10727,-8,-725*6836692f
%RAWIMUSA,2283,30928.560;2283,30928.560001737,00000077,64185,30,463,-10810,-18,-1008*902b1052
%RAWIMUSA,2283,30928.570;2283,30928.570001737,00000077,64187,18,464,-10883,-8,97*c833757f
%RAWIMUSA,2283,30928.580;2283,30928.580001737,00000077,64186,18,466,-10985,1,856*3753f810
%RAWIMUSA,2283,30928.590;2283,30928.590001737,00000077,64189,31,464,-11086,-7,225*06ae7c7f
%RAWIMUSA,2283,30928.600;2283,30928.600001737,00000077,64186,24,459,-11142,-8,-999*4b2c0713
%RAWIMUSA,2283,30928.610;2283,30928.610001737,00000077,64184,19,462,-11197,-17,-853*b0e7018c
%RAWIMUSA,2283,30928.620;2283,30928.620001737,00000077,64188,15,465,-11326,1,847*6f2c8797
%RAWIMUSA,2283,30928.630;2283,30928.630001737,00000077,64188,25,468,-11399,2,847*9ad69e62
%RAWIMUSA,2283,30928.640;2283,30928.640001737,00000077,64186,34,466,-11464,-17,-679*ae53bfc0
%RAWIMUSA,2283,30928.650;2283,30928.650001737,00000077,64189,18,458,-11538,-17,-999*98aae90c
%RAWIMUSA,2283,30928.660;2283,30928.660001737,00000077,64188,9,466,-11612,1,42*20b591ef
%RAWIMUSA,2283,30928.670;2283,30928.670001737,00000077,64185,29,465,-11740,2,847*fd26fdce
%RAWIMUSA,2283,30928.680;2283,30928.680001737,00000077,64184,27,457,-11814,-7,280*bb147860
%RAWIMUSA,2283,30928.690;2283,30928.690001737,00000077,64190,15,454,-11815,-17,-1009*2b6a9fda
%RAWIMUSA,2283,30928.700;2283,30928.700001737,00000077,64186,22,469,-11925,-8,-926*3e662f7f
%RAWIMUSA,2283,30928.710;2283,30928.710001737,00000077,64189,13,463,-12026,2,828*00ae8210
%RAWIMUSA,2283,30928.720;2283,30928.720001737,00000077,64187,33,468,-12137,2,847*45d31d7a
%RAWIMUSA,2283,30928.730;2283,30928.730001737,00000077,64187,30,469,-12220,-16,-625*7e2956c5
%RAWIMUSA,2283,30928.740;2283,30928.740001737,00000077,64187,8,462,-12239,-16,-1009*78b2ae05
%RAWIMUSA,2283,30928.750;2283,30928.750001737,00000077,64190,19,467,-12321,-6,-21*5335d9aa
%RAWIMUSA,2283,30928.760;2283,30928.760001737,00000077,64187,36,469,-12450,-6,837*ac93307d
%RAWIMUSA,2283,30928.770;2283,30928.770001737,00000077,64184,16,452,-12515,-6,325*eaf34ff4
%RAWIMUSA,2283,30928.780;2283,30928.780001737,00000077,64187,9,459,-12561,-16,-1009*763d40df
%RAWIMUSA,2283,30928.790;2283,30928.790001737,00000077,64187,24,468,-12653,-7,-981*faa9de8f
%RAWIMUSA,2283,30928.800;2283,30928.800001737,00000077,64186,26,472,-12745,-5,837*340344d9
%RAWIMUSA,2283,30928.810;2283,30928.810001737,00000077,64187,28,459,-12846,3,828*6b821949
%RAWIMUSA,2283,30928.820;2283,30928.820001737,00000077,64185,14,463,-12911,-16,-579*e6bb2d47
%RAWIMUSA,2283,30928.830;2283,30928.830001737,00000077,64188,20,463,-12957,-16,-1018*ee00250c
%RAWIMUSA,2283,30928.840;2283,30928.840001737,00000077,64184,31,468,-13086,-6,-85*31d2b23c
%RAWIMUSA,2283,30928.850;2283,30928.850001737,00000077,64191,21,466,-13178,3,837*165bd686
%RAWIMUSA,2283,30928.860;2283,30928.860001737,00000077,64186,18,467,-13252,-14,362*6829bea8
%RAWIMUSA,2283,30928.870;2283,30928.870001737,00000077,64187,16,454,-13317,-6,-1018*462b07bc
%RAWIMUSA,2283,30928.880;2283,30928.880001737,00000077,64188,24,463,-13372,-15,-1009*201d6458
%RAWIMUSA,2283,30928.890;2283,30928.890001737,00000077,64185,29,476,-13491,3,819*fbdfb0d2
%RAWIMUSA,2283,30928.900;2283,30928.900001737,00000077,64188,20,467,-13584,-5,819*acac0961
%RAWIMUSA,2283,30928.910;2283,30928.910001737,00000077,64187,13,461,-13612,-24,-534*79fc98ee
%RAWIMUSA,2283,30928.920;2283,30928.920001737,00000077,64183,21,465,-13695,-15,-1018*8a236f26
%RAWIMUSA,2283,30928.930;2283,30928.930001737,00000077,64185,26,462,-13796,3,-131*bb96c8cd
%RAWIMUSA,2283,30928.940;2283,30928.940001737,00000077,64189,18,464,-13879,-4,819*5632df9a
%RAWIMUSA,2283,30928.950;2283,30928.950001737,00000077,64185,16,457,-13980,-5,407*b991ec42
%RAWIMUSA,2283,30928.960;2283,30928.960001737,00000077,64188,18,464,-14017,-24,-1027*6752df2f
%RAWIMUSA,2283,30928.970;2283,30928.970001737,00000077,64189,24,471,-14091,-15,-1018*c077370e
%RAWIMUSA,2283,30928.980;2283,30928.980001737,00000077,64189,28,472,-14229,4,764*0355018b
%RAWIMUSA,2283,30928.990;2283,30928.990001737,00000077,64186,15,464,-14275,-13,837*6bb6f189
%RAWIMUSA,2283,30929.000;2283,30929.000001737,00000077,64189,24,466,-14330,-14,-488*9849247f
#RANGECMPA,COM3,0,80.0,FREEWHEELING,2283,30929.000,02484000,9691,15823;0*25d0b096
%RAWIMUSA,2283,30929.010;2283,30929.010001737,00000077,64184,27,468,-14469,-14,-1028*38958644
%RAWIMUSA,2283,30929.020;2283,30929.020001737,00000077,64184,10,471,-14515,-5,-186*16ee420f
%RAWIMUSA,2283,30929.030;2283,30929.030001737,00000077,64189,24,463,-14634,5,818*f40a0bb0
%RAWIMUSA,2283,30929.040;2283,30929.040001737,00000077,64185,25,460,-14708,-13,444*9b278c7d
%RAWIMUSA,2283,30929.050;2283,30929.050001737,00000077,64188,21,466,-14736,-23,-1019*ee0502f7
%RAWIMUSA,2283,30929.060;2283,30929.060001737,00000077,64182,23,477,-14828,-5,-1037*f4bf8f35
%RAWIMUSA,2283,30929.070;2283,30929.070001737,00000077,64185,15,461,-14929,-3,718*7a2de59e
%RAWIMUSA,2283,30929.080;2283,30929.080001737,00000077,64188,21,457,-15012,-3,818*f2cbd731
%RAWIMUSA,2283,30929.090;2283,30929.090001737,00000077,64186,30,469,-15077,-23,-461*9992c355
%RAWIMUSA,2283,30929.100;2283,30929.100001737,00000077,64189,10,469,-15132,-14,-1046*8ee63b3f
%RAWIMUSA,2283,30929.110;2283,30929.110001737,00000077,64187,16,468,-15234,-4,-232*8bacf32f
%RAWIMUSA,2283,30929.120;2283,30929.120001737,00000077,64188,27,459,-15335,-3,818*d45f6575
%RAWIMUSA,2283,30929.130;2283,30929.130001737,00000077,64186,19,471,-15390,-12,489*285c5c00
%RAWIMUSA,2283,30929.140;2283,30929.140001737,00000077,64187,22,465,-15455,-13,-1019*b5553965
%RAWIMUSA,2283,30929.150;2283,30929.150001737,00000077,64185,16,463,-15566,-4,-1037*7f970306
%RAWIMUSA,2283,30929.160;2283,30929.160001737,00000077,64188,16,468,-15657,-3,654*5a942666
%RAWIMUSA,2283,30929.170;2283,30929.170001737,00000077,64187,27,469,-15759,-12,818*f282e1fd
%RAWIMUSA,2283,30929.180;2283,30929.180001737,00000077,64187,17,470,-15796,-13,-406*3c786720
%RAWIMUSA,2283,30929.190;2283,30929.190001737,00000077,64189,17,468,-15879,-13,-1037*ccfe316a
%RAWIMUSA,2283,30929.200;2283,30929.200001737,00000077,64185,24,469,-15989,-3,-297*abc42f56
%RAWIMUSA,2283,30929.210;2283,30929.210001737,00000077,64191,14,461,-16063,-2,809*d8ca6a2a
%RAWIMUSA,2283,30929.220;2283,30929.220001737,00000077,64186,23,467,-16127,-12,544*df9da5c4
%RAWIMUSA,2283,30929.230;2283,30929.230001737,00000077,64186,17,469,-16174,-22,-1046*7e383d20
%RAWIMUSA,2283,30929.240;2283,30929.240001737,00000077,64187,8,458,-16174,-13,-1028*a6fa4c78
%RAWIMUSA,2283,30929.250;2283,30929.250001737,00000077,64187,12,458,-16164,-2,608*bd51fd46
%RAWIMUSA,2283,30929.260;2283,30929.260001737,00000077,64188,14,466,-16118,-11,800*604c2078
%RAWIMUSA,2283,30929.270;2283,30929.270001737,00000077,64187,5,464,-16054,-12,-361*eed8cbe1
%RAWIMUSA,2283,30929.280;2283,30929.280001737,00000077,64188,8,454,-16026,-13,-1037*d5deeaef
%RAWIMUSA,2283,30929.290;2283,30929.290001737,00000077,64186,13,458,-16054,-3,-351*637564cb
%RAWIMUSA,2283,30929.300;2283,30929.300001737,00000077,64188,16,463,-16072,-2,818*ae0cfb04
%RAWIMUSA,2283,30929.310;2283,30929.310001737,00000077,64185,11,472,-16072,-21,589*229d292e
%RAWIMUSA,2283,30929.320;2283,30929.320001737,00000077,64186,9,459,-16045,-13,-1037*eeff1fe6
%RAWIMUSA,2283,30929.330;2283,30929.330001737,00000077,64185,19,462,-16063,-4,-1037*1ecab072
%RAWIMUSA,2283,30929.340;2283,30929.340001737,00000077,64188,16,459,-16090,-2,562*1b81f288
%RAWIMUSA,2283,30929.350;2283,30929.350001737,00000077,64189,9,464,-16090,-11,809*80acb526
%RAWIMUSA,2283,30929.360;2283,30929.360001737,00000077,64190,10,464,-16054,-22,-297*bb9fbc22
%RAWIMUSA,2283,30929.370;2283,30929.370001737,00000077,64187,15,463,-16054,-13,-1046*5858ccba
%RAWIMUSA,2283,30929.380;2283,30929.380001737,00000077,64187,12,459,-16063,-3,-406*3142f50e
%RAWIMUSA,2283,30929.390;2283,30929.390001737,00000077,64189,9,459,-16090,-2,809*0a19c920
%RAWIMUSA,2283,30929.400;2283,30929.400001737,00000077,64189,11,468,-16072,-21,635*de3216ca
%RAWIMUSA,2283,30929.410;2283,30929.410001737,00000077,64187,18,468,-16054,-22,-1046*091c86bf
%RAWIMUSA,2283,30929.420;2283,30929.420001737,00000077,64187,18,460,-16072,-4,-1046*e9a6308f
%RAWIMUSA,2283,30929.430;2283,30929.430001737,00000077,64188,8,456,-16100,6,507*6afad23f
%RAWIMUSA,2283,30929.440;2283,30929.440001737,00000077,64186,8,465,-16100,-21,809*aafbca8e
%RAWIMUSA,2283,30929.450;2283,30929.450001737,00000077,64188,15,465,-16063,-12,-251*be2e3174
%RAWIMUSA,2283,30929.460;2283,30929.460001737,00000077,64183,13,463,-16054,-13,-1046*d60aa395
%RAWIMUSA,2283,30929.470;2283,30929.470001737,00000077,64187,11,457,-16081,-3,-452*c3340bd0
%RAWIMUSA,2283,30929.480;2283,30929.480001737,00000077,64189,12,461,-16100,-11,818*9d06c2e0
%RAWIMUSA,2283,30929.490;2283,30929.490001737,00000077,64191,14,468,-16072,-12,699*d3c3d052
%RAWIMUSA,2283,30929.500;2283,30929.500001737,00000077,64186,15,471,-16054,-22,-1037*fb9a9480
