%RAWIMUSA,2283,42677.970;2283,42677.969998774,00000077,64191,1,456,9,0,-896*07b300d7
%RAWIMUSA,2283,42677.980;2283,42677.979998774,00000077,64179,42,465,-18,9,768*f1195a72
%RAWIMUSA,2283,42677.990;2283,42677.989998774,00000077,64194,-21,449,-8,9,996*8a716c61
%RAWIMUSA,2283,42678.000;2283,42677.999998774,00000077,64183,48,438,27,-9,-319*bc0bad7c
%RAWIMUSA,2283,42678.010;2283,42678.009998774,00000077,64191,1,453,18,-10,-959*20df8ba8
%RAWIMUSA,2283,42678.020;2283,42678.019998774,00000077,64183,27,468,-18,9,-137*47d1a5b8
%RAWIMUSA,2283,42678.030;2283,42678.029998774,00000077,64187,13,454,-8,0,914*056ae178
%RAWIMUSA,2283,42678.040;2283,42678.039998774,00000077,64189,10,440,9,0,722*b5a58fd4
%RAWIMUSA,2283,42678.050;2283,42678.049998774,00000077,64183,43,455,27,-10,-996*b1b0b525
%RAWIMUSA,2283,42678.060;2283,42678.059998774,00000077,64194,-15,466,0,0,-905*2880d3a0
%RAWIMUSA,2283,42678.070;2283,42678.069998774,00000077,64182,45,456,-8,9,740*a423d9ee
%RAWIMUSA,2283,42678.080;2283,42678.079998774,00000077,64194,-9,436,0,9,969*3b716134
%RAWIMUSA,2283,42678.090;2283,42678.089998774,00000077,64181,44,454,18,-9,-246*ff96dcc0
%RAWIMUSA,2283,42678.100;2283,42678.099998774,00000077,64187,2,468,18,-10,-978*9537e50b
%RAWIMUSA,2283,42678.110;2283,42678.109998774,00000077,64189,17,455,-18,9,-182*ae9e577e
%RAWIMUSA,2283,42678.120;2283,42678.119998774,00000077,64181,31,438,-8,9,914*4b56ffea
%RAWIMUSA,2283,42678.130;2283,42678.129998774,00000077,64192,-2,453,9,0,777*fe4f686a
%RAWIMUSA,2283,42678.140;2283,42678.139998774,00000077,64183,45,469,18,-10,-996*5c861a85
%RAWIMUSA,2283,42678.150;2283,42678.149998774,00000077,64192,-18,456,9,-9,-932*3d7f860a
%RAWIMUSA,2283,42678.160;2283,42678.159998774,00000077,64183,50,438,-18,18,704*29c86fc4
%RAWIMUSA,2283,42678.170;2283,42678.169998774,00000077,64191,0,452,-8,0,960*8e8e5012
%RAWIMUSA,2283,42678.180;2283,42678.179998774,00000077,64183,22,466,27,0,-191*5ccf786e
%RAWIMUSA,2283,42678.190;2283,42678.189998774,00000077,64189,16,457,18,-19,-996*938c4f6b
%RAWIMUSA,2283,42678.200;2283,42678.199998774,00000077,64189,8,437,-18,18,-228*e07d9232
%RAWIMUSA,2283,42678.210;2283,42678.209998774,00000077,64181,42,454,-18,0,914*0a4380a6
%RAWIMUSA,2283,42678.220;2283,42678.219998774,00000077,64196,-15,463,18,0,823*4f923690
%RAWIMUSA,2283,42678.230;2283,42678.229998774,00000077,64179,44,457,18,-10,-978*c38c675e
%RAWIMUSA,2283,42678.240;2283,42678.239998773,00000077,64191,-4,438,0,0,-941*f8ce140d
%RAWIMUSA,2283,42678.250;2283,42678.249998773,00000077,64186,43,444,-8,9,658*1ba37b6a
%RAWIMUSA,2283,42678.260;2283,42678.259998773,00000077,64184,-4,466,0,9,941*ca34e13c
%RAWIMUSA,2283,42678.270;2283,42678.269998773,00000077,64185,21,456,18,-9,-109*17a95cfb
%RAWIMUSA,2283,42678.280;2283,42678.279998773,00000077,64188,29,445,18,-10,-996*d5f88db7
%RAWIMUSA,2283,42678.290;2283,42678.289998773,00000077,64189,-1,447,-18,8,-274*c6911443
%RAWIMUSA,2283,42678.300;2283,42678.299998773,00000077,64185,38,464,-8,9,923*84946d13
%RAWIMUSA,2283,42678.310;2283,42678.309998773,00000077,64195,-9,457,9,-8,868*bb9e0ccd
%RAWIMUSA,2283,42678.320;2283,42678.319998773,00000077,64182,49,445,27,-10,-987*03c47531
%RAWIMUSA,2283,42678.330;2283,42678.329998773,00000077,64195,-10,448,-9,0,-950*8a040b6b
%RAWIMUSA,2283,42678.340;2283,42678.339998773,00000077,64185,33,460,-8,9,631*13159592
%RAWIMUSA,2283,42678.350;2283,42678.349998773,00000077,64188,13,456,0,0,914*f6d5cf6b
%RAWIMUSA,2283,42678.360;2283,42678.359998773,00000077,64190,8,448,18,0,-45*32aa4756
%RAWIMUSA,2283,42678.370;2283,42678.369998773,00000077,64180,41,450,18,-10,-1005*1d832200
%RAWIMUSA,2283,42678.380;2283,42678.379998773,00000077,64192,-14,461,-18,8,-347*f7d87f33
%RAWIMUSA,2283,42678.390;2283,42678.389998773,00000077,64183,49,455,-18,9,932*02e8594c
%RAWIMUSA,2283,42678.400;2283,42678.399998773,00000077,64192,-8,448,18,-8,896*3258efa4
%RAWIMUSA,2283,42678.410;2283,42678.409998773,00000077,64185,39,452,27,-10,-950*61f0c95c
%RAWIMUSA,2283,42678.420;2283,42678.419998773,00000077,64187,4,459,-9,8,-969*b72db173
%RAWIMUSA,2283,42678.430;2283,42678.429998773,00000077,64188,14,454,-8,9,585*e4f0f5ad
%RAWIMUSA,2283,42678.440;2283,42678.439998773,00000077,64183,34,447,0,0,923*23d5ba4f
%RAWIMUSA,2283,42678.450;2283,42678.449998773,00000077,64189,-8,452,18,-9,0*43f48bd2
%RAWIMUSA,2283,42678.460;2283,42678.459998773,00000077,64183,45,461,18,-10,-996*7e690ab5
%RAWIMUSA,2283,42678.470;2283,42678.469998773,00000077,64194,-10,451,-18,8,-411*854e43b0
%RAWIMUSA,2283,42678.480;2283,42678.479998773,00000077,64180,47,446,-18,9,960*93706065
%RAWIMUSA,2283,42678.490;2283,42678.489998773,00000077,64191,-1,452,28,-8,932*a1b50d11
%RAWIMUSA,2283,42678.500;2283,42678.499998773,00000077,64182,19,459,18,-9,-932*0e2360ae
%RAWIMUSA,2283,42678.510;2283,42678.509998773,00000077,64186,23,457,0,8,-996*5c91294a
%RAWIMUSA,2283,42678.520;2283,42678.519998773,00000077,64192,3,448,-18,9,539*5c5ec7af
%RAWIMUSA,2283,42678.530;2283,42678.529998773,00000077,64184,44,452,0,-8,914*effa66ee
%RAWIMUSA,2283,42678.540;2283,42678.539998773,00000077,64195,-17,457,27,0,36*d893699e
%RAWIMUSA,2283,42678.550;2283,42678.549998773,00000077,64184,46,454,9,-10,-969*2dbaa283
%RAWIMUSA,2283,42678.560;2283,42678.559998773,00000077,64191,-5,447,-18,8,-475*f8663821
%RAWIMUSA,2283,42678.570;2283,42678.569998773,00000077,64183,32,455,-8,0,978*795b24a3
%RAWIMUSA,2283,42678.580;2283,42678.579998773,00000077,64186,15,460,18,0,923*b9186d89
%RAWIMUSA,2283,42678.590;2283,42678.589998773,00000077,64189,10,454,18,-19,-886*a5b147c0
%RAWIMUSA,2283,42678.600;2283,42678.599998773,00000077,64183,37,444,0,8,-1005*4ffb62c8
%RAWIMUSA,2283,42678.610;2283,42678.609998773,00000077,64191,-11,450,-18,9,493*e070e57d
%RAWIMUSA,2283,42678.620;2283,42678.619998773,00000077,64183,53,462,0,0,932*05817d78
%RAWIMUSA,2283,42678.630;2283,42678.629998773,00000077,64194,-14,453,27,-18,73*ca8d0bf0
%RAWIMUSA,2283,42678.640;2283,42678.639998773,00000077,64185,35,444,9,0,-941*244d82d6
%RAWIMUSA,2283,42678.650;2283,42678.649998773,00000077,64191,13,450,-18,8,-575*5e1ea3d3
%RAWIMUSA,2283,42678.660;2283,42678.659998773,00000077,64181,20,465,-8,9,1005*8fd591cf
%RAWIMUSA,2283,42678.670;2283,42678.669998773,00000077,64186,26,457,18,-8,905*813d5397
%RAWIMUSA,2283,42678.680;2283,42678.679998773,00000077,64193,-14,439,18,-9,-831*1d8771be
%RAWIMUSA,2283,42678.690;2283,42678.689998773,00000077,64182,57,448,-9,8,-987*30eb543b
%RAWIMUSA,2283,42678.700;2283,42678.699998773,00000077,64193,-11,464,-8,9,411*79f14900
%RAWIMUSA,2283,42678.710;2283,42678.709998773,00000077,64180,33,459,9,-8,978*85dbef5b
%RAWIMUSA,2283,42678.720;2283,42678.719998773,00000077,64188,6,442,18,-9,82*4a622626
%RAWIMUSA,2283,42678.730;2283,42678.729998773,00000077,64188,17,448,9,0,-905*c190c397
%RAWIMUSA,2283,42678.740;2283,42678.739998773,00000077,64183,39,463,-18,8,-630*e2a5399a
%RAWIMUSA,2283,42678.750;2283,42678.749998773,00000077,64193,-20,461,-8,0,1005*a68d9670
%RAWIMUSA,2283,42678.760;2283,42678.759998773,00000077,64182,57,444,28,-8,941*6b613054
%RAWIMUSA,2283,42678.770;2283,42678.769998773,00000077,64192,-10,447,18,0,-831*1e35698b
%RAWIMUSA,2283,42678.780;2283,42678.779998773,00000077,64192,27,459,-9,8,-914*5fdf1784
%RAWIMUSA,2283,42678.790;2283,42678.789998773,00000077,64190,17,463,-8,9,283*c0d6dc7c
%RAWIMUSA,2283,42678.800;2283,42678.799998773,00000077,64190,5,447,0,-8,1024*bbebda7a
%RAWIMUSA,2283,42678.810;2283,42678.809998773,00000077,64175,53,441,27,-9,109*471e0a90
%RAWIMUSA,2283,42678.820;2283,42678.819998773,00000077,64196,-22,457,9,8,-914*ab4692c6
%RAWIMUSA,2283,42678.830;2283,42678.829998773,00000077,64181,46,469,-18,8,-639*45a995f8
%RAWIMUSA,2283,42678.840;2283,42678.839998773,00000077,64191,2,446,-8,0,951*dd937a29
%RAWIMUSA,2283,42678.850;2283,42678.849998773,00000077,64186,24,438,28,-8,987*1a97236d
%RAWIMUSA,2283,42678.860;2283,42678.859998773,00000077,64189,20,461,18,0,-822*6c64e111
%RAWIMUSA,2283,42678.870;2283,42678.869998773,00000077,64191,-4,467,-9,0,-886*d5b0a731
%RAWIMUSA,2283,42678.880;2283,42678.879998773,00000077,64180,57,449,-18,9,237*e09e88db
%RAWIMUSA,2283,42678.890;2283,42678.889998773,00000077,64193,-19,439,9,-8,1005*6f410f80
%RAWIMUSA,2283,42678.900;2283,42678.899998773,00000077,64180,45,459,18,0,201*b654e2e4
%RAWIMUSA,2283,42678.910;2283,42678.909998773,00000077,64188,4,464,9,0,-960*21e873dd
%RAWIMUSA,2283,42678.920;2283,42678.919998773,00000077,64186,14,449,-18,8,-667*c14549aa
%RAWIMUSA,2283,42678.930;2283,42678.929998773,00000077,64185,33,440,0,-8,914*ba7b972b
%RAWIMUSA,2283,42678.940;2283,42678.939998773,00000077,64192,-3,457,18,0,1005*fcb8f3b1
%RAWIMUSA,2283,42678.950;2283,42678.949998773,00000077,64183,49,467,18,-9,-758*9bbdbd8a
%RAWIMUSA,2283,42678.960;2283,42678.959998773,00000077,64193,-13,446,-18,8,-923*5d864ef8
%RAWIMUSA,2283,42678.970;2283,42678.969998773,00000077,64182,42,439,-9,9,219*f88a4ba2
%RAWIMUSA,2283,42678.980;2283,42678.979998773,00000077,64192,1,456,9,-8,960*f17a5e66
%RAWIMUSA,2283,42678.990;2283,42678.989998773,00000077,64187,29,471,27,-9,301*a5ff605a
%RAWIMUSA,2283,42679.000;2283,42678.999998773,00000077,64186,22,446,0,8,-996*a170e642
%RAWIMUSA,2283,42679.010;2283,42679.009998773,00000077,64191,5,435,-9,8,-694*fc99537c
%RAWIMUSA,2283,42679.020;2283,42679.019998773,00000077,64183,38,458,-8,0,914*58d85d17
%RAWIMUSA,2283,42679.030;2283,42679.029998773,00000077,64192,-9,471,18,-8,1005*dcc80fd7
%RAWIMUSA,2283,42679.040;2283,42679.039998773,00000077,64182,47,448,18,0,-713*44598c1f
%RAWIMUSA,2283,42679.050;2283,42679.049998773,00000077,64195,-12,435,-9,8,-932*cbb59b0e
%RAWIMUSA,2283,42679.060;2283,42679.059998773,00000077,64180,42,461,-18,9,192*edd397f5
%RAWIMUSA,2283,42679.070;2283,42679.069998773,00000077,64190,4,469,9,-17,941*0cfc1644
%RAWIMUSA,2283,42679.080;2283,42679.079998773,00000077,64190,17,445,18,0,347*9eaec443
%RAWIMUSA,2283,42679.090;2283,42679.089998773,00000077,64184,31,438,0,0,-987*336456c5
%RAWIMUSA,2283,42679.100;2283,42679.099998773,00000077,64192,-4,459,-9,8,-758*1012966c
%RAWIMUSA,2283,42679.110;2283,42679.109998773,00000077,64182,47,468,-8,-8,932*4a9ed737
%RAWIMUSA,2283,42679.120;2283,42679.119998773,00000077,64194,-14,445,28,0,987*b80bbcce
%RAWIMUSA,2283,42679.130;2283,42679.129998773,00000077,64184,49,440,18,0,-621*6db89933
%RAWIMUSA,2283,42679.140;2283,42679.139998773,00000077,64188,-2,461,-18,8,-969*c7ddbb8e
%RAWIMUSA,2283,42679.150;2283,42679.149998773,00000077,64188,19,463,-9,0,173*ff60b22c
%RAWIMUSA,2283,42679.160;2283,42679.159998773,00000077,64187,25,452,9,-8,923*7d7237c0
%RAWIMUSA,2283,42679.170;2283,42679.169998773,00000077,64192,5,442,18,0,411*24d45d6a
%RAWIMUSA,2283,42679.180;2283,42679.179998773,00000077,64179,50,458,0,8,-996*a55dc6b6
%RAWIMUSA,2283,42679.190;2283,42679.189998773,00000077,64192,-20,462,-9,8,-804*6a7abe10
%RAWIMUSA,2283,42679.200;2283,42679.199998773,00000077,64183,49,442,0,-8,951*e2ac393a
%RAWIMUSA,2283,42679.210;2283,42679.209998773,00000077,64194,-1,444,18,-8,960*70fca4d7
%RAWIMUSA,2283,42679.220;2283,42679.219998773,00000077,64186,26,462,18,8,-530*9662c237
%RAWIMUSA,2283,42679.230;2283,42679.229998773,00000077,64185,23,462,-18,0,-1005*d791fff6
%RAWIMUSA,2283,42679.240;2283,42679.239998773,00000077,64193,-7,444,-18,9,146*d6c9cb10
%RAWIMUSA,2283,42679.250;2283,42679.249998773,00000077,64176,52,447,18,-8,923*59146f4a
%RAWIMUSA,2283,42679.260;2283,42679.259998773,00000077,64193,-21,460,27,-8,448*5eaf2c5e
%RAWIMUSA,2283,42679.270;2283,42679.269998773,00000077,64185,50,461,-9,8,-950*b32b36cd
%RAWIMUSA,2283,42679.280;2283,42679.279998773,00000077,64188,6,448,-9,8,-923*55793013
%RAWIMUSA,2283,42679.290;2283,42679.289998773,00000077,64191,11,446,0,-8,1005*3864eb11
%RAWIMUSA,2283,42679.300;2283,42679.299998773,00000077,64182,38,459,18,0,914*e2c42a16
%RAWIMUSA,2283,42679.310;2283,42679.309998773,00000077,64195,-13,461,9,0,-475*5c2a6bb3
%RAWIMUSA,2283,42679.320;2283,42679.319998773,00000077,64182,52,447,-9,8,-996*1e693cac
%RAWIMUSA,2283,42679.330;2283,42679.329998773,00000077,64194,-7,445,-18,0,54*0eea1391
%RAWIMUSA,2283,42679.340;2283,42679.339998773,00000077,64184,39,461,18,-8,969*3fb1e6ea
%RAWIMUSA,2283,42679.350;2283,42679.349998773,00000077,64190,-5,461,18,-8,457*7cd87db5
%RAWIMUSA,2283,42679.360;2283,42679.359998773,00000077,64188,30,447,0,8,-923*01783fdf
%RAWIMUSA,2283,42679.370;2283,42679.369998773,00000077,64187,28,448,-9,8,-987*cdb1a13e
%RAWIMUSA,2283,42679.380;2283,42679.379998773,00000077,64191,0,457,0,0,1005*6ba76147
%RAWIMUSA,2283,42679.390;2283,42679.389998773,00000077,64181,36,464,18,-17,914*94b2a7fb
%RAWIMUSA,2283,42679.400;2283,42679.399998773,00000077,64191,-6,447,9,8,-429*3a5433a3
%RAWIMUSA,2283,42679.410;2283,42679.409998773,00000077,64182,54,444,-9,8,-978*b0144b20
%RAWIMUSA,2283,42679.420;2283,42679.419998773,00000077,64194,-10,458,-18,0,0*a881d98f
%RAWIMUSA,2283,42679.430;2283,42679.429998773,00000077,64181,35,461,28,-8,960*3abfa33e
%RAWIMUSA,2283,42679.440;2283,42679.439998773,00000077,64188,7,447,18,-8,503*cf51f8d2
%RAWIMUSA,2283,42679.450;2283,42679.449998773,00000077,64189,20,443,-9,8,-923*a1571289
%RAWIMUSA,2283,42679.460;2283,42679.459998773,00000077,64185,27,462,-9,8,-996*51c44ff5
%RAWIMUSA,2283,42679.470;2283,42679.469998773,00000077,64192,-2,463,0,-8,960*80550290
%RAWIMUSA,2283,42679.480;2283,42679.479998773,00000077,64181,48,445,18,-8,914*c4a63028
%RAWIMUSA,2283,42679.490;2283,42679.489998773,00000077,64194,-15,445,18,8,-383*c61273b6
%RAWIMUSA,2283,42679.500;2283,42679.499998773,00000077,64182,45,464,-18,8,-960*aa3caacd
%RAWIMUSA,2283,42679.510;2283,42679.509998773,00000077,64190,-4,462,-18,0,-73*4f78faa7
%RAWIMUSA,2283,42679.520;2283,42679.519998773,00000077,64184,33,446,18,-8,996*93f498e6
%RAWIMUSA,2283,42679.530;2283,42679.529998773,00000077,64190,15,445,27,-8,530*8182c102
%RAWIMUSA,2283,42679.540;2283,42679.539998773,00000077,64191,5,461,-9,8,-896*3113a695
%RAWIMUSA,2283,42679.550;2283,42679.549998773,00000077,64180,48,463,-9,0,-1005*cf2f1fcb
%RAWIMUSA,2283,42679.560;2283,42679.559998773,00000077,64194,-18,441,0,0,896*8293cdfe
%RAWIMUSA,2283,42679.570;2283,42679.569998773,00000077,64183,51,448,28,-8,932*4f84fda0
%RAWIMUSA,2283,42679.580;2283,42679.579998773,00000077,64190,-5,463,9,8,-356*556eaedf
%RAWIMUSA,2283,42679.590;2283,42679.589998773,00000077,64186,28,460,-18,8,-932*c5466548
%RAWIMUSA,2283,42679.600;2283,42679.599998773,00000077,64190,24,443,-18,-9,-173*4cce0ca5
%RAWIMUSA,2283,42679.610;2283,42679.609998773,00000077,64189,-1,447,28,0,1024*70b9252d
%RAWIMUSA,2283,42679.620;2283,42679.619998773,00000077,64176,54,461,18,-8,585*94d1920d
%RAWIMUSA,2283,42679.630;2283,42679.629998773,00000077,64196,-21,456,-9,8,-923*3b80fb53
%RAWIMUSA,2283,42679.640;2283,42679.639998773,00000077,64185,43,447,-9,8,-960*5ab4cfc8
%RAWIMUSA,2283,42679.650;2283,42679.649998773,00000077,64184,6,448,0,-8,786*79300f50
%RAWIMUSA,2283,42679.660;2283,42679.659998773,00000077,64187,19,459,28,-8,1005*35b66e20
%RAWIMUSA,2283,42679.670;2283,42679.669998773,00000077,64177,34,461,9,8,-356*575e09cf
%RAWIMUSA,2283,42679.680;2283,42679.679998773,00000077,64197,-16,445,-18,8,-905*ec9f9f8e
%RAWIMUSA,2283,42679.690;2283,42679.689998773,00000077,64182,57,438,-9,-9,-219*0f025ada
%RAWIMUSA,2283,42679.700;2283,42679.699998773,00000077,64194,-11,464,18,0,987*83767136
%RAWIMUSA,2283,42679.710;2283,42679.709998773,00000077,64189,39,472,27,0,685*1eafcee8
%RAWIMUSA,2283,42679.720;2283,42679.719998773,00000077,64188,5,446,-9,8,-978*5b3ed302
%RAWIMUSA,2283,42679.730;2283,42679.729998773,00000077,64186,13,431,-18,0,-914*2478069b
%RAWIMUSA,2283,42679.740;2283,42679.739998773,00000077,64186,43,463,9,-8,713*9103b79a
%RAWIMUSA,2283,42679.750;2283,42679.749998773,00000077,64191,-8,474,18,0,1005*f9b5cadf
%RAWIMUSA,2283,42679.760;2283,42679.759998773,00000077,64182,40,442,9,0,-292*7d4934bd
%RAWIMUSA,2283,42679.770;2283,42679.769998773,00000077,64195,-10,430,-18,8,-932*07b6e654
%RAWIMUSA,2283,42679.780;2283,42679.779998773,00000077,64180,52,465,-9,0,-228*f15a719a
%RAWIMUSA,2283,42679.790;2283,42679.789998773,00000077,64193,4,474,28,-8,951*4580b87f
%RAWIMUSA,2283,42679.800;2283,42679.799998773,00000077,64185,13,441,18,0,759*355f4dcf
%RAWIMUSA,2283,42679.810;2283,42679.809998773,00000077,64182,24,429,-9,8,-996*b14758d5
%RAWIMUSA,2283,42679.820;2283,42679.819998773,00000077,64190,15,464,-18,0,-905*ccc93428
%RAWIMUSA,2283,42679.830;2283,42679.829998773,00000077,64180,37,475,9,-8,658*65affb1d
%RAWIMUSA,2283,42679.840;2283,42679.839998773,00000077,64193,-22,440,18,-8,1005*6b063bcf
%RAWIMUSA,2283,42679.850;2283,42679.849998773,00000077,64182,55,430,9,8,-219*37c89101
%RAWIMUSA,2283,42679.860;2283,42679.859998773,00000077,64192,0,461,-18,8,-941*24ff7a8d
%RAWIMUSA,2283,42679.870;2283,42679.869998773,00000077,64185,32,473,0,-9,-274*47a0120d
%RAWIMUSA,2283,42679.880;2283,42679.879998773,00000077,64188,1,443,18,-8,932*0b3c96bf
%RAWIMUSA,2283,42679.890;2283,42679.889998773,00000077,64188,19,435,18,9,823*be91462d
%RAWIMUSA,2283,42679.900;2283,42679.899998773,00000077,64183,41,464,-9,8,-987*722cfd8b
%RAWIMUSA,2283,42679.910;2283,42679.909998773,00000077,64191,-13,472,-18,0,-914*1ac32fa2
%RAWIMUSA,2283,42679.920;2283,42679.919998773,00000077,64181,44,442,18,-8,612*c4ff772e
%RAWIMUSA,2283,42679.930;2283,42679.929998773,00000077,64196,-3,434,18,0,978*cd1ad58d
%RAWIMUSA,2283,42679.940;2283,42679.939998773,00000077,64183,49,464,0,9,-146*de6d3f43
%RAWIMUSA,2283,42679.950;2283,42679.949998773,00000077,64193,-7,470,-9,0,-978*2bcc9a29
%RAWIMUSA,2283,42679.960;2283,42679.959998773,00000077,64185,17,439,-9,-9,-283*a5c145f3
%RAWIMUSA,2283,42679.970;2283,42679.969998773,00000077,64183,39,435,18,-8,914*2f7004d7
%RAWIMUSA,2283,42679.980;2283,42679.979998773,00000077,64192,-5,463,18,18,887*53b9b93e
%RAWIMUSA,2283,42679.990;2283,42679.989998773,00000077,64180,37,471,-9,0,-987*ef344119
%RAWIMUSA,2283,42680.000;2283,42679.999998773,00000077,64199,-15,442,-18,0,-941*7d5b8231
%RAWIMUSA,2283,42680.010;2283,42680.009998773,00000077,64180,53,439,18,-8,594*911f0495
%RAWIMUSA,2283,42680.020;2283,42680.019998773,00000077,64191,0,461,18,0,951*336a7036
%RAWIMUSA,2283,42680.030;2283,42680.029998773,00000077,64188,22,468,0,9,-54*0684b642
%RAWIMUSA,2283,42680.040;2283,42680.039998773,00000077,64184,21,446,-18,0,-996*859cab94
%RAWIMUSA,2283,42680.050;2283,42680.049998773,00000077,64193,3,438,0,0,-329*4a251c4f
%RAWIMUSA,2283,42680.060;2283,42680.059998773,00000077,64178,55,459,18,-8,914*581af6c1
%RAWIMUSA,2283,42680.070;2283,42680.069998773,00000077,64193,-24,465,28,0,914*fbc1e25b
%RAWIMUSA,2283,42680.080;2283,42680.079998773,00000077,64184,47,448,-18,8,-960*96e00213
%RAWIMUSA,2283,42680.090;2283,42680.089998773,00000077,64189,4,440,-18,-9,-969*20da4934
%RAWIMUSA,2283,42680.100;2283,42680.099998773,00000077,64186,24,458,18,0,585*b9f7ce33
%RAWIMUSA,2283,42680.110;2283,42680.109998773,00000077,64187,24,466,28,-8,914*105eb697
%RAWIMUSA,2283,42680.120;2283,42680.119998773,00000077,64195,0,448,-9,9,9*ec9d25dd
%RAWIMUSA,2283,42680.130;2283,42680.129998773,00000077,64179,54,443,-9,8,-1005*c936d7d6
%RAWIMUSA,2283,42680.140;2283,42680.139998773,00000077,64195,-17,452,0,-9,-402*447d3cad
%RAWIMUSA,2283,42680.150;2283,42680.149998772,00000077,64183,43,465,18,-8,941*1069420d
%RAWIMUSA,2283,42680.160;2283,42680.159998772,00000077,64193,-3,451,18,9,941*272644b1
%RAWIMUSA,2283,42680.170;2283,42680.169998772,00000077,64183,38,442,-9,8,-932*194a60fc
%RAWIMUSA,2283,42680.180;2283,42680.179998772,00000077,64184,8,454,-18,0,-978*9308ce5f
%RAWIMUSA,2283,42680.190;2283,42680.189998772,00000077,64188,11,466,18,-8,539*07934cd5
%RAWIMUSA,2283,42680.200;2283,42680.199998772,00000077,64184,36,451,18,0,914*5e0e5a1d
%RAWIMUSA,2283,42680.210;2283,42680.209998772,00000077,64195,-2,441,0,9,64*1423abc8
%RAWIMUSA,2283,42680.220;2283,42680.219998772,00000077,64184,48,456,-9,0,-987*c4ea0df5
%RAWIMUSA,2283,42680.230;2283,42680.229998772,00000077,64197,-14,464,-9,-9,-457*f2ff8227
%RAWIMUSA,2283,42680.240;2283,42680.239998772,00000077,64180,45,453,28,0,951*fcf9e7cf
%RAWIMUSA,2283,42680.250;2283,42680.249998772,00000077,64187,1,437,18,0,960*bfcd3777
%RAWIMUSA,2283,42680.260;2283,42680.259998772,00000077,64185,29,453,-18,17,-877*ecbc5490
%RAWIMUSA,2283,42680.270;2283,42680.269998772,00000077,64187,18,469,-18,-10,-996*254a72e7
%RAWIMUSA,2283,42680.280;2283,42680.279998772,00000077,64195,-6,453,18,-8,503*53546726
%RAWIMUSA,2283,42680.290;2283,42680.289998772,00000077,64179,59,439,28,0,923*66b82970
%RAWIMUSA,2283,42680.300;2283,42680.299998772,00000077,64192,-16,454,0,9,73*0e4527e6
%RAWIMUSA,2283,42680.310;2283,42680.309998772,00000077,64186,41,469,-18,-9,-960*ff42ab62
%RAWIMUSA,2283,42680.320;2283,42680.319998772,00000077,64189,2,454,0,-9,-557*b8be788a
%RAWIMUSA,2283,42680.330;2283,42680.329998772,00000077,64184,24,438,18,0,1005*276f4a8a
%RAWIMUSA,2283,42680.340;2283,42680.339998772,00000077,64188,31,453,18,9,914*829a5d1e
%RAWIMUSA,2283,42680.350;2283,42680.349998772,00000077,64191,-9,466,-9,8,-813*5db80986
%RAWIMUSA,2283,42680.360;2283,42680.359998772,00000077,64183,49,453,-18,-10,-996*e5b6d4e8
%RAWIMUSA,2283,42680.370;2283,42680.369998772,00000077,64195,-11,437,18,-8,420*8c72c462
%RAWIMUSA,2283,42680.380;2283,42680.379998772,00000077,64182,44,453,18,9,960*0dd67263
%RAWIMUSA,2283,42680.390;2283,42680.389998772,00000077,64191,0,467,0,0,91*c14c8312
%RAWIMUSA,2283,42680.400;2283,42680.399998772,00000077,64187,19,452,-18,0,-923*652d41ce
%RAWIMUSA,2283,42680.410;2283,42680.409998772,00000077,64185,30,439,0,-9,-639*1b6deba4
%RAWIMUSA,2283,42680.420;2283,42680.419998772,00000077,64195,-1,454,28,0,1005*359e11e7
%RAWIMUSA,2283,42680.430;2283,42680.429998772,00000077,64176,50,468,9,9,923*53a34740
%RAWIMUSA,2283,42680.440;2283,42680.439998772,00000077,64194,-16,453,-18,8,-786*3bde7637
%RAWIMUSA,2283,42680.450;2283,42680.449998772,00000077,64180,49,442,-9,-19,-960*bf091979
%RAWIMUSA,2283,42680.460;2283,42680.459998772,00000077,64186,1,454,18,0,301*49962242
%RAWIMUSA,2283,42680.470;2283,42680.469998772,00000077,64188,11,466,18,0,1005*169d68f1
%RAWIMUSA,2283,42680.480;2283,42680.479998772,00000077,64182,37,454,-9,9,109*b0abc8b6
%RAWIMUSA,2283,42680.490;2283,42680.489998772,00000077,64192,-5,440,-9,0,-905*a72247d2
%RAWIMUSA,2283,42680.500;2283,42680.499998772,00000077,64183,52,454,0,-9,-676*d4dd0c59
%RAWIMUSA,2283,42680.510;2283,42680.509998772,00000077,64191,-17,466,18,0,978*93b54898
%RAWIMUSA,2283,42680.520;2283,42680.519998772,00000077,64183,41,454,9,9,969*5a47e744
%RAWIMUSA,2283,42680.530;2283,42680.529998772,00000077,64189,12,440,-9,0,-786*893f78b7
%RAWIMUSA,2283,42680.540;2283,42680.539998772,00000077,64188,6,450,-9,0,-896*3fc4a062
%RAWIMUSA,2283,42680.550;2283,42680.549998772,00000077,64179,38,463,18,-9,228*f4905dad
%RAWIMUSA,2283,42680.560;2283,42680.559998772,00000077,64198,-13,452,18,9,1005*bae173f9
%RAWIMUSA,2283,42680.570;2283,42680.569998772,00000077,64182,53,444,0,0,192*28fc70a3
%RAWIMUSA,2283,42680.580;2283,42680.579998772,00000077,64189,-10,452,-18,0,-950*233d9833
%RAWIMUSA,2283,42680.590;2283,42680.589998772,00000077,64186,32,461,9,-9,-667*09fce253
%RAWIMUSA,2283,42680.600;2283,42680.599998772,00000077,64188,23,455,18,0,914*a72aa82c
%RAWIMUSA,2283,42680.610;2283,42680.609998772,00000077,64194,-1,447,9,9,1015*f90e6a9a
%RAWIMUSA,2283,42680.620;2283,42680.619998772,00000077,64185,46,454,-9,0,-758*d1c0552c
%RAWIMUSA,2283,42680.630;2283,42680.629998772,00000077,64191,-16,457,-9,-9,-914*f9c666e2
%RAWIMUSA,2283,42680.640;2283,42680.639998772,00000077,64182,49,449,18,0,219*647e8387
%RAWIMUSA,2283,42680.650;2283,42680.649998772,00000077,64188,-4,452,18,9,960*ee65bec9
%RAWIMUSA,2283,42680.660;2283,42680.659998772,00000077,64186,21,455,-8,9,301*926da848
%RAWIMUSA,2283,42680.670;2283,42680.669998772,00000077,64183,27,458,-9,-10,-1005*223606d0
%RAWIMUSA,2283,42680.680;2283,42680.679998772,00000077,64197,-4,446,0,0,-685*0873816a
%RAWIMUSA,2283,42680.690;2283,42680.689998772,00000077,64180,53,457,18,0,923*033aa1d2
%RAWIMUSA,2283,42680.700;2283,42680.699998772,00000077,64191,-19,457,9,0,987*95d049ed
%RAWIMUSA,2283,42680.710;2283,42680.709998772,00000077,64178,46,445,-9,0,-667*bd4d7fc2
%RAWIMUSA,2283,42680.720;2283,42680.719998772,00000077,64189,6,447,-9,0,-978*2b35fe7a
%RAWIMUSA,2283,42680.730;2283,42680.729998772,00000077,64183,12,464,18,-9,219*9930eb92
%RAWIMUSA,2283,42680.740;2283,42680.739998772,00000077,64180,31,452,18,9,905*bddbf7f6
%RAWIMUSA,2283,42680.750;2283,42680.749998772,00000077,64195,-10,443,-8,9,365*675746d6
%RAWIMUSA,2283,42680.760;2283,42680.759998772,00000077,64181,57,453,-18,-9,-978*33d5b19f
%RAWIMUSA,2283,42680.770;2283,42680.769998772,00000077,64192,-18,460,9,-9,-786*cb77190f
%RAWIMUSA,2283,42680.780;2283,42680.779998772,00000077,64191,33,451,28,0,978*87f7b99f
%RAWIMUSA,2283,42680.790;2283,42680.789998772,00000077,64185,19,446,9,9,923*f5054101
%RAWIMUSA,2283,42680.800;2283,42680.799998772,00000077,64192,3,455,-18,0,-557*28c28963
%RAWIMUSA,2283,42680.810;2283,42680.809998772,00000077,64181,42,461,-9,-10,-996*a89e087f
%RAWIMUSA,2283,42680.820;2283,42680.819998772,00000077,64194,-16,449,18,-9,173*7a97386a
%RAWIMUSA,2283,42680.830;2283,42680.829998772,00000077,64179,51,445,28,9,932*ffa5a439
%RAWIMUSA,2283,42680.840;2283,42680.839998772,00000077,64194,-4,457,-18,9,374*23a097c3
%RAWIMUSA,2283,42680.850;2283,42680.849998772,00000077,64182,29,461,-9,-9,-932*406b94f8
%RAWIMUSA,2283,42680.860;2283,42680.859998772,00000077,64190,16,449,9,-9,-886*1c368608
%RAWIMUSA,2283,42680.870;2283,42680.869998772,00000077,64189,10,444,18,9,1005*72547080
%RAWIMUSA,2283,42680.880;2283,42680.879998772,00000077,64185,38,457,9,0,923*c1f584f9
%RAWIMUSA,2283,42680.890;2283,42680.889998772,00000077,64193,-8,462,-18,0,-521*10aa9beb
%RAWIMUSA,2283,42680.900;2283,42680.899998772,00000077,64178,48,454,-9,-10,-978*cca14e13
%RAWIMUSA,2283,42680.910;2283,42680.909998772,00000077,64191,-12,446,18,0,82*258c33f4
%RAWIMUSA,2283,42680.920;2283,42680.919998772,00000077,64185,42,452,18,9,969*4159ecbe
%RAWIMUSA,2283,42680.930;2283,42680.929998772,00000077,64193,8,460,-8,9,411*44ecd0cc
%RAWIMUSA,2283,42680.940;2283,42680.939998772,00000077,64189,13,455,-9,-9,-905*17c3c354
%RAWIMUSA,2283,42680.950;2283,42680.949998772,00000077,64187,28,444,9,-10,-950*aa785be8
%RAWIMUSA,2283,42680.960;2283,42680.959998772,00000077,64193,1,451,18,9,1005*54499d66
%RAWIMUSA,2283,42680.970;2283,42680.969998772,00000077,64179,44,456,9,9,932*0aacc6cb
%RAWIMUSA,2283,42680.980;2283,42680.979998772,00000077,64197,-15,453,-18,0,-475*5793ea0d
%RAWIMUSA,2283,42680.990;2283,42680.989998772,00000077,64181,43,449,-9,-19,-969*6564da95
%RAWIMUSA,2283,42681.000;2283,42680.999998772,00000077,64192,-1,453,27,0,18*8c867b0d
%RAWIMUSA,2283,42681.010;2283,42681.009998772,00000077,64182,33,456,18,9,987*deb947fa
%RAWIMUSA,2283,42681.020;2283,42681.019998772,00000077,64190,13,455,-18,9,420*50c04ee2
%RAWIMUSA,2283,42681.030;2283,42681.029998772,00000077,64189,3,451,-18,-9,-905*897f889d
%RAWIMUSA,2283,42681.040;2283,42681.039998772,00000077,64182,43,449,18,-10,-996*350ad900
%RAWIMUSA,2283,42681.050;2283,42681.049998772,00000077,64193,-11,454,18,9,1005*efa40c2d
%RAWIMUSA,2283,42681.060;2283,42681.059998772,00000077,64178,45,455,0,9,923*26337d6a
%RAWIMUSA,2283,42681.070;2283,42681.069998772,00000077,64191,-5,451,-18,-9,-438*25d3a202
%RAWIMUSA,2283,42681.080;2283,42681.079998772,00000077,64180,42,449,0,0,-950*121183de
%RAWIMUSA,2283,42681.090;2283,42681.089998772,00000077,64192,0,455,18,0,-36*5b7809ac
%RAWIMUSA,2283,42681.100;2283,42681.099998772,00000077,64190,28,456,18,9,978*70c7c603
%RAWIMUSA,2283,42681.110;2283,42681.109998772,00000077,64183,24,451,-8,0,484*5d674343
%RAWIMUSA,2283,42681.120;2283,42681.119998772,00000077,64193,-4,448,-18,-9,-896*c0f7382e
%RAWIMUSA,2283,42681.130;2283,42681.129998772,00000077,64181,50,455,18,-10,-996*c6676398
%RAWIMUSA,2283,42681.140;2283,42681.139998772,00000077,64195,-16,457,18,9,932*17160a56
%RAWIMUSA,2283,42681.150;2283,42681.149998772,00000077,64180,48,453,0,9,951*4716b0d1
%RAWIMUSA,2283,42681.160;2283,42681.159998772,00000077,64190,-2,445,-18,0,-411*20cea9e6
%RAWIMUSA,2283,42681.170;2283,42681.169998772,00000077,64186,31,454,0,-9,-923*9fe52a9f
%RAWIMUSA,2283,42681.180;2283,42681.179998772,00000077,64188,11,462,18,0,-127*73edf47f
%RAWIMUSA,2283,42681.190;2283,42681.189998772,00000077,64188,7,453,18,9,1005*c3d97e6f
%RAWIMUSA,2283,42681.200;2283,42681.199998772,00000077,64182,44,444,-18,0,539*b8d935e9
%RAWIMUSA,2283,42681.210;2283,42681.209998772,00000077,64196,-19,455,-9,0,-905*a3d90b44
%RAWIMUSA,2283,42681.220;2283,42681.219998772,00000077,64180,53,464,18,-10,-969*70a6acf5
%RAWIMUSA,2283,42681.230;2283,42681.229998772,00000077,64191,-12,449,18,9,859*9ea7a1ed
%RAWIMUSA,2283,42681.240;2283,42681.239998772,00000077,64183,38,441,-8,9,987*0b3600f3
%RAWIMUSA,2283,42681.250;2283,42681.249998772,00000077,64189,15,457,-9,-9,-393*eb52222d
%RAWIMUSA,2283,42681.260;2283,42681.259998772,00000077,64189,1,464,0,-9,-905*972955ee
%RAWIMUSA,2283,42681.270;2283,42681.269998772,00000077,64180,55,452,27,0,-182*68930526
%RAWIMUSA,2283,42681.280;2283,42681.279998772,00000077,64198,-19,440,9,9,1005*64ea7d68
%RAWIMUSA,2283,42681.290;2283,42681.289998772,00000077,64182,42,455,-8,0,621*d85d00d6
%RAWIMUSA,2283,42681.300;2283,42681.299998772,00000077,64191,-3,465,-9,-9,-969*cddfd234
%RAWIMUSA,2283,42681.310;2283,42681.309998772,00000077,64185,30,452,18,0,-914*56929a05
%RAWIMUSA,2283,42681.320;2283,42681.319998772,00000077,64184,22,443,18,9,759*22893463
%RAWIMUSA,2283,42681.330;2283,42681.329998772,00000077,64194,-4,454,0,9,1015*ba59c763
%RAWIMUSA,2283,42681.340;2283,42681.339998772,00000077,64180,49,464,-18,-9,-347*50e7dde4
%RAWIMUSA,2283,42681.350;2283,42681.349998772,00000077,64193,-15,450,0,-9,-914*f63a154a
%RAWIMUSA,2283,42681.360;2283,42681.359998772,00000077,64183,48,447,18,8,-210*f6c89322
%RAWIMUSA,2283,42681.370;2283,42681.369998772,00000077,64187,-7,455,18,9,951*18726c97
%RAWIMUSA,2283,42681.380;2283,42681.379998772,00000077,64186,30,459,-18,0,713*b70f6b99
%RAWIMUSA,2283,42681.390;2283,42681.389998772,00000077,64188,23,454,-18,-19,-996*b56b74eb
%RAWIMUSA,2283,42681.400;2283,42681.399998772,00000077,64187,-1,443,18,0,-905*bff0abae
%RAWIMUSA,2283,42681.410;2283,42681.409998772,00000077,64184,44,453,27,9,704*1a6e9041
%RAWIMUSA,2283,42681.420;2283,42681.419998772,00000077,64192,-12,460,-8,9,987*f0bbf1f2
%RAWIMUSA,2283,42681.430;2283,42681.429998772,00000077,64180,49,458,-18,-18,-255*a1c38ff6
%RAWIMUSA,2283,42681.440;2283,42681.439998772,00000077,64192,-9,447,9,0,-960*cc9d227c
%RAWIMUSA,2283,42681.450;2283,42681.449998772,00000077,64184,30,450,18,8,-219*828a890a
%RAWIMUSA,2283,42681.460;2283,42681.459998772,00000077,64187,20,461,9,9,914*fa7f36a1
%RAWIMUSA,2283,42681.470;2283,42681.469998772,00000077,64193,1,458,-18,-8,795*171152d5
%RAWIMUSA,2283,42681.480;2283,42681.479998772,00000077,64179,51,449,-9,-10,-996*42f6f029
%RAWIMUSA,2283,42681.490;2283,42681.489998772,00000077,64197,-22,447,18,0,-914*4ad52598
%RAWIMUSA,2283,42681.500;2283,42681.499998772,00000077,64180,49,455,18,9,685*61ad56b5
%RAWIMUSA,2283,42681.510;2283,42681.509998772,00000077,64193,0,457,0,0,951*6a6d35ad
%RAWIMUSA,2283,42681.520;2283,42681.519998772,00000077,64187,18,455,-18,-9,-155*619f5c3b
%RAWIMUSA,2283,42681.530;2283,42681.529998772,00000077,64185,33,448,9,-10,-996*1786d147
%RAWIMUSA,2283,42681.540;2283,42681.539998772,00000077,64192,-13,454,18,8,-237*5dd90cf5
%RAWIMUSA,2283,42681.550;2283,42681.549998772,00000077,64183,51,457,9,9,914*4ff544d4
%RAWIMUSA,2283,42681.560;2283,42681.559998772,00000077,64195,-12,454,-18,-8,804*88ef6cea
%RAWIMUSA,2283,42681.570;2283,42681.569998772,00000077,64182,45,450,-55,0,-960*7c435a50
%RAWIMUSA,2283,42681.580;2283,42681.579998772,00000077,64191,20,456,-147,0,-969*255b5709
%RAWIMUSA,2283,42681.590;2283,42681.589998772,00000077,64188,37,474,-313,9,676*ad386012
%RAWIMUSA,2283,42681.600;2283,42681.599998772,00000077,64184,32,468,-469,1,914*964da3cd
%RAWIMUSA,2283,42681.610;2283,42681.609998772,00000077,64192,9,456,-608,-8,-91*65d4e5b7
%RAWIMUSA,2283,42681.620;2283,42681.619998772,00000077,64179,52,451,-682,-9,-1005*1814841e
%RAWIMUSA,2283,42681.630;2283,42681.629998772,00000077,64193,-5,466,-709,9,-320*7f4ef9c4
%RAWIMUSA,2283,42681.640;2283,42681.639998772,00000077,64180,56,469,-819,10,950*bd1133b3
%RAWIMUSA,2283,42681.650;2283,42681.649998772,00000077,64189,0,452,-902,-7,831*693af349
%RAWIMUSA,2283,42681.660;2283,42681.659998772,00000077,64185,32,452,-967,-9,-941*44629217
%RAWIMUSA,2283,42681.670;2283,42681.669998772,00000077,64192,27,460,-1023,0,-996*88366d22
%RAWIMUSA,2283,42681.680;2283,42681.679998772,00000077,64189,15,460,-1077,19,621*571d2b97
%RAWIMUSA,2283,42681.690;2283,42681.689998772,00000077,64184,43,460,-1197,-7,914*62c4cc8f
%RAWIMUSA,2283,42681.700;2283,42681.699998772,00000077,64191,2,459,-1317,-8,-45*0c60d5e1
%RAWIMUSA,2283,42681.710;2283,42681.709998772,00000077,64183,48,460,-1354,0,-1006*ebb9eea0
%RAWIMUSA,2283,42681.720;2283,42681.719998772,00000077,64192,6,463,-1437,0,-375*77dd306f
%RAWIMUSA,2283,42681.730;2283,42681.729998772,00000077,64183,46,458,-1538,11,950*26275569
%RAWIMUSA,2283,42681.740;2283,42681.739998772,00000077,64191,0,450,-1612,-7,868*6830e836
%RAWIMUSA,2283,42681.750;2283,42681.749998772,00000077,64188,35,460,-1714,-8,-923*2652a12f
%RAWIMUSA,2283,42681.760;2283,42681.759998772,00000077,64183,37,461,-1760,0,-1015*31943a1f
%RAWIMUSA,2283,42681.770;2283,42681.769998772,00000077,64193,5,454,-1833,11,584*a6374662
%RAWIMUSA,2283,42681.780;2283,42681.779998772,00000077,64179,53,455,-1971,2,895*144aee19
%RAWIMUSA,2283,42681.790;2283,42681.789998772,00000077,64196,-11,465,-2027,-16,-27*72d26890
%RAWIMUSA,2283,42681.800;2283,42681.799998772,00000077,64184,62,464,-2082,1,-978*014d821b
%RAWIMUSA,2283,42681.810;2283,42681.809998772,00000077,64191,10,453,-2165,1,-475*ff803fd8
%RAWIMUSA,2283,42681.820;2283,42681.819998772,00000077,64188,14,448,-2248,2,977*04e63519
%RAWIMUSA,2283,42681.830;2283,42681.829998772,00000077,64186,43,467,-2349,-6,886*cae4e969
%RAWIMUSA,2283,42681.840;2283,42681.839998772,00000077,64191,4,470,-2442,-7,-914*91d3d20a
%RAWIMUSA,2283,42681.850;2283,42681.849998772,00000077,64176,52,455,-2469,1,-1015*5932a454
%RAWIMUSA,2283,42681.860;2283,42681.859998772,00000077,64191,0,452,-2598,11,493*3d3cd35c
%RAWIMUSA,2283,42681.870;2283,42681.869998772,00000077,64186,38,451,-2690,3,941*362f4a32
%RAWIMUSA,2283,42681.880;2283,42681.879998772,00000077,64191,10,467,-2746,-15,-18*3a4cbdd6
%RAWIMUSA,2283,42681.890;2283,42681.889998772,00000077,64184,31,458,-2801,-7,-933*fcd2b0af
%RAWIMUSA,2283,42681.900;2283,42681.899998772,00000077,64183,33,444,-2866,11,-567*1f4fe16c
%RAWIMUSA,2283,42681.910;2283,42681.909998772,00000077,64196,1,462,-2976,-5,995*8bc089fe
%RAWIMUSA,2283,42681.920;2283,42681.919998772,00000077,64181,54,475,-3087,-5,895*13784c8b
%RAWIMUSA,2283,42681.930;2283,42681.929998772,00000077,64188,-8,455,-3142,-16,-906*d2ba0b9b
%RAWIMUSA,2283,42681.940;2283,42681.939998772,00000077,64184,59,448,-3198,11,-979*eb7a6be2
%RAWIMUSA,2283,42681.950;2283,42681.949998772,00000077,64192,3,458,-3308,3,392*37cc543a
%RAWIMUSA,2283,42681.960;2283,42681.959998772,00000077,64187,22,465,-3409,-5,968*70fd5ade
%RAWIMUSA,2283,42681.970;2283,42681.969998772,00000077,64189,39,462,-3492,-5,0*394f031b
%RAWIMUSA,2283,42681.980;2283,42681.979998772,00000077,64186,0,455,-3539,-6,-924*271c9e9d
%RAWIMUSA,2283,42681.990;2283,42681.989998772,00000077,64182,57,455,-3594,12,-613*2dfd857d
%RAWIMUSA,2283,42682.000;2283,42681.999998772,00000077,64193,-5,469,-3713,-5,950*4218d276
%RAWIMUSA,2283,42682.010;2283,42682.009998772,00000077,64182,45,459,-3815,-4,940*7d13a688
%RAWIMUSA,2283,42682.020;2283,42682.019998772,00000077,64191,16,452,-3861,-15,-924*74d83bf8
%RAWIMUSA,2283,42682.030;2283,42682.029998772,00000077,64188,26,451,-3944,12,-933*1f9c2fc7
%RAWIMUSA,2283,42682.040;2283,42682.039998772,00000077,64183,39,466,-3990,3,309*7890d5de
%RAWIMUSA,2283,42682.050;2283,42682.049998772,00000077,64195,-11,462,-4119,-13,968*8edd14dc
%RAWIMUSA,2283,42682.060;2283,42682.059998771,00000077,64177,64,456,-4211,-5,53*57be87f5
%RAWIMUSA,2283,42682.070;2283,42682.069998771,00000077,64191,-3,451,-4239,-6,-979*ffab1453
%RAWIMUSA,2283,42682.080;2283,42682.079998771,00000077,64186,39,465,-4331,12,-604*4eb48aad
%RAWIMUSA,2283,42682.090;2283,42682.089998771,00000077,64188,22,464,-4441,-4,885*4cd06a64
%RAWIMUSA,2283,42682.100;2283,42682.099998771,00000077,64193,14,454,-4487,-13,968*399e3fc4
%RAWIMUSA,2283,42682.110;2283,42682.109998771,00000077,64186,47,458,-4589,-5,-888*191f6bc7
%RAWIMUSA,2283,42682.120;2283,42682.119998771,00000077,64192,2,463,-4663,3,-952*fcbc12d6
%RAWIMUSA,2283,42682.130;2283,42682.129998771,00000077,64181,46,472,-4736,4,273*60564d47
%RAWIMUSA,2283,42682.140;2283,42682.139998771,00000077,64191,1,457,-4847,-3,949*22d27f02
%RAWIMUSA,2283,42682.150;2283,42682.149998771,00000077,64179,46,443,-4911,-13,126*5cd62f02
%RAWIMUSA,2283,42682.160;2283,42682.159998771,00000077,64187,4,458,-4930,3,-1007*ad5cfa67
%RAWIMUSA,2283,42682.170;2283,42682.169998771,00000077,64188,34,477,-5068,4,-641*c5824b54
%RAWIMUSA,2283,42682.180;2283,42682.179998771,00000077,64185,36,466,-5160,-12,867*fabb4694
%RAWIMUSA,2283,42682.190;2283,42682.189998771,00000077,64191,-4,448,-5243,-3,967*33bcda5d
%RAWIMUSA,2283,42682.200;2283,42682.199998771,00000077,64181,59,456,-5326,-14,-833*1ab223e8
%RAWIMUSA,2283,42682.210;2283,42682.209998771,00000077,64190,-7,469,-5363,13,-979*bc9776d5
%RAWIMUSA,2283,42682.220;2283,42682.219998771,00000077,64186,47,464,-5455,-3,245*d7b189bb
%RAWIMUSA,2283,42682.230;2283,42682.229998771,00000077,64191,15,452,-5566,-12,894*5407463f
%RAWIMUSA,2283,42682.240;2283,42682.239998771,00000077,64184,19,458,-5621,-3,217*b339001b
%RAWIMUSA,2283,42682.250;2283,42682.249998771,00000077,64183,37,467,-5704,-4,-1053*f3497852
%RAWIMUSA,2283,42682.260;2283,42682.259998771,00000077,64197,0,459,-5778,4,-696*55d70280
%RAWIMUSA,2283,42682.270;2283,42682.269998771,00000077,64181,49,452,-5861,-3,876*e22c9885
%RAWIMUSA,2283,42682.280;2283,42682.279998771,00000077,64192,-1,457,-5980,-12,958*82b688c5
%RAWIMUSA,2283,42682.290;2283,42682.289998771,00000077,64178,46,468,-6008,-4,-769*27bf1a91
%RAWIMUSA,2283,42682.300;2283,42682.299998771,00000077,64194,7,466,-6082,4,-989*12d1912a
%RAWIMUSA,2283,42682.310;2283,42682.309998771,00000077,64190,36,457,-6202,-3,199*4f1a9747
%RAWIMUSA,2283,42682.320;2283,42682.319998771,00000077,64187,14,448,-6275,-11,894*123b9b78
%RAWIMUSA,2283,42682.330;2283,42682.329998771,00000077,64191,24,460,-6368,-3,272*6be08948
%RAWIMUSA,2283,42682.340;2283,42682.339998771,00000077,64183,39,466,-6414,-4,-1053*5bd44e1f
%RAWIMUSA,2283,42682.350;2283,42682.349998771,00000077,64192,-4,462,-6478,5,-760*3c470fce
%RAWIMUSA,2283,42682.360;2283,42682.359998771,00000077,64180,60,461,-6607,-11,885*4a128de2
%RAWIMUSA,2283,42682.370;2283,42682.369998771,00000077,64196,-2,459,-6690,-2,930*85fc1391
%RAWIMUSA,2283,42682.380;2283,42682.379998771,00000077,64182,45,462,-6736,-3,-705*1633b46c
%RAWIMUSA,2283,42682.390;2283,42682.389998771,00000077,64189,8,458,-6829,-3,-1016*590eba87
%RAWIMUSA,2283,42682.400;2283,42682.399998771,00000077,64188,23,453,-6893,6,171*fc2e5e04
%RAWIMUSA,2283,42682.410;2283,42682.409998771,00000077,64185,35,456,-6985,-11,857*d19fafce
%RAWIMUSA,2283,42682.420;2283,42682.419998771,00000077,64193,5,465,-7096,-11,327*df2e2e7e
%RAWIMUSA,2283,42682.430;2283,42682.429998771,00000077,64180,47,466,-7133,-3,-1044*5452863a
%RAWIMUSA,2283,42682.440;2283,42682.439998771,00000077,64193,-2,460,-7216,6,-824*5fc67b42
%RAWIMUSA,2283,42682.450;2283,42682.449998771,00000077,64186,51,461,-7344,-10,884*840e3f3d
%RAWIMUSA,2283,42682.460;2283,42682.459998771,00000077,64190,0,461,-7381,-10,903*3078cbef
%RAWIMUSA,2283,42682.470;2283,42682.469998771,00000077,64186,36,466,-7455,-2,-642*52289f1a
%RAWIMUSA,2283,42682.480;2283,42682.479998771,00000077,64186,20,457,-7529,6,-1044*7abd40c9
%RAWIMUSA,2283,42682.490;2283,42682.489998771,00000077,64191,15,455,-7612,-2,98*02150548
%RAWIMUSA,2283,42682.500;2283,42682.499998771,00000077,64180,46,461,-7741,-10,848*538d661a
%RAWIMUSA,2283,42682.510;2283,42682.509998771,00000077,64193,-5,460,-7814,-10,363*0f64c4b6
%RAWIMUSA,2283,42682.520;2283,42682.519998771,00000077,64179,58,458,-7852,-2,-1035*4f236a2e
%RAWIMUSA,2283,42682.530;2283,42682.529998771,00000077,64190,-8,462,-7944,-2,-916*a15aaf2c
%RAWIMUSA,2283,42682.540;2283,42682.539998771,00000077,64187,36,464,-8045,-10,912*7d03608c
%RAWIMUSA,2283,42682.550;2283,42682.549998771,00000077,64192,30,460,-8137,-10,866*41876be1
%RAWIMUSA,2283,42682.560;2283,42682.559998771,00000077,64184,11,460,-8211,-2,-559*e2aa66ef
%RAWIMUSA,2283,42682.570;2283,42682.569998771,00000077,64179,38,455,-8257,6,-1062*c4f93bc0
%RAWIMUSA,2283,42682.580;2283,42682.579998771,00000077,64195,-6,462,-8377,-10,43*4f28320b
%RAWIMUSA,2283,42682.590;2283,42682.589998771,00000077,64180,56,465,-8450,-9,875*8efd4dd3
%RAWIMUSA,2283,42682.600;2283,42682.599998771,00000077,64193,-1,459,-8506,-10,363*8cd39615
%RAWIMUSA,2283,42682.610;2283,42682.609998771,00000077,64181,31,459,-8580,7,-980*a71ae9ef
%RAWIMUSA,2283,42682.620;2283,42682.619998771,00000077,64184,23,458,-8663,-1,-1017*3f891d75
%RAWIMUSA,2283,42682.630;2283,42682.629998771,00000077,64190,12,468,-8764,-9,948*7ee330fc
%RAWIMUSA,2283,42682.640;2283,42682.639998771,00000077,64182,54,467,-8874,-18,838*c970693b
%RAWIMUSA,2283,42682.650;2283,42682.649998771,00000077,64194,-9,456,-8911,-1,-532*06b531a0
%RAWIMUSA,2283,42682.660;2283,42682.659998771,00000077,64186,50,461,-8967,7,-1026*e1cf3935
%RAWIMUSA,2283,42682.670;2283,42682.669998771,00000077,64189,3,467,-9086,-9,-48*a0a2f317
%RAWIMUSA,2283,42682.680;2283,42682.679998771,00000077,64187,36,456,-9160,-9,902*0d7afcb5
%RAWIMUSA,2283,42682.690;2283,42682.689998771,00000077,64187,24,454,-9252,-9,381*e33b7934
%RAWIMUSA,2283,42682.700;2283,42682.699998771,00000077,64188,11,459,-9317,-1,-962*bde6c0a2
%RAWIMUSA,2283,42682.710;2283,42682.709998771,00000077,64184,44,473,-9354,-1,-1072*9bbbee8e
%RAWIMUSA,2283,42682.720;2283,42682.719998771,00000077,64195,-3,463,-9492,-8,911*6a12ff71
%RAWIMUSA,2283,42682.730;2283,42682.729998771,00000077,64178,49,448,-9593,-17,875*9debe3f9
%RAWIMUSA,2283,42682.740;2283,42682.739998771,00000077,64188,1,464,-9630,0,-523*e57a9151
%RAWIMUSA,2283,42682.750;2283,42682.749998771,00000077,64184,34,473,-9732,8,-990*2d03a9dd
%RAWIMUSA,2283,42682.760;2283,42682.759998771,00000077,64190,21,452,-9805,-9,-148*11e26d05
%RAWIMUSA,2283,42682.770;2283,42682.769998771,00000077,64188,8,451,-9888,-17,929*62e4e888
%RAWIMUSA,2283,42682.780;2283,42682.779998771,00000077,64182,39,466,-9989,-8,427*978124b1
%RAWIMUSA,2283,42682.790;2283,42682.789998771,00000077,64193,0,473,-10017,0,-981*5b0367ac
%RAWIMUSA,2283,42682.800;2283,42682.799998771,00000077,64176,54,461,-10091,0,-1054*c8ef6326
%RAWIMUSA,2283,42682.810;2283,42682.809998771,00000077,64192,-7,452,-10220,-17,838*5f04f6f1
%RAWIMUSA,2283,42682.820;2283,42682.819998771,00000077,64183,31,459,-10284,-8,884*b8e8a44f
%RAWIMUSA,2283,42682.830;2283,42682.829998771,00000077,64188,20,472,-10368,0,-496*d8021153
%RAWIMUSA,2283,42682.840;2283,42682.839998771,00000077,64190,32,461,-10451,0,-990*9eec36dd
%RAWIMUSA,2283,42682.850;2283,42682.849998771,00000077,64181,26,463,-10515,-17,-213*bbb0315b
%RAWIMUSA,2283,42682.860;2283,42682.859998771,00000077,64194,-8,463,-10625,-7,929*aeba7706
%RAWIMUSA,2283,42682.870;2283,42682.869998771,00000077,64182,52,458,-10699,-8,472*12ef5c37
%RAWIMUSA,2283,42682.880;2283,42682.879998771,00000077,64191,2,463,-10746,0,-1008*921687fb
%RAWIMUSA,2283,42682.890;2283,42682.889998771,00000077,64189,44,465,-10828,0,-1045*f342081c
%RAWIMUSA,2283,42682.900;2283,42682.899998771,00000077,64191,-4,456,-10939,-16,755*24809b4d
%RAWIMUSA,2283,42682.910;2283,42682.909998771,00000077,64185,28,461,-11012,-16,911*dae020cb
%RAWIMUSA,2283,42682.920;2283,42682.919998771,00000077,64191,33,464,-11096,0,-469*2e651221
%RAWIMUSA,2283,42682.930;2283,42682.929998771,00000077,64191,7,464,-11151,0,-981*26cacb84
%RAWIMUSA,2283,42682.940;2283,42682.939998771,00000077,64176,43,467,-11261,-17,-268*b3c63b77
%RAWIMUSA,2283,42682.950;2283,42682.949998771,00000077,64199,-16,467,-11363,-7,911*5f41aa8e
%RAWIMUSA,2283,42682.960;2283,42682.959998771,00000077,64183,57,461,-11409,-7,563*9ed0b8d3
%RAWIMUSA,2283,42682.970;2283,42682.969998771,00000077,64192,12,461,-11483,0,-1063*54b06aa1
%RAWIMUSA,2283,42682.980;2283,42682.979998771,00000077,64184,11,467,-11557,-8,-990*5f4cb65f
%RAWIMUSA,2283,42682.990;2283,42682.989998771,00000077,64182,33,460,-11667,-16,636*b4a62fe1
%RAWIMUSA,2283,42683.000;2283,42682.999998771,00000077,64194,0,459,-11768,-6,938*033313b6
%RAWIMUSA,2283,42683.010;2283,42683.009998771,00000077,64185,50,462,-11824,-7,-414*66dd6e54
%RAWIMUSA,2283,42683.020;2283,42683.019998771,00000077,64189,-5,467,-11842,1,-1036*359b4024
%RAWIMUSA,2283,42683.030;2283,42683.029998771,00000077,64189,42,470,-11989,-16,-250*7b7c012c
%RAWIMUSA,2283,42683.040;2283,42683.039998771,00000077,64188,19,459,-12072,-15,837*8fa5034b
%RAWIMUSA,2283,42683.050;2283,42683.049998771,00000077,64182,11,456,-12155,2,655*d42b54d3
%RAWIMUSA,2283,42683.060;2283,42683.059998771,00000077,64184,40,469,-12220,1,-1100*5ffb25cc
%RAWIMUSA,2283,42683.070;2283,42683.069998771,00000077,64192,-14,464,-12257,-7,-1000*347b4561
%RAWIMUSA,2283,42683.080;2283,42683.079998771,00000077,64178,60,464,-12395,-24,627*724ef0ad
%RAWIMUSA,2283,42683.090;2283,42683.089998771,00000077,64192,-5,466,-12487,-6,865*100fdc2d
%RAWIMUSA,2283,42683.100;2283,42683.099998771,00000077,64184,28,464,-12506,2,-296*64965fd6
%RAWIMUSA,2283,42683.110;2283,42683.109998771,00000077,64190,26,467,-12598,-7,-1091*51f4f172
%RAWIMUSA,2283,42683.120;2283,42683.119998771,00000077,64193,8,457,-12699,-15,-277*f86c73ab
%RAWIMUSA,2283,42683.130;2283,42683.129998771,00000077,64183,47,459,-12791,-15,810*77340648
%RAWIMUSA,2283,42683.140;2283,42683.139998771,00000077,64192,-12,468,-12874,3,682*ac18b706
%RAWIMUSA,2283,42683.150;2283,42683.149998771,00000077,64182,47,465,-12911,-7,-1073*2f1175b6
%RAWIMUSA,2283,42683.160;2283,42683.159998771,00000077,64189,1,468,-12994,-7,-1055*445d1bae
%RAWIMUSA,2283,42683.170;2283,42683.169998771,00000077,64186,34,461,-13141,-14,618*cb705e0f
%RAWIMUSA,2283,42683.180;2283,42683.179998771,00000077,64185,24,462,-13206,-5,819*c93654f6
%RAWIMUSA,2283,42683.190;2283,42683.189998771,00000077,64191,9,459,-13271,-6,-241*6c41ff3b
%RAWIMUSA,2283,42683.200;2283,42683.199998771,00000077,64182,32,463,-13344,2,-1100*769e636f
%RAWIMUSA,2283,42683.210;2283,42683.209998771,00000077,64194,-6,462,-13418,-24,-351*cbf601e2
%RAWIMUSA,2283,42683.220;2283,42683.219998771,00000077,64183,60,472,-13519,-14,837*f5b258e1
%RAWIMUSA,2283,42683.230;2283,42683.229998771,00000077,64196,-10,465,-13584,-5,700*42e9376b
%RAWIMUSA,2283,42683.240;2283,42683.239998771,00000077,64186,31,465,-13630,-6,-1027*7224cd75
%RAWIMUSA,2283,42683.250;2283,42683.249998771,00000077,64189,27,475,-13741,-6,-1091*117dd6f0
%RAWIMUSA,2283,42683.260;2283,42683.259998771,00000077,64185,15,461,-13833,-14,581*d21c6629
%RAWIMUSA,2283,42683.270;2283,42683.269998771,00000077,64180,44,460,-13925,-14,800*1057143f
%RAWIMUSA,2283,42683.280;2283,42683.279998771,00000077,64199,-18,464,-13980,-5,-195*61243dc5
%RAWIMUSA,2283,42683.290;2283,42683.289998771,00000077,64181,54,470,-14045,3,-1064*d9be456a
%RAWIMUSA,2283,42683.300;2283,42683.299998771,00000077,64187,12,464,-14146,-23,-470*e43f0b60
%RAWIMUSA,2283,42683.310;2283,42683.309998771,00000077,64184,17,457,-14247,-13,901*82be6a6e
%RAWIMUSA,2283,42683.320;2283,42683.319998771,00000077,64188,30,459,-14275,-4,681*6b9c1dd4
%RAWIMUSA,2283,42683.330;2283,42683.329998771,00000077,64196,-6,476,-14367,3,-1009*6e215820
%RAWIMUSA,2283,42683.340;2283,42683.339998771,00000077,64177,60,467,-14469,-14,-1092*d7064e63
%RAWIMUSA,2283,42683.350;2283,42683.349998771,00000077,64194,-8,463,-14561,-22,471*589e08b9
%RAWIMUSA,2283,42683.360;2283,42683.359998771,00000077,64185,32,462,-14671,-4,892*cb12cb95
%RAWIMUSA,2283,42683.370;2283,42683.369998771,00000077,64185,31,464,-14699,-4,-241*4089dc6f
%RAWIMUSA,2283,42683.380;2283,42683.379998771,00000077,64193,5,479,-14745,-5,-1009*7781a9bf
%RAWIMUSA,2283,42683.390;2283,42683.389998771,00000077,64180,44,462,-14893,-14,-543*d34d3f13
%RAWIMUSA,2283,42683.400;2283,42683.399998771,00000077,64192,-20,451,-14966,-12,882*e908e557
%RAWIMUSA,2283,42683.410;2283,42683.409998771,00000077,64183,57,466,-15031,-3,773*ca062cd3
%RAWIMUSA,2283,42683.420;2283,42683.419998771,00000077,64191,4,484,-15105,-5,-1073*139d2280
%RAWIMUSA,2283,42683.430;2283,42683.429998771,00000077,64184,24,466,-15169,-14,-1028*5a0b7a9e
%RAWIMUSA,2283,42683.440;2283,42683.439998771,00000077,64187,22,452,-15279,-22,370*8e496f3e
%RAWIMUSA,2283,42683.450;2283,42683.449998771,00000077,64197,8,458,-15362,-3,901*1c2fcb61
%RAWIMUSA,2283,42683.460;2283,42683.459998771,00000077,64180,51,485,-15390,-4,-196*560c2976
%RAWIMUSA,2283,42683.470;2283,42683.469998771,00000077,64192,-12,470,-15510,-4,-1028*678cb8c9
%RAWIMUSA,2283,42683.480;2283,42683.479998771,00000077,64184,48,455,-15621,-22,-580*66fb7549
%RAWIMUSA,2283,42683.490;2283,42683.489998771,00000077,64190,0,464,-15694,-12,855*ac15f972
%RAWIMUSA,2283,42683.500;2283,42683.499998771,00000077,64182,36,480,-15768,-3,846*680fa4e6
%RAWIMUSA,2283,42683.510;2283,42683.509998771,00000077,64185,15,461,-15814,-4,-1110*feb06e30
%RAWIMUSA,2283,42683.520;2283,42683.519998771,00000077,64190,9,461,-15916,-13,-1028*9e9f7c46
%RAWIMUSA,2283,42683.530;2283,42683.529998771,00000077,64180,43,465,-16035,-21,315*dc4f26e9
%RAWIMUSA,2283,42683.540;2283,42683.539998771,00000077,64193,-13,473,-16081,-2,873*f28920b2
%RAWIMUSA,2283,42683.550;2283,42683.549998771,00000077,64184,49,474,-16137,-3,-114*7e4f5910
%RAWIMUSA,2283,42683.560;2283,42683.559998771,00000077,64191,-15,456,-16174,-13,-1074*50874b65
%RAWIMUSA,2283,42683.570;2283,42683.569998771,00000077,64186,27,451,-16192,-22,-589*d884ba85
%RAWIMUSA,2283,42683.580;2283,42683.579998771,00000077,64189,16,463,-16146,-11,800*6fa36c6a
%RAWIMUSA,2283,42683.590;2283,42683.589998771,00000077,64190,-13,474,-16072,-2,891*aaad6e3b
%RAWIMUSA,2283,42683.600;2283,42683.599998771,00000077,64182,33,457,-16045,-13,-1083*b71958de
%RAWIMUSA,2283,42683.610;2283,42683.609998771,00000077,64193,-12,448,-16045,-13,-1028*52348a33
%RAWIMUSA,2283,42683.620;2283,42683.619998771,00000077,64182,47,456,-16072,-12,288*f47c12cf
%RAWIMUSA,2283,42683.630;2283,42683.629998771,00000077,64189,-14,472,-16072,-2,836*94448c96
%RAWIMUSA,2283,42683.640;2283,42683.639998771,00000077,64181,14,464,-16054,-3,-31*235ebb07
%RAWIMUSA,2283,42683.650;2283,42683.649998771,00000077,64186,22,456,-16054,-13,-1110*937c10b6
%RAWIMUSA,2283,42683.660;2283,42683.659998771,00000077,64189,11,462,-16082,-22,-617*649efe60
%RAWIMUSA,2283,42683.670;2283,42683.669998771,00000077,64179,29,470,-16090,-11,791*93b19023
%RAWIMUSA,2283,42683.680;2283,42683.679998771,00000077,64198,-23,465,-16063,-2,873*b54a036b
%RAWIMUSA,2283,42683.690;2283,42683.689998771,00000077,64185,45,456,-16045,-4,-1001*9f50006b
%RAWIMUSA,2283,42683.700;2283,42683.699998771,00000077,64188,-5,461,-16054,-13,-1055*28292de7
%RAWIMUSA,2283,42683.710;2283,42683.709998771,00000077,64184,25,464,-16091,-21,260*a2c0a79c
%RAWIMUSA,2283,42683.720;2283,42683.719998771,00000077,64190,4,463,-16072,-2,818*3153092a
%RAWIMUSA,2283,42683.730;2283,42683.729998771,00000077,64187,12,466,-16054,-3,41*c0aeeecc
%RAWIMUSA,2283,42683.740;2283,42683.739998771,00000077,64183,33,465,-16063,-13,-1119*31bf3041
%RAWIMUSA,2283,42683.750;2283,42683.749998771,00000077,64196,-16,460,-16091,-22,-671*bec42cb3
%RAWIMUSA,2283,42683.760;2283,42683.759998771,00000077,64178,41,461,-16100,-11,809*542855ab
%RAWIMUSA,2283,42683.770;2283,42683.769998771,00000077,64192,-17,464,-16081,6,855*27383603
%RAWIMUSA,2283,42683.780;2283,42683.779998771,00000077,64187,38,461,-16063,-13,-918*b2084a44
%RAWIMUSA,2283,42683.790;2283,42683.789998771,00000077,64188,3,461,-16072,-22,-1083*13d3d2ab
%RAWIMUSA,2283,42683.800;2283,42683.799998771,00000077,64186,12,460,-16091,-12,242*9b0960b0
%RAWIMUSA,2283,42683.810;2283,42683.809998771,00000077,64185,20,467,-16090,-2,791*a555aea7
%RAWIMUSA,2283,42683.820;2283,42683.819998771,00000077,64192,-16,466,-16063,-3,114*efe1d677
%RAWIMUSA,2283,42683.830;2283,42683.829998771,00000077,64181,53,457,-16054,-13,-1110*16baf8ef
%RAWIMUSA,2283,42683.840;2283,42683.839998771,00000077,64193,-12,463,-16091,-22,-763*22c9edea
%RAWIMUSA,2283,42683.850;2283,42683.849998771,00000077,64184,22,464,-16100,-2,845*fbab76ee
%RAWIMUSA,2283,42683.860;2283,42683.859998771,00000077,64187,3,464,-16063,-2,809*79c2cfaa
%RAWIMUSA,2283,42683.870;2283,42683.869998771,00000077,64188,14,457,-16054,-13,-827*75d571e7
%RAWIMUSA,2283,42683.880;2283,42683.879998771,00000077,64184,30,459,-16072,-13,-1119*5e7815f7
%RAWIMUSA,2283,42683.890;2283,42683.889998771,00000077,64193,-15,468,-16100,-12,205*dcd7092b
%RAWIMUSA,2283,42683.900;2283,42683.899998771,00000077,64178,41,469,-16090,-2,800*31331bb8
%RAWIMUSA,2283,42683.910;2283,42683.909998771,00000077,64191,-13,457,-16072,-3,132*12aeb5b0
%RAWIMUSA,2283,42683.920;2283,42683.919998771,00000077,64189,36,454,-16063,-22,-1055*757fd8c7
%RAWIMUSA,2283,42683.930;2283,42683.929998771,00000077,64190,5,466,-16109,-13,-873*bd8988d0
%RAWIMUSA,2283,42683.940;2283,42683.939998771,00000077,64186,3,473,-16090,-11,891*4af4343d
%RAWIMUSA,2283,42683.950;2283,42683.949998771,00000077,64184,28,463,-16072,-2,791*04e338a0
%RAWIMUSA,2283,42683.960;2283,42683.959998771,00000077,64196,-8,455,-16054,-13,-763*57e4a1f3
%RAWIMUSA,2283,42683.970;2283,42683.969998770,00000077,64178,38,458,-16072,-22,-1101*c21b1d53
%RAWIMUSA,2283,42683.980;2283,42683.979998770,00000077,64193,-22,473,-16091,-3,114*6cc53d3b
%RAWIMUSA,2283,42683.990;2283,42683.989998770,00000077,64186,34,456,-16081,-11,845*2a373df1
%RAWIMUSA,2283,42684.000;2283,42683.999998770,00000077,64189,6,455,-16063,-3,141*42aa132f
%RAWIMUSA,2283,42684.010;2283,42684.009998770,00000077,64190,17,469,-16109,-13,-1037*9b9d998a
%RAWIMUSA,2283,42684.020;2283,42684.019998770,00000077,64183,17,475,-16100,-22,-927*baf38462
%RAWIMUSA,2283,42684.030;2283,42684.029998770,00000077,64192,-8,465,-16100,-2,891*a5f45a70
%RAWIMUSA,2283,42684.040;2283,42684.039998770,00000077,64182,42,450,-16072,-2,791*6cc0863b
%RAWIMUSA,2283,42684.050;2283,42684.049998770,00000077,64194,-15,461,-16072,-13,-735*9a14863a
%RAWIMUSA,2283,42684.060;2283,42684.059998770,00000077,64180,33,477,-16091,-22,-1083*96a87393
%RAWIMUSA,2283,42684.070;2283,42684.069998770,00000077,64192,-6,470,-16100,-12,32*f5287b11
%RAWIMUSA,2283,42684.080;2283,42684.079998770,00000077,64184,27,453,-16090,-2,882*9e2f8e83
%RAWIMUSA,2283,42684.090;2283,42684.089998770,00000077,64186,15,457,-16063,-3,160*c7b0967a
%RAWIMUSA,2283,42684.100;2283,42684.099998770,00000077,64194,-10,472,-16072,-22,-1010*46a9aac1
%RAWIMUSA,2283,42684.110;2283,42684.109998770,00000077,64177,42,475,-16091,-22,-982*5457a7d1
%RAWIMUSA,2283,42684.120;2283,42684.119998770,00000077,64195,-19,462,-16100,-2,873*ffb58256
%RAWIMUSA,2283,42684.130;2283,42684.129998770,00000077,64179,37,445,-16063,-2,845*3c6cba43
%RAWIMUSA,2283,42684.140;2283,42684.139998770,00000077,64187,-2,457,-16063,-13,-745*e45df25a
%RAWIMUSA,2283,42684.150;2283,42684.149998770,00000077,64190,15,484,-16091,-13,-1037*8e8cadf0
%RAWIMUSA,2283,42684.160;2283,42684.159998770,00000077,64188,19,474,-16109,-12,-41*988d67cd
%RAWIMUSA,2283,42684.170;2283,42684.169998770,00000077,64191,-4,443,-16090,-2,882*a5c8fd96
%RAWIMUSA,2283,42684.180;2283,42684.179998770,00000077,64179,39,451,-16072,-12,215*c923540c
%RAWIMUSA,2283,42684.190;2283,42684.189998770,00000077,64195,-22,481,-16082,-13,-1037*ac742670
%RAWIMUSA,2283,42684.200;2283,42684.199998770,00000077,64181,40,481,-16100,-22,-1001*8bb52371
%RAWIMUSA,2283,42684.210;2283,42684.209998770,00000077,64188,-5,454,-16100,-2,827*5058ea5f
%RAWIMUSA,2283,42684.220;2283,42684.219998770,00000077,64182,16,446,-16054,-2,882*6b653f47
%RAWIMUSA,2283,42684.230;2283,42684.229998770,00000077,64186,24,478,-16054,-22,-717*5881fcd4
%RAWIMUSA,2283,42684.240;2283,42684.239998770,00000077,64196,-18,484,-16091,-13,-1010*a4a6681c
%RAWIMUSA,2283,42684.250;2283,42684.249998770,00000077,64176,46,460,-16109,-12,-95*a79d51a4
%RAWIMUSA,2283,42684.260;2283,42684.259998770,00000077,64192,-17,443,-16081,-2,864*448f7906
%RAWIMUSA,2283,42684.270;2283,42684.269998770,00000077,64185,29,463,-16072,-3,324*5d58565e
%RAWIMUSA,2283,42684.280;2283,42684.279998770,00000077,64190,0,484,-16072,-22,-1092*8959b198
%RAWIMUSA,2283,42684.290;2283,42684.289998770,00000077,64189,20,468,-16100,-22,-1019*18f2bb82
%RAWIMUSA,2283,42684.300;2283,42684.299998770,00000077,64182,19,450,-16109,-2,809*5748c4f6
%RAWIMUSA,2283,42684.310;2283,42684.309998770,00000077,64189,-5,455,-16072,-2,891*54df8ec0
%RAWIMUSA,2283,42684.320;2283,42684.319998770,00000077,64182,30,476,-16072,-13,-653*9a829b6d
%RAWIMUSA,2283,42684.330;2283,42684.329998770,00000077,64191,-10,473,-16100,-13,-1037*1fc19e6a
%RAWIMUSA,2283,42684.340;2283,42684.339998770,00000077,64180,40,451,-16100,-12,-132*724e3aee
%RAWIMUSA,2283,42684.350;2283,42684.349998770,00000077,64193,-13,456,-16100,-2,845*536d41b6
%RAWIMUSA,2283,42684.360;2283,42684.359998770,00000077,64183,30,470,-16072,-12,370*c904a7cb
%RAWIMUSA,2283,42684.370;2283,42684.369998770,00000077,64188,0,478,-16072,-22,-1101*ba808228
%RAWIMUSA,2283,42684.380;2283,42684.379998770,00000077,64188,11,456,-16100,-13,-1028*f1308af3
%RAWIMUSA,2283,42684.390;2283,42684.389998770,00000077,64183,26,455,-16100,-2,781*51b0ad40
%RAWIMUSA,2283,42684.400;2283,42684.399998770,00000077,64188,-13,470,-16063,-2,891*000d8fcd
%RAWIMUSA,2283,42684.410;2283,42684.409998770,00000077,64178,42,480,-16063,-22,-607*857ab27e
%RAWIMUSA,2283,42684.420;2283,42684.419998770,00000077,64193,-20,464,-16100,-22,-1046*4d7e9e28
%RAWIMUSA,2283,42684.430;2283,42684.429998770,00000077,64183,35,457,-16109,-3,-141*9a2751a7
%RAWIMUSA,2283,42684.440;2283,42684.439998770,00000077,64191,6,469,-16090,-2,800*9513ed76
%RAWIMUSA,2283,42684.450;2283,42684.449998770,00000077,64189,-2,472,-16081,-12,461*7b369675
%RAWIMUSA,2283,42684.460;2283,42684.459998770,00000077,64181,30,458,-16082,-22,-1129*fe54b3c8
%RAWIMUSA,2283,42684.470;2283,42684.469998770,00000077,64192,-19,455,-16109,-13,-1028*a5a48aa0
%RAWIMUSA,2283,42684.480;2283,42684.479998770,00000077,64180,46,469,-16109,-2,736*1204c806
%RAWIMUSA,2283,42684.490;2283,42684.489998770,00000077,64193,-10,471,-16081,-2,855*e187930c
%RAWIMUSA,2283,42684.500;2283,42684.499998770,00000077,64182,30,470,-16072,-22,-498*8b71960b
%RAWIMUSA,2283,42684.510;2283,42684.509998770,00000077,64192,4,461,-16100,-22,-1101*34d8e7bc
%RAWIMUSA,2283,42684.520;2283,42684.519998770,00000077,64190,-2,460,-16109,-3,-159*5a378946
%RAWIMUSA,2283,42684.530;2283,42684.529998770,00000077,64182,41,469,-16081,-2,791*39857747
%RAWIMUSA,2283,42684.540;2283,42684.539998770,00000077,64195,-15,471,-16072,-12,516*691868e5
%RAWIMUSA,2283,42684.550;2283,42684.549998770,00000077,64183,37,461,-16072,-22,-1092*52e86b20
%RAWIMUSA,2283,42684.560;2283,42684.559998770,00000077,64192,-12,459,-16109,-13,-1074*5bab9dba
%RAWIMUSA,2283,42684.570;2283,42684.569998770,00000077,64187,20,470,-16109,-2,736*cc424443
%RAWIMUSA,2283,42684.580;2283,42684.579998770,00000077,64189,14,469,-16072,-2,809*ec13e925
%RAWIMUSA,2283,42684.590;2283,42684.589998770,00000077,64188,7,464,-16072,-22,-425*42ac0d33
%RAWIMUSA,2283,42684.600;2283,42684.599998770,00000077,64185,21,465,-16109,-22,-1119*170b4d20
%RAWIMUSA,2283,42684.610;2283,42684.609998770,00000077,64189,-11,466,-16100,-3,-214*e46e1e37
%RAWIMUSA,2283,42684.620;2283,42684.619998770,00000077,64181,39,466,-16081,-2,800*bdf3c87c
%RAWIMUSA,2283,42684.630;2283,42684.629998770,00000077,64196,-14,467,-16072,-12,553*fb5c2cb6
%RAWIMUSA,2283,42684.640;2283,42684.639998770,00000077,64180,35,467,-16082,-22,-1092*f1bf6b0d
%RAWIMUSA,2283,42684.650;2283,42684.649998770,00000077,64192,-13,467,-16100,-13,-1074*416607ed
%RAWIMUSA,2283,42684.660;2283,42684.659998770,00000077,64186,24,468,-16090,-2,681*df653674
%RAWIMUSA,2283,42684.670;2283,42684.669998770,00000077,64189,15,466,-16063,-12,800*7bf03e9c
%RAWIMUSA,2283,42684.680;2283,42684.679998770,00000077,64192,3,467,-16072,-12,-351*1f768898
%RAWIMUSA,2283,42684.690;2283,42684.689998770,00000077,64181,26,466,-16100,-22,-1119*319c144a
