%RAWIMUSA,2283,42760.990;2283,42760.989998730,00000077,64187,21,457,9,-8,932*cb9d7696
%RAWIMUSA,2283,42761.000;2283,42760.999998730,00000077,64188,3,453,18,-8,704*cdc73546
%RAWIMUSA,2283,42761.010;2283,42761.009998730,00000077,64183,43,452,9,0,-1005*108fcb86
%RAWIMUSA,2283,42761.020;2283,42761.019998730,00000077,64195,-9,453,-18,17,-914*235a6f56
%RAWIMUSA,2283,42761.030;2283,42761.029998730,00000077,64179,51,455,0,0,768*e79bd00d
%RAWIMUSA,2283,42761.040;2283,42761.039998730,00000077,64191,-11,452,18,-8,969*f715c970
%RAWIMUSA,2283,42761.050;2283,42761.049998730,00000077,64187,32,454,18,0,-265*0a2d612d
%RAWIMUSA,2283,42761.060;2283,42761.059998730,00000077,64190,19,456,-9,0,-978*193885dc
%RAWIMUSA,2283,42761.070;2283,42761.069998730,00000077,64189,6,450,-18,9,-164*b8d0701f
%RAWIMUSA,2283,42761.080;2283,42761.079998730,00000077,64182,33,453,18,-8,905*fd5190bd
%RAWIMUSA,2283,42761.090;2283,42761.089998730,00000077,64195,-10,457,18,-8,740*defdad89
%RAWIMUSA,2283,42761.100;2283,42761.099998730,00000077,64181,52,458,9,0,-978*8926eff6
%RAWIMUSA,2283,42761.110;2283,42761.109998730,00000077,64192,-8,449,-18,17,-923*d2b3489c
%RAWIMUSA,2283,42761.120;2283,42761.119998730,00000077,64182,37,448,-8,-8,740*b4558996
%RAWIMUSA,2283,42761.130;2283,42761.129998730,00000077,64189,8,458,18,0,941*81c651d1
%RAWIMUSA,2283,42761.140;2283,42761.139998730,00000077,64189,19,461,27,0,-201*d0bb004c
%RAWIMUSA,2283,42761.150;2283,42761.149998730,00000077,64187,24,450,-18,0,-996*cb949121
%RAWIMUSA,2283,42761.160;2283,42761.159998730,00000077,64192,2,449,-18,8,-201*14fc92a1
%RAWIMUSA,2283,42761.170;2283,42761.169998730,00000077,64182,40,458,18,-8,905*4d541375
%RAWIMUSA,2283,42761.180;2283,42761.179998730,00000077,64193,-13,456,18,0,777*425272a3
%RAWIMUSA,2283,42761.190;2283,42761.189998730,00000077,64182,53,452,0,0,-960*b55b1a7d
%RAWIMUSA,2283,42761.200;2283,42761.199998730,00000077,64193,-5,452,-9,8,-950*22efd81c
%RAWIMUSA,2283,42761.210;2283,42761.209998730,00000077,64187,26,457,-8,0,704*a60e2ef5
%RAWIMUSA,2283,42761.220;2283,42761.219998730,00000077,64187,21,456,28,-8,923*66ac1f36
%RAWIMUSA,2283,42761.230;2283,42761.229998730,00000077,64191,0,448,18,0,-127*aaa3ccd3
%RAWIMUSA,2283,42761.240;2283,42761.239998730,00000077,64181,48,453,-9,8,-996*271f9ca0
%RAWIMUSA,2283,42761.250;2283,42761.249998730,00000077,64194,-15,459,-18,0,-283*51cbb7a9
%RAWIMUSA,2283,42761.260;2283,42761.259998730,00000077,64184,47,453,9,0,951*7d9eab08
%RAWIMUSA,2283,42761.270;2283,42761.269998730,00000077,64191,-3,446,27,-8,804*c05c840c
%RAWIMUSA,2283,42761.280;2283,42761.279998730,00000077,64189,30,453,0,8,-932*a8aa2cef
%RAWIMUSA,2283,42761.290;2283,42761.289998730,00000077,64187,21,465,-18,8,-996*c80b2bb5
%RAWIMUSA,2283,42761.300;2283,42761.299998730,00000077,64191,-2,454,0,-8,685*49f2d5b8
%RAWIMUSA,2283,42761.310;2283,42761.309998730,00000077,64184,46,445,18,-8,905*98e7b1b7
%RAWIMUSA,2283,42761.320;2283,42761.319998730,00000077,64193,-11,453,18,0,-73*b9af06a9
%RAWIMUSA,2283,42761.330;2283,42761.329998730,00000077,64183,53,459,-9,8,-978*7d0f9000
%RAWIMUSA,2283,42761.340;2283,42761.339998730,00000077,64192,-8,452,-18,0,-356*eba64bde
%RAWIMUSA,2283,42761.350;2283,42761.349998730,00000077,64184,33,450,18,-8,978*d5147281
%RAWIMUSA,2283,42761.360;2283,42761.359998730,00000077,64191,15,453,18,-8,823*f8930423
%RAWIMUSA,2283,42761.370;2283,42761.369998730,00000077,64188,11,457,0,17,-914*37f184fe
%RAWIMUSA,2283,42761.380;2283,42761.379998730,00000077,64184,30,453,-9,8,-996*97f45b9d
%RAWIMUSA,2283,42761.390;2283,42761.389998730,00000077,64193,0,452,-8,-8,631*2d2a435b
%RAWIMUSA,2283,42761.400;2283,42761.399998730,00000077,64182,45,453,28,-8,923*b1f1c198
%RAWIMUSA,2283,42761.410;2283,42761.409998730,00000077,64193,-14,455,9,0,-45*9f0c4fc5
%RAWIMUSA,2283,42761.420;2283,42761.419998730,00000077,64183,46,456,-9,8,-969*b0a5cb12
%RAWIMUSA,2283,42761.430;2283,42761.429998730,00000077,64190,0,453,-18,0,-411*95b62c10
%RAWIMUSA,2283,42761.440;2283,42761.439998730,00000077,64186,27,451,18,-8,987*5f5df1a8
%RAWIMUSA,2283,42761.450;2283,42761.449998730,00000077,64187,20,454,18,0,868*b4ec13f9
%RAWIMUSA,2283,42761.460;2283,42761.459998730,00000077,64190,0,458,0,0,-896*14b5caec
%RAWIMUSA,2283,42761.470;2283,42761.469998730,00000077,64182,42,456,-18,8,-1014*6b2a0868
%RAWIMUSA,2283,42761.480;2283,42761.479998730,00000077,64195,-13,448,0,-8,557*93a635b2
%RAWIMUSA,2283,42761.490;2283,42761.489998730,00000077,64181,50,455,28,-8,951*3cbc487a
%RAWIMUSA,2283,42761.500;2283,42761.499998730,00000077,64192,-11,457,9,9,-18*5151b31e
%RAWIMUSA,2283,42761.510;2283,42761.509998730,00000077,64186,36,453,-9,8,-932*0e96170e
%RAWIMUSA,2283,42761.520;2283,42761.519998730,00000077,64192,16,453,-18,-9,-493*c850d8f8
%RAWIMUSA,2283,42761.530;2283,42761.529998730,00000077,64188,12,457,18,0,1015*b80065f5
%RAWIMUSA,2283,42761.540;2283,42761.539998730,00000077,64183,37,456,28,-8,905*d62c40ca
%RAWIMUSA,2283,42761.550;2283,42761.549998730,00000077,64198,-21,449,-9,8,-905*c542583f
%RAWIMUSA,2283,42761.560;2283,42761.559998730,00000077,64180,59,453,-9,8,-978*1285e500
%RAWIMUSA,2283,42761.570;2283,42761.569998730,00000077,64192,-6,460,0,-8,475*0e88695d
%RAWIMUSA,2283,42761.580;2283,42761.579998730,00000077,64186,24,460,18,-8,978*89760597
%RAWIMUSA,2283,42761.590;2283,42761.589998730,00000077,64185,20,448,9,0,-9*200fdf93
%RAWIMUSA,2283,42761.600;2283,42761.599998730,00000077,64192,7,448,-9,17,-905*6ae2a751
%RAWIMUSA,2283,42761.610;2283,42761.609998730,00000077,64183,45,458,-18,-9,-548*df41d1e8
%RAWIMUSA,2283,42761.620;2283,42761.619998730,00000077,64195,-16,456,18,-8,996*472b0d1b
%RAWIMUSA,2283,42761.630;2283,42761.629998730,00000077,64180,48,450,28,0,932*26bcfb6f
%RAWIMUSA,2283,42761.640;2283,42761.639998730,00000077,64194,-6,448,-9,8,-896*1b86f56c
%RAWIMUSA,2283,42761.650;2283,42761.649998730,00000077,64184,36,456,-18,8,-932*0c325f82
%RAWIMUSA,2283,42761.660;2283,42761.659998730,00000077,64188,13,457,9,-8,375*a97af800
%RAWIMUSA,2283,42761.670;2283,42761.669998730,00000077,64189,2,450,18,-8,1015*1bdd29d3
%RAWIMUSA,2283,42761.680;2283,42761.679998730,00000077,64181,49,452,9,9,45*b1e31586
%RAWIMUSA,2283,42761.690;2283,42761.689998730,00000077,64197,-16,454,-9,8,-914*bac58b97
%RAWIMUSA,2283,42761.700;2283,42761.699998730,00000077,64182,47,460,-18,0,-585*75828b40
%RAWIMUSA,2283,42761.710;2283,42761.709998730,00000077,64193,-4,451,28,-8,951*35f28874
%RAWIMUSA,2283,42761.720;2283,42761.719998730,00000077,64187,32,449,18,0,987*30eb1812
%RAWIMUSA,2283,42761.730;2283,42761.729998730,00000077,64188,24,456,-9,8,-905*24c00be7
%RAWIMUSA,2283,42761.740;2283,42761.739998730,00000077,64196,-12,459,-9,8,-886*e20a2cee
%RAWIMUSA,2283,42761.750;2283,42761.749998730,00000077,64176,59,452,0,-9,329*378d8a93
%RAWIMUSA,2283,42761.760;2283,42761.759998730,00000077,64196,-10,442,28,-8,969*1a2a0ae6
%RAWIMUSA,2283,42761.770;2283,42761.769998730,00000077,64183,41,456,9,9,137*4df06491
%RAWIMUSA,2283,42761.780;2283,42761.779998730,00000077,64186,-1,466,-18,8,-969*59d6a2f5
%RAWIMUSA,2283,42761.790;2283,42761.789998730,00000077,64189,22,453,-9,-9,-575*35968616
%RAWIMUSA,2283,42761.800;2283,42761.799998730,00000077,64188,34,442,18,-8,923*08901702
%RAWIMUSA,2283,42761.810;2283,42761.809998730,00000077,64188,1,451,28,9,1015*534195f0
%RAWIMUSA,2283,42761.820;2283,42761.819998730,00000077,64182,30,465,-18,0,-850*1cea5410
%RAWIMUSA,2283,42761.830;2283,42761.829998730,00000077,64193,-4,457,-9,0,-923*f47ebb5a
%RAWIMUSA,2283,42761.840;2283,42761.839998730,00000077,64181,55,441,9,-9,292*1dc4beb0
%RAWIMUSA,2283,42761.850;2283,42761.849998730,00000077,64191,-11,447,18,0,978*6d0a8933
%RAWIMUSA,2283,42761.860;2283,42761.859998730,00000077,64186,32,462,9,9,201*880d1f28
%RAWIMUSA,2283,42761.870;2283,42761.869998730,00000077,64185,11,462,-9,0,-978*eb8108ba
%RAWIMUSA,2283,42761.880;2283,42761.879998730,00000077,64190,22,443,-18,0,-621*7ae6cc64
%RAWIMUSA,2283,42761.890;2283,42761.889998730,00000077,64183,34,451,28,-8,905*8b7e6f4e
%RAWIMUSA,2283,42761.900;2283,42761.899998730,00000077,64193,-21,460,18,0,1015*c0f3dfc4
%RAWIMUSA,2283,42761.910;2283,42761.909998730,00000077,64179,60,458,-9,8,-777*7f54b467
%RAWIMUSA,2283,42761.920;2283,42761.919998730,00000077,64190,-7,444,-9,0,-950*26b761bc
%RAWIMUSA,2283,42761.930;2283,42761.929998730,00000077,64186,29,450,9,-9,283*0b449f19
%RAWIMUSA,2283,42761.940;2283,42761.939998730,00000077,64189,17,461,18,0,923*5b73dc76
%RAWIMUSA,2283,42761.950;2283,42761.949998730,00000077,64188,4,456,0,9,301*45b6b1b0
%RAWIMUSA,2283,42761.960;2283,42761.959998730,00000077,64181,45,450,-9,0,-1005*aa87069c
%RAWIMUSA,2283,42761.970;2283,42761.969998730,00000077,64197,-19,449,-9,-9,-676*66f11caa
%RAWIMUSA,2283,42761.980;2283,42761.979998730,00000077,64182,47,461,28,-8,951*d2e3ebc1
%RAWIMUSA,2283,42761.990;2283,42761.989998730,00000077,64191,-1,461,18,9,960*9b4fa775
%RAWIMUSA,2283,42762.000;2283,42761.999998730,00000077,64185,33,450,-9,8,-667*304c6b8d
%RAWIMUSA,2283,42762.010;2283,42762.009998730,00000077,64186,8,448,-18,-10,-987*132aaa6f
%RAWIMUSA,2283,42762.020;2283,42762.019998730,00000077,64191,13,457,9,0,256*2baa6f03
%RAWIMUSA,2283,42762.030;2283,42762.029998730,00000077,64183,40,459,28,-8,914*8f694017
%RAWIMUSA,2283,42762.040;2283,42762.039998730,00000077,64195,-14,452,0,9,329*1066b6a4
%RAWIMUSA,2283,42762.050;2283,42762.049998730,00000077,64183,54,449,-9,8,-987*20779138
%RAWIMUSA,2283,42762.060;2283,42762.059998730,00000077,64191,-14,458,-9,-9,-749*efd7f2d3
%RAWIMUSA,2283,42762.070;2283,42762.069998730,00000077,64185,38,460,18,-8,969*ef447d35
%RAWIMUSA,2283,42762.080;2283,42762.079998730,00000077,64189,5,451,18,9,932*8eddd068
%RAWIMUSA,2283,42762.090;2283,42762.089998730,00000077,64187,18,449,-9,8,-594*da83aa63
%RAWIMUSA,2283,42762.100;2283,42762.099998730,00000077,64186,33,455,-18,0,-1005*f6ad999d
%RAWIMUSA,2283,42762.110;2283,42762.109998730,00000077,64193,-14,457,18,-9,201*5c72cfbb
%RAWIMUSA,2283,42762.120;2283,42762.119998730,00000077,64180,53,450,18,0,923*e721bfeb
%RAWIMUSA,2283,42762.130;2283,42762.129998730,00000077,64192,-13,451,0,9,347*025e0c0f
%RAWIMUSA,2283,42762.140;2283,42762.139998730,00000077,64186,41,458,-18,0,-932*17598dcc
%RAWIMUSA,2283,42762.150;2283,42762.149998730,00000077,64191,10,459,0,-9,-859*9500e71b
%RAWIMUSA,2283,42762.160;2283,42762.159998730,00000077,64191,6,448,18,-8,1015*6f196eda
%RAWIMUSA,2283,42762.170;2283,42762.169998730,00000077,64185,41,453,18,9,905*43956997
%RAWIMUSA,2283,42762.180;2283,42762.179998730,00000077,64196,-11,458,-9,8,-530*5ad35413
%RAWIMUSA,2283,42762.190;2283,42762.189998730,00000077,64179,50,460,-9,-10,-987*33c2af75
%RAWIMUSA,2283,42762.200;2283,42762.199998730,00000077,64193,-13,448,9,0,109*70eb657c
%RAWIMUSA,2283,42762.210;2283,42762.209998730,00000077,64185,41,448,28,0,978*fdb66df3
%RAWIMUSA,2283,42762.220;2283,42762.219998730,00000077,64188,15,461,0,9,365*fc88bc18
%RAWIMUSA,2283,42762.230;2283,42762.229998729,00000077,64188,8,460,-18,0,-905*c2980f6d
%RAWIMUSA,2283,42762.240;2283,42762.239998729,00000077,64181,34,452,0,-9,-923*a1143669
%RAWIMUSA,2283,42762.250;2283,42762.249998729,00000077,64193,-8,448,18,0,1005*f1ff8d3e
%RAWIMUSA,2283,42762.260;2283,42762.259998729,00000077,64183,53,458,18,0,923*282bee13
%RAWIMUSA,2283,42762.270;2283,42762.269998729,00000077,64194,-14,459,-18,8,-521*816c193e
%RAWIMUSA,2283,42762.280;2283,42762.279998729,00000077,64184,35,450,-9,-9,-941*0ca066f5
%RAWIMUSA,2283,42762.290;2283,42762.289998729,00000077,64190,9,449,9,-9,27*b1aced77
%RAWIMUSA,2283,42762.300;2283,42762.299998729,00000077,64187,19,456,28,0,1005*973b8b92
%RAWIMUSA,2283,42762.310;2283,42762.309998729,00000077,64183,30,456,0,9,393*7270abe6
%RAWIMUSA,2283,42762.320;2283,42762.319998729,00000077,64192,-4,453,-18,0,-896*e032b4df
%RAWIMUSA,2283,42762.330;2283,42762.329998729,00000077,64181,50,453,0,-10,-969*56c73177
%RAWIMUSA,2283,42762.340;2283,42762.339998729,00000077,64194,-11,456,18,0,987*046bd7f8
%RAWIMUSA,2283,42762.350;2283,42762.349998729,00000077,64183,45,457,18,9,941*ec7d513f
%RAWIMUSA,2283,42762.360;2283,42762.359998729,00000077,64191,-9,455,-18,0,-493*bc8bd97e
%RAWIMUSA,2283,42762.370;2283,42762.369998729,00000077,64184,34,451,-9,0,-932*b6ff7793
%RAWIMUSA,2283,42762.380;2283,42762.379998729,00000077,64189,15,451,18,-9,-36*c4c54399
%RAWIMUSA,2283,42762.390;2283,42762.389998729,00000077,64190,5,455,18,0,1015*a28d2b0c
%RAWIMUSA,2283,42762.400;2283,42762.399998729,00000077,64184,35,455,0,9,448*cc518632
%RAWIMUSA,2283,42762.410;2283,42762.409998729,00000077,64195,-10,452,-18,0,-905*9ec9fbad
%RAWIMUSA,2283,42762.420;2283,42762.419998729,00000077,64180,54,455,0,-10,-969*deef5109
%RAWIMUSA,2283,42762.430;2283,42762.429998729,00000077,64193,-12,454,18,0,951*254cfab4
%RAWIMUSA,2283,42762.440;2283,42762.439998729,00000077,64182,36,454,18,0,941*4dc01e40
%RAWIMUSA,2283,42762.450;2283,42762.449998729,00000077,64193,3,453,-9,8,-438*e7167d4a
%RAWIMUSA,2283,42762.460;2283,42762.459998729,00000077,64184,29,457,-18,-9,-923*79572894
%RAWIMUSA,2283,42762.470;2283,42762.469998729,00000077,64186,16,455,18,-9,-91*d8a91454
%RAWIMUSA,2283,42762.480;2283,42762.479998729,00000077,64190,-1,450,18,9,1015*6938da7e
%RAWIMUSA,2283,42762.490;2283,42762.489998729,00000077,64181,51,454,0,9,503*eacdefcb
%RAWIMUSA,2283,42762.500;2283,42762.499998729,00000077,64195,-12,454,-18,0,-914*62871757
%RAWIMUSA,2283,42762.510;2283,42762.509998729,00000077,64182,46,456,9,-10,-960*2f310a14
%RAWIMUSA,2283,42762.520;2283,42762.519998729,00000077,64191,-8,449,18,0,887*f66e3650
%RAWIMUSA,2283,42762.530;2283,42762.529998729,00000077,64184,36,450,9,9,978*896396c3
%RAWIMUSA,2283,42762.540;2283,42762.539998729,00000077,64191,15,457,-18,0,-402*d65f5bcf
%RAWIMUSA,2283,42762.550;2283,42762.549998729,00000077,64192,8,456,-9,-9,-905*ab370dd0
%RAWIMUSA,2283,42762.560;2283,42762.559998729,00000077,64183,33,453,18,-9,-155*688ffb12
%RAWIMUSA,2283,42762.570;2283,42762.569998729,00000077,64191,-3,451,18,9,1005*89d9a50f
%RAWIMUSA,2283,42762.580;2283,42762.579998729,00000077,64180,48,456,-8,9,557*755ccdff
%RAWIMUSA,2283,42762.590;2283,42762.589998729,00000077,64191,-14,456,-9,0,-923*4efebebc
%RAWIMUSA,2283,42762.600;2283,42762.599998729,00000077,64183,47,452,0,-9,-960*410582d0
%RAWIMUSA,2283,42762.610;2283,42762.609998729,00000077,64189,1,451,18,0,813*07ada736
%RAWIMUSA,2283,42762.620;2283,42762.619998729,00000077,64186,18,454,18,9,996*223ff208
%RAWIMUSA,2283,42762.630;2283,42762.629998729,00000077,64185,28,457,-18,0,-365*64c9464d
%RAWIMUSA,2283,42762.640;2283,42762.639998729,00000077,64191,-1,451,-9,0,-886*193511f3
%RAWIMUSA,2283,42762.650;2283,42762.649998729,00000077,64177,49,456,18,-9,-210*78d6e173
%RAWIMUSA,2283,42762.660;2283,42762.659998729,00000077,64195,-15,455,18,9,996*febab3bb
%RAWIMUSA,2283,42762.670;2283,42762.669998729,00000077,64182,45,454,-8,9,631*a4743e17
%RAWIMUSA,2283,42762.680;2283,42762.679998729,00000077,64190,-4,451,-9,-9,-950*06d5bd78
%RAWIMUSA,2283,42762.690;2283,42762.689998729,00000077,64185,32,454,0,0,-923*fb8801be
%RAWIMUSA,2283,42762.700;2283,42762.699998729,00000077,64185,16,460,27,0,740*31206e89
%RAWIMUSA,2283,42762.710;2283,42762.709998729,00000077,64190,3,451,9,9,1005*19550454
%RAWIMUSA,2283,42762.720;2283,42762.719998729,00000077,64182,48,448,-18,0,-319*277914e9
%RAWIMUSA,2283,42762.730;2283,42762.729998729,00000077,64195,-6,455,-9,-9,-905*3ccb0cf8
%RAWIMUSA,2283,42762.740;2283,42762.739998729,00000077,64178,44,459,18,-9,-237*bd36e14d
%RAWIMUSA,2283,42762.750;2283,42762.749998729,00000077,64194,-10,450,28,9,969*d60862cf
%RAWIMUSA,2283,42762.760;2283,42762.759998729,00000077,64185,46,449,-18,9,713*2e90467f
%RAWIMUSA,2283,42762.770;2283,42762.769998729,00000077,64192,5,460,-9,-9,-969*5eed2948
%RAWIMUSA,2283,42762.780;2283,42762.779998729,00000077,64187,20,458,9,-9,-914*76b0c5d3
%RAWIMUSA,2283,42762.790;2283,42762.789998729,00000077,64187,21,446,18,0,667*fccc6085
%RAWIMUSA,2283,42762.800;2283,42762.799998729,00000077,64190,8,446,9,19,1005*181894a1
%RAWIMUSA,2283,42762.810;2283,42762.809998729,00000077,64181,42,458,-18,-9,-265*15ed86b8
%RAWIMUSA,2283,42762.820;2283,42762.819998729,00000077,64192,-14,458,-9,-9,-923*89bd2578
%RAWIMUSA,2283,42762.830;2283,42762.829998729,00000077,64180,48,451,18,0,-283*470a48b3
%RAWIMUSA,2283,42762.840;2283,42762.839998729,00000077,64195,-4,451,18,9,987*8d0044d0
%RAWIMUSA,2283,42762.850;2283,42762.849998729,00000077,64186,39,458,-8,9,749*8ada83d3
%RAWIMUSA,2283,42762.860;2283,42762.859998729,00000077,64192,-2,458,-9,-9,-969*ab648efb
%RAWIMUSA,2283,42762.870;2283,42762.869998729,00000077,64189,26,450,9,-9,-923*ac01b14e
%RAWIMUSA,2283,42762.880;2283,42762.879998729,00000077,64185,24,448,18,0,621*b00df197
%RAWIMUSA,2283,42762.890;2283,42762.889998729,00000077,64193,2,454,9,19,1015*3410ebdb
%RAWIMUSA,2283,42762.900;2283,42762.899998729,00000077,64182,38,457,-18,-9,-219*f20e7c38
%RAWIMUSA,2283,42762.910;2283,42762.909998729,00000077,64192,-7,454,-9,0,-905*14734a49
%RAWIMUSA,2283,42762.920;2283,42762.919998729,00000077,64186,51,451,18,-9,-329*f82282f8
%RAWIMUSA,2283,42762.930;2283,42762.929998729,00000077,64192,-11,454,18,9,969*ca235096
%RAWIMUSA,2283,42762.940;2283,42762.939998729,00000077,64185,36,454,-8,9,804*3a45ce54
%RAWIMUSA,2283,42762.950;2283,42762.949998729,00000077,64190,12,452,-18,-9,-978*dc00323f
%RAWIMUSA,2283,42762.960;2283,42762.959998729,00000077,64187,14,453,9,0,-905*434c3cd7
%RAWIMUSA,2283,42762.970;2283,42762.969998729,00000077,64185,35,458,18,0,567*10a5f1ed
%RAWIMUSA,2283,42762.980;2283,42762.979998729,00000077,64194,-14,456,9,9,1015*c69e8eb9
%RAWIMUSA,2283,42762.990;2283,42762.989998729,00000077,64178,56,452,-18,0,-146*b806b44f
%RAWIMUSA,2283,42763.000;2283,42762.999998729,00000077,64194,-11,451,0,-9,-941*d0b930b6
%RAWIMUSA,2283,42763.010;2283,42763.009998729,00000077,64184,35,458,18,0,-347*91f97558
%RAWIMUSA,2283,42763.020;2283,42763.019998729,00000077,64189,13,454,28,9,923*96774d6d
%RAWIMUSA,2283,42763.030;2283,42763.029998729,00000077,64189,0,453,-18,9,923*fd0d8a75
%RAWIMUSA,2283,42763.040;2283,42763.039998729,00000077,64183,48,454,-18,-10,-1005*3c31d77e
%RAWIMUSA,2283,42763.050;2283,42763.049998729,00000077,64194,-12,452,9,-9,-914*c3001c44
%RAWIMUSA,2283,42763.060;2283,42763.059998729,00000077,64182,44,454,27,9,548*acae3482
%RAWIMUSA,2283,42763.070;2283,42763.069998729,00000077,64191,-7,451,0,9,969*ce12f5e2
%RAWIMUSA,2283,42763.080;2283,42763.079998729,00000077,64183,37,453,-18,0,-45*bf06b5ac
%RAWIMUSA,2283,42763.090;2283,42763.089998729,00000077,64190,15,456,0,-19,-978*9fa795ea
%RAWIMUSA,2283,42763.100;2283,42763.099998729,00000077,64186,5,456,18,8,-356*ef9f63c4
%RAWIMUSA,2283,42763.110;2283,42763.109998729,00000077,64181,36,455,18,0,905*2a6ac430
%RAWIMUSA,2283,42763.120;2283,42763.119998729,00000077,64196,-8,453,-8,9,960*c66d4808
%RAWIMUSA,2283,42763.130;2283,42763.129998729,00000077,64178,54,455,-18,-9,-978*67901856
%RAWIMUSA,2283,42763.140;2283,42763.139998729,00000077,64192,-13,454,18,-9,-932*f5719250
%RAWIMUSA,2283,42763.150;2283,42763.149998729,00000077,64185,39,457,18,9,521*dd913487
%RAWIMUSA,2283,42763.160;2283,42763.159998729,00000077,64187,9,453,0,9,932*a5dbe690
%RAWIMUSA,2283,42763.170;2283,42763.169998729,00000077,64187,15,447,-18,0,36*d485f2f0
%RAWIMUSA,2283,42763.180;2283,42763.179998729,00000077,64182,37,453,0,-10,-996*67f41b5d
%RAWIMUSA,2283,42763.190;2283,42763.189998729,00000077,64197,-16,455,27,0,-420*ddde523c
%RAWIMUSA,2283,42763.200;2283,42763.199998729,00000077,64181,56,455,9,9,941*7ad173e8
%RAWIMUSA,2283,42763.210;2283,42763.209998729,00000077,64192,-11,454,-8,0,969*242a2a6b
%RAWIMUSA,2283,42763.220;2283,42763.219998729,00000077,64186,34,454,-18,-9,-923*3ddec67d
%RAWIMUSA,2283,42763.230;2283,42763.229998729,00000077,64190,17,454,18,0,-987*3826aaab
%RAWIMUSA,2283,42763.240;2283,42763.239998729,00000077,64187,9,453,18,9,512*632e240a
%RAWIMUSA,2283,42763.250;2283,42763.249998729,00000077,64180,42,452,0,9,914*99e2d089
%RAWIMUSA,2283,42763.260;2283,42763.259998729,00000077,64195,-15,451,-9,-9,82*e132c60f
%RAWIMUSA,2283,42763.270;2283,42763.269998729,00000077,64180,49,457,0,-10,-978*2cfd2459
%RAWIMUSA,2283,42763.280;2283,42763.279998729,00000077,64193,-8,454,18,0,-530*610a7667
%RAWIMUSA,2283,42763.290;2283,42763.289998729,00000077,64185,33,454,18,9,987*418a107a
%RAWIMUSA,2283,42763.300;2283,42763.299998729,00000077,64191,14,455,-18,0,914*cb807905
%RAWIMUSA,2283,42763.310;2283,42763.309998729,00000077,64188,7,455,-9,0,-850*28a816bc
%RAWIMUSA,2283,42763.320;2283,42763.319998729,00000077,64183,40,455,9,-10,-996*1c62ea57
%RAWIMUSA,2283,42763.330;2283,42763.329998729,00000077,64191,-11,452,27,9,448*e4e5b08f
%RAWIMUSA,2283,42763.340;2283,42763.339998729,00000077,64179,46,455,0,9,923*b426c3cf
%RAWIMUSA,2283,42763.350;2283,42763.349998729,00000077,64191,-10,452,-18,-9,109*bbc07b85
%RAWIMUSA,2283,42763.360;2283,42763.359998729,00000077,64182,41,455,0,-9,-941*fdab03f2
%RAWIMUSA,2283,42763.370;2283,42763.369998729,00000077,64189,3,454,18,8,-594*546b868f
%RAWIMUSA,2283,42763.380;2283,42763.379998729,00000077,64188,21,454,18,9,1015*d955a5e5
%RAWIMUSA,2283,42763.390;2283,42763.389998729,00000077,64182,31,455,-18,-8,905*d1c5cadd
%RAWIMUSA,2283,42763.400;2283,42763.399998729,00000077,64195,-8,452,-9,0,-777*b91eb3ee
%RAWIMUSA,2283,42763.410;2283,42763.409998729,00000077,64183,45,461,18,-10,-987*aa22417b
%RAWIMUSA,2283,42763.420;2283,42763.419998729,00000077,64192,-13,451,18,18,374*24473fb0
%RAWIMUSA,2283,42763.430;2283,42763.429998729,00000077,64182,48,447,0,0,969*824058bc
%RAWIMUSA,2283,42763.440;2283,42763.439998729,00000077,64190,2,457,-18,0,118*c6341bec
%RAWIMUSA,2283,42763.450;2283,42763.449998729,00000077,64185,14,464,0,-9,-914*8208a207
%RAWIMUSA,2283,42763.460;2283,42763.459998729,00000077,64187,30,455,27,8,-667*4a489e69
%RAWIMUSA,2283,42763.470;2283,42763.469998729,00000077,64189,9,441,9,9,1005*32b406cc
%RAWIMUSA,2283,42763.480;2283,42763.479998729,00000077,64184,32,456,-8,-8,923*aff49ed6
%RAWIMUSA,2283,42763.490;2283,42763.489998729,00000077,64191,-5,465,-18,0,-749*47b078e3
%RAWIMUSA,2283,42763.500;2283,42763.499998729,00000077,64181,42,454,18,-10,-978*ccd8b184
%RAWIMUSA,2283,42763.510;2283,42763.509998729,00000077,64196,-5,442,18,9,320*09dc96f7
%RAWIMUSA,2283,42763.520;2283,42763.519998729,00000077,64184,45,455,0,9,960*5f19da72
%RAWIMUSA,2283,42763.530;2283,42763.529998729,00000077,64188,-5,464,-18,-9,182*bf184260
%RAWIMUSA,2283,42763.540;2283,42763.539998729,00000077,64189,17,452,9,-9,-914*91b8dcad
%RAWIMUSA,2283,42763.550;2283,42763.549998729,00000077,64184,35,444,18,8,-722*00c9dffb
%RAWIMUSA,2283,42763.560;2283,42763.559998729,00000077,64190,-1,455,9,9,1015*7fafabf6
%RAWIMUSA,2283,42763.570;2283,42763.569998729,00000077,64178,44,464,-8,-8,914*ca8a6644
%RAWIMUSA,2283,42763.580;2283,42763.579998729,00000077,64192,-22,450,-18,-9,-713*c8040986
%RAWIMUSA,2283,42763.590;2283,42763.589998729,00000077,64183,49,447,18,0,-950*6e1b2a22
%RAWIMUSA,2283,42763.600;2283,42763.599998729,00000077,64191,5,457,27,9,237*c89912e8
%RAWIMUSA,2283,42763.610;2283,42763.609998729,00000077,64188,14,462,-8,9,996*03f20e68
%RAWIMUSA,2283,42763.620;2283,42763.619998729,00000077,64186,29,452,-18,-18,182*15f0b41d
%RAWIMUSA,2283,42763.630;2283,42763.629998729,00000077,64195,-8,444,9,0,-905*5954e12d
%RAWIMUSA,2283,42763.640;2283,42763.639998729,00000077,64180,56,454,18,8,-758*6074fb4a
%RAWIMUSA,2283,42763.650;2283,42763.649998729,00000077,64191,-16,464,18,9,987*55dbf391
%RAWIMUSA,2283,42763.660;2283,42763.659998729,00000077,64185,41,455,-18,-8,969*b9587727
%RAWIMUSA,2283,42763.670;2283,42763.669998729,00000077,64188,5,444,-9,-9,-713*a58cca66
%RAWIMUSA,2283,42763.680;2283,42763.679998729,00000077,64186,16,456,18,8,-896*31e786e1
%RAWIMUSA,2283,42763.690;2283,42763.689998729,00000077,64183,33,461,27,9,164*b0a4df2e
%RAWIMUSA,2283,42763.700;2283,42763.699998729,00000077,64196,-16,454,-8,0,1005*a5eb26c0
%RAWIMUSA,2283,42763.710;2283,42763.709998729,00000077,64178,59,450,-18,-9,265*b1aacd57
%RAWIMUSA,2283,42763.720;2283,42763.719998729,00000077,64194,-10,456,9,0,-941*d1b3d044
%RAWIMUSA,2283,42763.730;2283,42763.729998729,00000077,64183,32,458,18,0,-758*019a3244
%RAWIMUSA,2283,42763.740;2283,42763.739998729,00000077,64189,6,450,9,9,923*8cf872c2
%RAWIMUSA,2283,42763.750;2283,42763.749998729,00000077,64187,26,450,-8,0,996*cfe0e84e
%RAWIMUSA,2283,42763.760;2283,42763.759998729,00000077,64187,23,458,-9,-18,-685*e139bec3
%RAWIMUSA,2283,42763.770;2283,42763.769998729,00000077,64194,-8,461,18,8,-905*27ab492e
%RAWIMUSA,2283,42763.780;2283,42763.779998729,00000077,64181,53,448,27,9,109*6d07395f
%RAWIMUSA,2283,42763.790;2283,42763.789998729,00000077,64195,-17,449,-8,0,996*3ae4a385
%RAWIMUSA,2283,42763.800;2283,42763.799998729,00000077,64184,49,458,-18,-8,338*c5ca68b5
%RAWIMUSA,2283,42763.810;2283,42763.809998729,00000077,64189,0,457,9,0,-969*88c80cc9
%RAWIMUSA,2283,42763.820;2283,42763.819998729,00000077,64188,17,449,18,8,-804*edfeb7fe
%RAWIMUSA,2283,42763.830;2283,42763.829998729,00000077,64187,38,453,9,0,914*78a72ef7
%RAWIMUSA,2283,42763.840;2283,42763.839998729,00000077,64191,-5,457,-18,-8,1015*ed5c27c2
%RAWIMUSA,2283,42763.850;2283,42763.849998729,00000077,64181,45,454,-9,-9,-612*bd420a79
%RAWIMUSA,2283,42763.860;2283,42763.859998729,00000077,64192,-14,449,18,8,-932*339089ae
%RAWIMUSA,2283,42763.870;2283,42763.869998729,00000077,64184,45,457,18,9,91*9ee0f761
%RAWIMUSA,2283,42763.880;2283,42763.879998729,00000077,64191,-2,460,-8,0,951*595e2dfc
%RAWIMUSA,2283,42763.890;2283,42763.889998729,00000077,64184,26,451,-8,-8,439*50b8f6fd
%RAWIMUSA,2283,42763.900;2283,42763.899998729,00000077,64187,22,450,9,0,-1005*e76c144a
%RAWIMUSA,2283,42763.910;2283,42763.909998729,00000077,64192,4,457,18,8,-822*07653310
%RAWIMUSA,2283,42763.920;2283,42763.919998729,00000077,64181,42,459,0,0,923*bd4790e1
%RAWIMUSA,2283,42763.930;2283,42763.929998729,00000077,64195,-13,451,-8,-8,987*43c30a5e
%RAWIMUSA,2283,42763.940;2283,42763.939998729,00000077,64182,49,453,-9,-9,-539*3bff0f3d
%RAWIMUSA,2283,42763.950;2283,42763.949998729,00000077,64191,-3,454,18,8,-941*28deb634
%RAWIMUSA,2283,42763.960;2283,42763.959998729,00000077,64190,29,460,18,18,54*3a075789
%RAWIMUSA,2283,42763.970;2283,42763.969998729,00000077,64190,12,454,-8,-8,932*1cf6c193
%RAWIMUSA,2283,42763.980;2283,42763.979998729,00000077,64190,12,451,-18,-8,493*af1f1fb2
%RAWIMUSA,2283,42763.990;2283,42763.989998729,00000077,64182,31,454,9,0,-987*590dcc05
%RAWIMUSA,2283,42764.000;2283,42763.999998729,00000077,64194,-5,463,18,8,-896*ebd1cf6b
%RAWIMUSA,2283,42764.010;2283,42764.009998729,00000077,64180,44,453,9,0,923*43590664
%RAWIMUSA,2283,42764.020;2283,42764.019998729,00000077,64194,-9,445,-18,-8,978*ed8fdad8
%RAWIMUSA,2283,42764.030;2283,42764.029998729,00000077,64181,48,451,-9,-9,-484*9892e5fa
%RAWIMUSA,2283,42764.040;2283,42764.039998729,00000077,64191,-8,463,27,8,-960*c0518459
%RAWIMUSA,2283,42764.050;2283,42764.049998729,00000077,64186,29,456,18,9,27*eaed4d4f
%RAWIMUSA,2283,42764.060;2283,42764.059998729,00000077,64187,20,446,-18,-8,914*6f8cfb46
%RAWIMUSA,2283,42764.070;2283,42764.069998729,00000077,64193,0,452,-8,0,557*2d3956fb
%RAWIMUSA,2283,42764.080;2283,42764.079998729,00000077,64180,46,462,9,-10,-1005*61b05387
%RAWIMUSA,2283,42764.090;2283,42764.089998729,00000077,64191,-11,454,18,8,-914*9835c14a
%RAWIMUSA,2283,42764.100;2283,42764.099998729,00000077,64181,46,448,9,9,905*732b6c18
%RAWIMUSA,2283,42764.110;2283,42764.109998729,00000077,64191,-7,457,-18,-8,951*fefbcea7
%RAWIMUSA,2283,42764.120;2283,42764.119998729,00000077,64186,35,456,0,-9,-393*0786d47e
%RAWIMUSA,2283,42764.130;2283,42764.129998729,00000077,64188,18,452,18,8,-1005*af1e9660
%RAWIMUSA,2283,42764.140;2283,42764.139998728,00000077,64192,-4,449,18,9,9*da81145e
%RAWIMUSA,2283,42764.150;2283,42764.149998728,00000077,64181,43,457,-18,-8,905*073ac4f6
%RAWIMUSA,2283,42764.160;2283,42764.159998728,00000077,64196,-10,457,-18,-8,594*ce658dcc
%RAWIMUSA,2283,42764.170;2283,42764.169998728,00000077,64181,50,454,18,8,-969*506b2fc4
%RAWIMUSA,2283,42764.180;2283,42764.179998728,00000077,64192,-10,452,18,0,-950*bd76a4fb
%RAWIMUSA,2283,42764.190;2283,42764.189998728,00000077,64183,36,456,0,9,896*99ceb651
%RAWIMUSA,2283,42764.200;2283,42764.199998728,00000077,64188,16,456,-8,-8,914*4bf7d72c
%RAWIMUSA,2283,42764.210;2283,42764.209998728,00000077,64192,6,453,-9,-9,-319*e9b5fe4a
%RAWIMUSA,2283,42764.220;2283,42764.219998728,00000077,64181,42,453,18,8,-996*fd5f14c5
%RAWIMUSA,2283,42764.230;2283,42764.229998728,00000077,64194,-15,456,18,9,-63*3cd2576b
%RAWIMUSA,2283,42764.240;2283,42764.239998728,00000077,64182,50,459,-8,-8,932*73d86175
%RAWIMUSA,2283,42764.250;2283,42764.249998728,00000077,64192,-7,453,-18,-8,621*4f180f38
%RAWIMUSA,2283,42764.260;2283,42764.259998728,00000077,64183,39,452,18,8,-941*694d9a7c
%RAWIMUSA,2283,42764.270;2283,42764.269998728,00000077,64186,2,451,18,0,-969*a0a25042
%RAWIMUSA,2283,42764.280;2283,42764.279998728,00000077,64190,19,456,0,0,859*ce30b94e
%RAWIMUSA,2283,42764.290;2283,42764.289998728,00000077,64184,25,457,-18,-8,923*a6bcae26
%RAWIMUSA,2283,42764.300;2283,42764.299998728,00000077,64193,2,448,0,0,-274*3a44aea6
%RAWIMUSA,2283,42764.310;2283,42764.309998728,00000077,64182,39,453,27,8,-1005*bbd54e31
%RAWIMUSA,2283,42764.320;2283,42764.319998728,00000077,64195,-13,459,9,9,-118*e9082bd3
%RAWIMUSA,2283,42764.330;2283,42764.329998728,00000077,64183,53,458,-8,-8,941*2efdad11
%RAWIMUSA,2283,42764.340;2283,42764.339998728,00000077,64192,-9,450,-18,-8,667*c4f8f7ab
%RAWIMUSA,2283,42764.350;2283,42764.349998728,00000077,64183,34,451,18,8,-932*e62b8d0d
%RAWIMUSA,2283,42764.360;2283,42764.359998728,00000077,64190,14,457,27,0,-987*e27af920
%RAWIMUSA,2283,42764.370;2283,42764.369998728,00000077,64190,5,455,-8,0,823*fde85860
%RAWIMUSA,2283,42764.380;2283,42764.379998728,00000077,64181,42,455,-8,-8,914*289e5b4f
%RAWIMUSA,2283,42764.390;2283,42764.389998728,00000077,64196,-20,450,0,8,-228*17a0ef84
%RAWIMUSA,2283,42764.400;2283,42764.399998728,00000077,64181,53,452,18,0,-978*25371c14
%RAWIMUSA,2283,42764.410;2283,42764.409998728,00000077,64190,-6,451,18,8,-219*e14cf066
%RAWIMUSA,2283,42764.420;2283,42764.419998728,00000077,64186,26,452,-18,-8,996*dc0c1ba3
%RAWIMUSA,2283,42764.430;2283,42764.429998728,00000077,64188,23,457,-8,-8,676*a620d110
%RAWIMUSA,2283,42764.440;2283,42764.439998728,00000077,64194,4,454,18,8,-914*21807425
%RAWIMUSA,2283,42764.450;2283,42764.449998728,00000077,64178,40,456,18,8,-996*5e414e2a
%RAWIMUSA,2283,42764.460;2283,42764.459998728,00000077,64194,-12,449,-8,-8,749*1a545092
%RAWIMUSA,2283,42764.470;2283,42764.469998728,00000077,64184,46,456,-8,-8,941*fddbae77
%RAWIMUSA,2283,42764.480;2283,42764.479998728,00000077,64191,-7,455,0,0,-201*4cd38e6e
%RAWIMUSA,2283,42764.490;2283,42764.489998728,00000077,64182,38,451,18,8,-941*d64a4755
%RAWIMUSA,2283,42764.500;2283,42764.499998728,00000077,64191,6,456,18,8,-292*a8770534
%RAWIMUSA,2283,42764.510;2283,42764.509998728,00000077,64190,8,465,-18,-8,1015*c8a8da45
%RAWIMUSA,2283,42764.520;2283,42764.519998728,00000077,64182,42,449,-8,-8,713*4dd3782a
%RAWIMUSA,2283,42764.530;2283,42764.529998728,00000077,64195,-11,440,18,8,-905*d356a7dc
%RAWIMUSA,2283,42764.540;2283,42764.539998728,00000077,64182,48,460,27,8,-987*fcf425d0
%RAWIMUSA,2283,42764.550;2283,42764.549998728,00000077,64191,-10,465,-8,-8,676*a712b6d6
%RAWIMUSA,2283,42764.560;2283,42764.559998728,00000077,64185,41,445,-8,-8,978*2403566b
%RAWIMUSA,2283,42764.570;2283,42764.569998728,00000077,64189,13,445,0,0,-201*56bf2a2d
%RAWIMUSA,2283,42764.580;2283,42764.579998728,00000077,64191,2,464,18,8,-905*89ff7da6
%RAWIMUSA,2283,42764.590;2283,42764.589998728,00000077,64181,44,462,9,0,-374*109f102c
%RAWIMUSA,2283,42764.600;2283,42764.599998728,00000077,64196,-16,440,-8,-8,1015*40c836c0
%RAWIMUSA,2283,42764.610;2283,42764.609998728,00000077,64181,58,448,-8,0,804*d55d2d4e
%RAWIMUSA,2283,42764.620;2283,42764.619998728,00000077,64191,-12,465,18,0,-969*ea88c2f0
%RAWIMUSA,2283,42764.630;2283,42764.629998728,00000077,64185,27,459,18,8,-905*54d2a419
%RAWIMUSA,2283,42764.640;2283,42764.639998728,00000077,64189,31,442,-8,-8,576*d612921f
%RAWIMUSA,2283,42764.650;2283,42764.649998728,00000077,64192,-2,447,-8,0,1015*c355b4f2
%RAWIMUSA,2283,42764.660;2283,42764.659998728,00000077,64182,42,462,0,0,-164*4dfdfed7
%RAWIMUSA,2283,42764.670;2283,42764.669998728,00000077,64195,-15,459,18,8,-923*13bb8b67
%RAWIMUSA,2283,42764.680;2283,42764.679998728,00000077,64181,51,444,18,0,-383*c29bec1f
%RAWIMUSA,2283,42764.690;2283,42764.689998728,00000077,64189,-5,448,-18,-8,960*99fd1610
%RAWIMUSA,2283,42764.700;2283,42764.699998728,00000077,64184,25,467,-8,0,887*814bc1f9
%RAWIMUSA,2283,42764.710;2283,42764.709998728,00000077,64189,20,461,18,0,-987*e08e4f6c
%RAWIMUSA,2283,42764.720;2283,42764.719998728,00000077,64188,10,439,18,8,-905*07b0f514
%RAWIMUSA,2283,42764.730;2283,42764.729998728,00000077,64184,37,451,-8,-8,521*52dbcacf
%RAWIMUSA,2283,42764.740;2283,42764.739998728,00000077,64191,-9,462,-8,0,1005*5eec0fc3
%RAWIMUSA,2283,42764.750;2283,42764.749998728,00000077,64180,50,459,9,0,-91*dee60e92
%RAWIMUSA,2283,42764.760;2283,42764.759998728,00000077,64192,-10,442,18,8,-932*fbd586a4
%RAWIMUSA,2283,42764.770;2283,42764.769998728,00000077,64183,40,450,9,0,-411*cff46897
%RAWIMUSA,2283,42764.780;2283,42764.779998728,00000077,64191,4,465,-18,-8,932*a8ea2dc4
%RAWIMUSA,2283,42764.790;2283,42764.789998728,00000077,64186,17,452,0,0,969*e0ece478
%RAWIMUSA,2283,42764.800;2283,42764.799998728,00000077,64184,36,442,18,8,-1014*6964217a
%RAWIMUSA,2283,42764.810;2283,42764.809998728,00000077,64197,-14,458,18,8,-896*32fe9313
%RAWIMUSA,2283,42764.820;2283,42764.819998728,00000077,64178,56,468,-8,-8,475*fcada2b4
%RAWIMUSA,2283,42764.830;2283,42764.829998728,00000077,64190,-11,449,-8,-8,969*03ce2ad2
%RAWIMUSA,2283,42764.840;2283,42764.839998728,00000077,64181,36,440,9,9,9*6e7af07a
%RAWIMUSA,2283,42764.850;2283,42764.849998728,00000077,64191,13,460,18,0,-987*e5476fd9
%RAWIMUSA,2283,42764.860;2283,42764.859998728,00000077,64189,10,471,0,0,-429*345e5b34
%RAWIMUSA,2283,42764.870;2283,42764.869998728,00000077,64182,37,446,-8,-8,905*ee397ff3
%RAWIMUSA,2283,42764.880;2283,42764.879998728,00000077,64193,-9,435,-8,9,1015*2399f731
%RAWIMUSA,2283,42764.890;2283,42764.889998728,00000077,64180,57,460,18,0,-969*1311e0ac
%RAWIMUSA,2283,42764.900;2283,42764.899998728,00000077,64194,-16,475,27,8,-932*c23cd260
%RAWIMUSA,2283,42764.910;2283,42764.909998728,00000077,64188,36,448,-18,-8,466*471e7d20
%RAWIMUSA,2283,42764.920;2283,42764.919998728,00000077,64190,12,436,-8,-8,932*ec4b2f5e
%RAWIMUSA,2283,42764.930;2283,42764.929998728,00000077,64186,16,455,9,9,91*f011ea40
%RAWIMUSA,2283,42764.940;2283,42764.939998728,00000077,64184,33,467,18,8,-1005*b4ea3b86
%RAWIMUSA,2283,42764.950;2283,42764.949998728,00000077,64191,-10,454,9,0,-484*f2e4fc0e
%RAWIMUSA,2283,42764.960;2283,42764.959998728,00000077,64181,52,445,-18,-8,932*a8751c11
%RAWIMUSA,2283,42764.970;2283,42764.969998728,00000077,64193,-8,455,0,0,987*b726e434
%RAWIMUSA,2283,42764.980;2283,42764.979998728,00000077,64186,41,463,18,8,-896*a564d481
%RAWIMUSA,2283,42764.990;2283,42764.989998728,00000077,64193,-3,452,18,-10,-969*6e26695b
%RAWIMUSA,2283,42765.000;2283,42764.999998728,00000077,64187,24,442,-8,0,439*8a23bd9a
%RAWIMUSA,2283,42765.010;2283,42765.009998728,00000077,64187,32,452,-18,-8,914*78bc3ebb
%RAWIMUSA,2283,42765.020;2283,42765.019998728,00000077,64192,-3,461,18,9,137*fe4a296f
%RAWIMUSA,2283,42765.030;2283,42765.029998728,00000077,64179,42,454,18,8,-996*b5b5c3d9
%RAWIMUSA,2283,42765.040;2283,42765.039998728,00000077,64193,-14,443,9,0,-539*b0f12b83
%RAWIMUSA,2283,42765.050;2283,42765.049998728,00000077,64183,56,455,-18,-17,951*88d1c0af
%RAWIMUSA,2283,42765.060;2283,42765.059998728,00000077,64190,-5,461,0,9,951*a3ace8ca
%RAWIMUSA,2283,42765.070;2283,42765.069998728,00000077,64183,21,455,18,0,-813*6a605587
%RAWIMUSA,2283,42765.080;2283,42765.079998728,00000077,64191,22,444,18,0,-996*c05346cc
%RAWIMUSA,2283,42765.090;2283,42765.089998728,00000077,64190,6,452,-8,-8,402*ff6a8bce
%RAWIMUSA,2283,42765.100;2283,42765.099998728,00000077,64180,45,464,28,0,914*f7ffb77e
%RAWIMUSA,2283,42765.110;2283,42765.109998728,00000077,64194,-30,443,156,0,183*a92a2764
%RAWIMUSA,2283,42765.120;2283,42765.119998728,00000077,64182,30,430,340,8,-969*1551e5a6
%RAWIMUSA,2283,42765.130;2283,42765.129998728,00000077,64190,-2,443,442,0,-639*1be7c155
%RAWIMUSA,2283,42765.140;2283,42765.139998728,00000077,64187,17,459,553,-8,1015*75af6eee
%RAWIMUSA,2283,42765.150;2283,42765.149998728,00000077,64186,10,455,682,9,914*825a545a
%RAWIMUSA,2283,42765.160;2283,42765.159998728,00000077,64193,-6,439,746,7,-731*18912729
%RAWIMUSA,2283,42765.170;2283,42765.169998728,00000077,64180,39,437,838,-1,-987*fa8e0ccf
%RAWIMUSA,2283,42765.180;2283,42765.179998728,00000077,64193,-11,456,875,0,347*44473282
%RAWIMUSA,2283,42765.190;2283,42765.189998728,00000077,64180,32,460,931,-9,960*71807ace
%RAWIMUSA,2283,42765.200;2283,42765.199998728,00000077,64192,-13,445,1060,8,192*27daac7e
%RAWIMUSA,2283,42765.210;2283,42765.209998728,00000077,64182,31,436,1115,7,-913*285cf944
%RAWIMUSA,2283,42765.220;2283,42765.219998728,00000077,64189,8,450,1188,-10,-703*e7140012
%RAWIMUSA,2283,42765.230;2283,42765.229998728,00000077,64190,0,457,1272,0,1015*68f81d5f
%RAWIMUSA,2283,42765.240;2283,42765.239998728,00000077,64182,26,440,1373,0,914*a42d1cac
%RAWIMUSA,2283,42765.250;2283,42765.249998728,00000077,64196,-12,434,1465,7,-676*986e0152
%RAWIMUSA,2283,42765.260;2283,42765.259998728,00000077,64181,48,452,1557,-2,-977*718a13ec
%RAWIMUSA,2283,42765.270;2283,42765.269998728,00000077,64195,-18,463,1585,-1,284*f83bb635
%RAWIMUSA,2283,42765.280;2283,42765.279998728,00000077,64185,27,449,1677,0,978*b0a629f4
%RAWIMUSA,2283,42765.290;2283,42765.289998728,00000077,64191,4,433,1797,7,229*4c6012d1
%RAWIMUSA,2283,42765.300;2283,42765.299998728,00000077,64185,14,450,1861,6,-895*6d90ff4b
%RAWIMUSA,2283,42765.310;2283,42765.309998728,00000077,64184,12,456,1953,-11,-767*d1038622
%RAWIMUSA,2283,42765.320;2283,42765.319998728,00000077,64195,-11,450,2000,-1,1024*5f05652f
%RAWIMUSA,2283,42765.330;2283,42765.329998728,00000077,64178,44,438,2083,7,933*eacb9661
%RAWIMUSA,2283,42765.340;2283,42765.339998728,00000077,64192,-16,443,2202,6,-639*342417fb
%RAWIMUSA,2283,42765.350;2283,42765.349998728,00000077,64181,34,460,2257,-2,-941*908ba521
%RAWIMUSA,2283,42765.360;2283,42765.359998728,00000077,64193,-17,458,2313,-11,201*f246c2f9
%RAWIMUSA,2283,42765.370;2283,42765.369998728,00000077,64185,24,439,2415,7,1006*d86d697a
%RAWIMUSA,2283,42765.380;2283,42765.379998728,00000077,64189,27,435,2506,6,275*1229c757
%RAWIMUSA,2283,42765.390;2283,42765.389998728,00000077,64192,-17,447,2626,5,-886*32144c05
%RAWIMUSA,2283,42765.400;2283,42765.399998728,00000077,64181,41,464,2672,-3,-812*5da6844e
%RAWIMUSA,2283,42765.410;2283,42765.409998728,00000077,64192,-18,453,2709,-11,1015*04cdc8b0
%RAWIMUSA,2283,42765.420;2283,42765.419998728,00000077,64188,37,439,2802,16,970*a89e7383
%RAWIMUSA,2283,42765.430;2283,42765.429998728,00000077,64191,-1,450,2912,5,-611*db41f939
%RAWIMUSA,2283,42765.440;2283,42765.439998728,00000077,64183,19,457,2967,-3,-904*c72c0c1d
%RAWIMUSA,2283,42765.450;2283,42765.449998728,00000077,64191,3,444,3050,-12,128*a38dcfa1
%RAWIMUSA,2283,42765.460;2283,42765.459998728,00000077,64190,7,442,3115,16,1025*801fd6c9
%RAWIMUSA,2283,42765.470;2283,42765.469998728,00000077,64183,37,450,3235,6,330*3f922790
%RAWIMUSA,2283,42765.480;2283,42765.479998728,00000077,64192,-22,452,3336,5,-885*0745bc63
%RAWIMUSA,2283,42765.490;2283,42765.489998728,00000077,64181,37,448,3373,-13,-831*9e49c0ce
%RAWIMUSA,2283,42765.500;2283,42765.499998728,00000077,64193,-16,441,3465,-2,997*37dc1bfd
%RAWIMUSA,2283,42765.510;2283,42765.509998728,00000077,64183,37,449,3548,15,1006*2febe16a
%RAWIMUSA,2283,42765.520;2283,42765.519998728,00000077,64187,5,455,3612,5,-565*9680b05d
%RAWIMUSA,2283,42765.530;2283,42765.529998728,00000077,64187,3,450,3714,-4,-885*f76c13b7
%RAWIMUSA,2283,42765.540;2283,42765.539998728,00000077,64186,25,447,3769,-12,74*a78cd950
%RAWIMUSA,2283,42765.550;2283,42765.549998728,00000077,64190,-2,449,3843,15,1034*9ba94fa7
%RAWIMUSA,2283,42765.560;2283,42765.559998728,00000077,64182,34,445,3972,14,394*71f8d497
%RAWIMUSA,2283,42765.570;2283,42765.569998728,00000077,64192,-17,449,4036,-4,-885*f0dd398a
%RAWIMUSA,2283,42765.580;2283,42765.579998728,00000077,64181,39,443,4073,-4,-876*2341fd39
%RAWIMUSA,2283,42765.590;2283,42765.589998728,00000077,64190,-1,445,4175,5,979*9931c2cc
%RAWIMUSA,2283,42765.600;2283,42765.599998728,00000077,64186,18,452,4258,5,1025*b2d6973a
%RAWIMUSA,2283,42765.610;2283,42765.609998728,00000077,64188,8,451,4359,13,-519*04332e70
%RAWIMUSA,2283,42765.620;2283,42765.619998728,00000077,64190,0,450,4442,-4,-876*3340c942
%RAWIMUSA,2283,42765.630;2283,42765.629998728,00000077,64182,40,447,4460,-13,28*fe9db8ca
%RAWIMUSA,2283,42765.640;2283,42765.639998728,00000077,64196,-23,444,4553,14,1025*49798927
%RAWIMUSA,2283,42765.650;2283,42765.649998728,00000077,64180,39,449,4691,5,467*1f196063
%RAWIMUSA,2283,42765.660;2283,42765.659998728,00000077,64191,-10,449,4755,13,-903*04dae2b5
%RAWIMUSA,2283,42765.670;2283,42765.669998728,00000077,64187,28,438,4838,-5,-912*051111f3
%RAWIMUSA,2283,42765.680;2283,42765.679998728,00000077,64189,0,445,4903,-3,979*1f27bfe0
%RAWIMUSA,2283,42765.690;2283,42765.689998728,00000077,64191,13,460,4958,14,1034*91ff6738
%RAWIMUSA,2283,42765.700;2283,42765.699998728,00000077,64181,18,457,5087,4,-473*62d4ae0c
%RAWIMUSA,2283,42765.710;2283,42765.709998728,00000077,64190,-8,448,5142,3,-867*ac283989
%RAWIMUSA,2283,42765.720;2283,42765.719998728,00000077,64182,35,435,5207,-4,-16*7b4be288
%RAWIMUSA,2283,42765.730;2283,42765.729998728,00000077,64194,-21,446,5308,4,1034*d1f6051f
%RAWIMUSA,2283,42765.740;2283,42765.739998728,00000077,64186,41,462,5391,13,531*69f16171
%RAWIMUSA,2283,42765.750;2283,42765.749998728,00000077,64188,-6,453,5492,3,-921*85bebc18
%RAWIMUSA,2283,42765.760;2283,42765.759998728,00000077,64190,18,439,5529,-5,-876*7d6dca04
%RAWIMUSA,2283,42765.770;2283,42765.769998728,00000077,64186,19,447,5585,-4,916*0bbaa9c4
%RAWIMUSA,2283,42765.780;2283,42765.779998728,00000077,64191,-16,453,5723,22,1044*13e5d482
%RAWIMUSA,2283,42765.790;2283,42765.789998728,00000077,64177,45,458,5806,3,-418*f82834a2
%RAWIMUSA,2283,42765.800;2283,42765.799998728,00000077,64194,-15,442,5861,-6,-866*93da13c0
%RAWIMUSA,2283,42765.810;2283,42765.809998728,00000077,64182,32,439,5944,-5,-34*ccf77724
%RAWIMUSA,2283,42765.820;2283,42765.819998728,00000077,64191,-9,451,6000,13,998*fbf40312
%RAWIMUSA,2283,42765.830;2283,42765.829998728,00000077,64183,18,451,6110,13,641*041abfef
%RAWIMUSA,2283,42765.840;2283,42765.839998728,00000077,64188,19,443,6220,-6,-949*9e799caf
%RAWIMUSA,2283,42765.850;2283,42765.849998728,00000077,64192,-7,446,6248,2,-848*141568af
%RAWIMUSA,2283,42765.860;2283,42765.859998728,00000077,64183,30,456,6322,3,861*a2036c59
%RAWIMUSA,2283,42765.870;2283,42765.869998728,00000077,64194,-10,451,6451,13,1053*c2baf9d2
%RAWIMUSA,2283,42765.880;2283,42765.879998728,00000077,64183,41,444,6515,2,-345*39a6cddd
%RAWIMUSA,2283,42765.890;2283,42765.889998728,00000077,64191,-18,439,6598,2,-894*859cdf16
%RAWIMUSA,2283,42765.900;2283,42765.899998728,00000077,64182,25,453,6654,2,-52*c886d6e6
%RAWIMUSA,2283,42765.910;2283,42765.909998728,00000077,64188,7,453,6728,3,980*6c8d11d3
%RAWIMUSA,2283,42765.920;2283,42765.919998728,00000077,64190,4,442,6866,21,715*67a962c4
%RAWIMUSA,2283,42765.930;2283,42765.929998728,00000077,64184,25,444,6921,-7,-948*d04257e5
%RAWIMUSA,2283,42765.940;2283,42765.939998728,00000077,64193,-12,452,6958,1,-857*5d0250e5
%RAWIMUSA,2283,42765.950;2283,42765.949998728,00000077,64180,41,459,7059,3,825*378c610c
%RAWIMUSA,2283,42765.960;2283,42765.959998728,00000077,64193,-12,449,7152,12,1044*c93829f4
%RAWIMUSA,2283,42765.970;2283,42765.969998728,00000077,64183,26,440,7253,2,-253*bc75d46e
%RAWIMUSA,2283,42765.980;2283,42765.979998728,00000077,64187,-1,447,7326,1,-921*b053f791
%RAWIMUSA,2283,42765.990;2283,42765.989998728,00000077,64185,17,455,7363,2,-80*b47117f7
%RAWIMUSA,2283,42766.000;2283,42765.999998728,00000077,64189,13,446,7428,12,971*36c53e47
%RAWIMUSA,2283,42766.010;2283,42766.009998728,00000077,64194,-9,438,7585,11,770*c61f233a
%RAWIMUSA,2283,42766.020;2283,42766.019998728,00000077,64181,45,447,7640,-7,-948*1ecc9607
%RAWIMUSA,2283,42766.030;2283,42766.029998728,00000077,64195,-19,450,7695,1,-857*68b1e885
%RAWIMUSA,2283,42766.040;2283,42766.039998728,00000077,64183,33,451,7778,2,806*7b1aee20
%RAWIMUSA,2283,42766.050;2283,42766.049998727,00000077,64188,-15,445,7889,11,1008*a83756b7
%RAWIMUSA,2283,42766.060;2283,42766.059998727,00000077,64187,19,447,7972,10,-162*e6736bf3
%RAWIMUSA,2283,42766.070;2283,42766.069998727,00000077,64184,28,455,8036,-8,-948*c70c2cf2
%RAWIMUSA,2283,42766.080;2283,42766.079998727,00000077,64194,-17,452,8091,10,-98*bf2b5da2
%RAWIMUSA,2283,42766.090;2283,42766.089998727,00000077,64180,30,445,8211,2,971*5e2cd4aa
%RAWIMUSA,2283,42766.100;2283,42766.099998727,00000077,64196,-15,440,8285,20,807*76b219a6
%RAWIMUSA,2283,42766.110;2283,42766.109998727,00000077,64181,39,445,8386,0,-902*f3d07f32
%RAWIMUSA,2283,42766.120;2283,42766.119998727,00000077,64192,-3,458,8423,-8,-902*5a185e41
%RAWIMUSA,2283,42766.130;2283,42766.129998727,00000077,64187,10,446,8469,11,807*6f0a612e
%RAWIMUSA,2283,42766.140;2283,42766.139998727,00000077,64189,20,443,8617,20,971*023c52f7
%RAWIMUSA,2283,42766.150;2283,42766.149998727,00000077,64197,-5,448,8700,0,-98*7da70f53
%RAWIMUSA,2283,42766.160;2283,42766.159998727,00000077,64179,36,452,8736,0,-920*507e6df5
%RAWIMUSA,2283,42766.170;2283,42766.169998727,00000077,64192,-27,448,8838,9,-180*7e8d3a70
%RAWIMUSA,2283,42766.180;2283,42766.179998727,00000077,64183,41,448,8921,10,1017*91d8f1b5
%RAWIMUSA,2283,42766.190;2283,42766.189998727,00000077,64190,-1,446,8995,10,825*5c42dd80
%RAWIMUSA,2283,42766.200;2283,42766.199998727,00000077,64185,7,445,9105,0,-838*9c2af081
%RAWIMUSA,2283,42766.210;2283,42766.209998727,00000077,64183,30,451,9133,-9,-948*062662f6
%RAWIMUSA,2283,42766.220;2283,42766.219998727,00000077,64196,-19,440,9216,19,779*072f2f47
%RAWIMUSA,2283,42766.230;2283,42766.229998727,00000077,64180,40,446,9354,10,990*8e172d22
%RAWIMUSA,2283,42766.240;2283,42766.239998727,00000077,64192,-16,454,9391,0,-70*52b89290
%RAWIMUSA,2283,42766.250;2283,42766.249998727,00000077,64187,23,454,9474,0,-875*199e8db9
%RAWIMUSA,2283,42766.260;2283,42766.259998727,00000077,64190,3,445,9557,0,-280*1baf665e
%RAWIMUSA,2283,42766.270;2283,42766.269998727,00000077,64187,5,445,9621,19,1081*9932d2b0
%RAWIMUSA,2283,42766.280;2283,42766.279998727,00000077,64183,21,447,9760,9,844*71729bd2
%RAWIMUSA,2283,42766.290;2283,42766.289998727,00000077,64193,-18,459,9815,0,-829*d5ab2dd1
%RAWIMUSA,2283,42766.300;2283,42766.299998727,00000077,64182,41,453,9851,0,-911*c8e9853d
%RAWIMUSA,2283,42766.310;2283,42766.309998727,00000077,64192,-19,444,9953,9,697*06b0ddf5
%RAWIMUSA,2283,42766.320;2283,42766.319998727,00000077,64187,32,449,10055,28,1045*e39d6235
%RAWIMUSA,2283,42766.330;2283,42766.329998727,00000077,64189,-2,445,10128,-9,-51*c4f85324
%RAWIMUSA,2283,42766.340;2283,42766.339998727,00000077,64184,13,439,10192,8,-829*a276114b
%RAWIMUSA,2283,42766.350;2283,42766.349998727,00000077,64186,21,446,10248,0,-353*ad42dd0a
%RAWIMUSA,2283,42766.360;2283,42766.359998727,00000077,64196,-14,451,10359,18,1091*85c05f4d
%RAWIMUSA,2283,42766.370;2283,42766.369998727,00000077,64182,42,460,10488,9,926*6d1a95c7
%RAWIMUSA,2283,42766.380;2283,42766.379998727,00000077,64194,-21,443,10506,-1,-847*4ed07792
%RAWIMUSA,2283,42766.390;2283,42766.389998727,00000077,64184,24,436,10589,-10,-883*7a13a623
%RAWIMUSA,2283,42766.400;2283,42766.399998727,00000077,64191,-7,456,10681,18,634*462c7677
%RAWIMUSA,2283,42766.410;2283,42766.409998727,00000077,64183,24,456,10773,9,1054*7a52cafa
%RAWIMUSA,2283,42766.420;2283,42766.419998727,00000077,64187,2,443,10875,-1,-5*0debb3f4
%RAWIMUSA,2283,42766.430;2283,42766.429998727,00000077,64188,6,438,10911,7,-838*c7e46017
%RAWIMUSA,2283,42766.440;2283,42766.439998727,00000077,64187,23,448,10985,7,-390*063f2c20
%RAWIMUSA,2283,42766.450;2283,42766.449998727,00000077,64191,-6,460,11105,8,1091*7b460e80
%RAWIMUSA,2283,42766.460;2283,42766.459998727,00000077,64182,34,455,11188,8,963*c7c23f26
%RAWIMUSA,2283,42766.470;2283,42766.469998727,00000077,64196,-30,429,11271,-2,-837*8ca301f9
%RAWIMUSA,2283,42766.480;2283,42766.479998727,00000077,64181,36,439,11326,7,-874*915a71cc
%RAWIMUSA,2283,42766.490;2283,42766.489998727,00000077,64188,-4,465,11382,8,570*17631f3b
%RAWIMUSA,2283,42766.500;2283,42766.499998727,00000077,64187,7,459,11511,26,1091*b3955665
%RAWIMUSA,2283,42766.510;2283,42766.509998727,00000077,64180,17,436,11593,-10,30*d83b638c
%RAWIMUSA,2283,42766.520;2283,42766.519998727,00000077,64195,-12,435,11630,6,-801*a9115c8e
%RAWIMUSA,2283,42766.530;2283,42766.529998727,00000077,64179,38,454,11732,7,-444*7b59b695
%RAWIMUSA,2283,42766.540;2283,42766.539998727,00000077,64195,-12,464,11815,17,1073*9f6c10b5
%RAWIMUSA,2283,42766.550;2283,42766.549998727,00000077,64186,35,445,11870,17,1064*fa04f0e9
%RAWIMUSA,2283,42766.560;2283,42766.559998727,00000077,64189,-16,425,11980,-2,-874*a64911af
%RAWIMUSA,2283,42766.570;2283,42766.569998727,00000077,64187,-1,447,12036,6,-810*bed1e598
%RAWIMUSA,2283,42766.580;2283,42766.579998727,00000077,64182,41,465,12128,7,488*557323d7
%RAWIMUSA,2283,42766.590;2283,42766.589998727,00000077,64196,-23,446,12257,16,1091*23621159
%RAWIMUSA,2283,42766.600;2283,42766.599998727,00000077,64181,36,444,12303,6,131*ab3a55eb
%RAWIMUSA,2283,42766.610;2283,42766.609998727,00000077,64190,-18,448,12358,-3,-855*8dc7a94c
%RAWIMUSA,2283,42766.620;2283,42766.619998727,00000077,64182,27,461,12450,15,-417*b94e85e0
%RAWIMUSA,2283,42766.630;2283,42766.629998727,00000077,64188,8,449,12525,7,1018*1a13de4f
%RAWIMUSA,2283,42766.640;2283,42766.639998727,00000077,64189,-6,432,12644,7,1100*e559d4d2
%RAWIMUSA,2283,42766.650;2283,42766.649998727,00000077,64183,32,438,12699,5,-837*b9d773ae
%RAWIMUSA,2283,42766.660;2283,42766.659998727,00000077,64195,-23,457,12754,5,-810*22566ee7
%RAWIMUSA,2283,42766.670;2283,42766.669998727,00000077,64184,38,449,12838,15,479*5c4c5791
%RAWIMUSA,2283,42766.680;2283,42766.679998727,00000077,64192,-15,442,12948,7,1055*c0f98e07
%RAWIMUSA,2283,42766.690;2283,42766.689998727,00000077,64191,21,447,13022,6,232*5a491a67
%RAWIMUSA,2283,42766.700;2283,42766.699998727,00000077,64191,10,453,13095,-3,-892*51be49c2
%RAWIMUSA,2283,42766.710;2283,42766.709998727,00000077,64192,-21,457,13160,14,-416*337d697f
%RAWIMUSA,2283,42766.720;2283,42766.719998727,00000077,64178,38,439,13280,15,1009*c7bbfa13
%RAWIMUSA,2283,42766.730;2283,42766.729998727,00000077,64191,-16,436,13372,6,1091*23541ba0
%RAWIMUSA,2283,42766.740;2283,42766.739998727,00000077,64181,37,453,13418,5,-727*73ccd38c
%RAWIMUSA,2283,42766.750;2283,42766.749998727,00000077,64189,-9,458,13492,5,-864*1ff87a62
%RAWIMUSA,2283,42766.760;2283,42766.759998727,00000077,64187,11,445,13575,15,479*b31e63e3
%RAWIMUSA,2283,42766.770;2283,42766.769998727,00000077,64185,24,439,13667,15,1028*884a1acc
%RAWIMUSA,2283,42766.780;2283,42766.779998727,00000077,64195,-14,448,13769,5,305*6e8e878f
%RAWIMUSA,2283,42766.790;2283,42766.789998727,00000077,64180,27,458,13814,-4,-892*599c1436
%RAWIMUSA,2283,42766.800;2283,42766.799998727,00000077,64195,-28,441,13879,23,-489*c5913190
%RAWIMUSA,2283,42766.810;2283,42766.809998727,00000077,64179,36,439,14018,15,1046*739ef3af
%RAWIMUSA,2283,42766.820;2283,42766.819998727,00000077,64190,-9,451,14082,5,1064*f52f2022
%RAWIMUSA,2283,42766.830;2283,42766.829998727,00000077,64184,10,453,14146,4,-654*ea6421c9
%RAWIMUSA,2283,42766.840;2283,42766.839998727,00000077,64186,8,449,14211,4,-873*4fb5a4f0
%RAWIMUSA,2283,42766.850;2283,42766.849998727,00000077,64190,8,445,14257,14,452*d814b294
%RAWIMUSA,2283,42766.860;2283,42766.859998727,00000077,64183,23,441,14395,14,1019*e1e37806
%RAWIMUSA,2283,42766.870;2283,42766.869998727,00000077,64188,-12,449,14487,5,351*794885e5
%RAWIMUSA,2283,42766.880;2283,42766.879998727,00000077,64185,27,453,14524,4,-873*cd116784
%RAWIMUSA,2283,42766.890;2283,42766.889998727,00000077,64196,-20,442,14625,13,-553*8dc5bb2d
%RAWIMUSA,2283,42766.900;2283,42766.899998727,00000077,64183,32,444,14727,23,1055*0383ce5b
%RAWIMUSA,2283,42766.910;2283,42766.909998727,00000077,64188,-14,451,14801,-3,1064*e4d00881
%RAWIMUSA,2283,42766.920;2283,42766.919998727,00000077,64188,16,452,14874,3,-590*bdad4d7c
%RAWIMUSA,2283,42766.930;2283,42766.929998727,00000077,64182,13,452,14929,12,-891*b61bb9a2
%RAWIMUSA,2283,42766.940;2283,42766.939998727,00000077,64193,-11,446,15022,22,415*af2f2c8e
%RAWIMUSA,2283,42766.950;2283,42766.949998727,00000077,64181,34,449,15151,4,1028*988cd068
%RAWIMUSA,2283,42766.960;2283,42766.959998727,00000077,64191,-19,444,15197,4,406*54ba4698
%RAWIMUSA,2283,42766.970;2283,42766.969998727,00000077,64184,35,433,15252,3,-836*3aa0ef7c
%RAWIMUSA,2283,42766.980;2283,42766.979998727,00000077,64192,-13,447,15344,21,-635*8b1830e1
%RAWIMUSA,2283,42766.990;2283,42766.989998727,00000077,64188,2,450,15428,23,1119*196df2c0
%RAWIMUSA,2283,42767.000;2283,42766.999998727,00000077,64190,15,446,15538,-4,1019*a472ece6
%RAWIMUSA,2283,42767.010;2283,42767.009998727,00000077,64191,-8,447,15621,3,-498*baf28242
%RAWIMUSA,2283,42767.020;2283,42767.019998727,00000077,64179,34,449,15648,21,-873*3859e1e5
%RAWIMUSA,2283,42767.030;2283,42767.029998727,00000077,64190,-35,445,15759,13,324*09396172
%RAWIMUSA,2283,42767.040;2283,42767.039998727,00000077,64185,32,449,15842,13,1092*88ce5054
%RAWIMUSA,2283,42767.050;2283,42767.049998727,00000077,64187,6,446,15925,3,397*16fdca24
%RAWIMUSA,2283,42767.060;2283,42767.059998727,00000077,64189,-2,439,15999,2,-781*6c5849f3
%RAWIMUSA,2283,42767.070;2283,42767.069998727,00000077,64188,18,449,16045,21,-717*86ac5e5a
%RAWIMUSA,2283,42767.080;2283,42767.079998727,00000077,64195,-23,454,16165,13,1129*dd4c6cb0
%RAWIMUSA,2283,42767.090;2283,42767.089998727,00000077,64183,49,456,16220,3,1047*456ae3d5
%RAWIMUSA,2283,42767.100;2283,42767.099998727,00000077,64193,-10,453,16192,2,-489*1652583f
%RAWIMUSA,2283,42767.110;2283,42767.109998727,00000077,64182,34,459,16118,21,-818*e1b7c237
%RAWIMUSA,2283,42767.120;2283,42767.119998727,00000077,64186,1,459,16091,12,233*779c45d8
%RAWIMUSA,2283,42767.130;2283,42767.129998727,00000077,64186,10,453,16073,13,1120*7d7aaefc
%RAWIMUSA,2283,42767.140;2283,42767.139998727,00000077,64183,30,446,16073,3,425*3f0f2d2d
%RAWIMUSA,2283,42767.150;2283,42767.149998727,00000077,64193,-9,446,16035,11,-781*296628b8
%RAWIMUSA,2283,42767.160;2283,42767.159998727,00000077,64183,40,456,16045,11,-763*d9e9e95b
%RAWIMUSA,2283,42767.170;2283,42767.169998727,00000077,64192,-21,459,16073,22,1101*e05258ac
%RAWIMUSA,2283,42767.180;2283,42767.179998727,00000077,64187,42,449,16100,4,1083*64929a8d
%RAWIMUSA,2283,42767.190;2283,42767.189998727,00000077,64190,3,448,16072,2,-470*5713570e
%RAWIMUSA,2283,42767.200;2283,42767.199998727,00000077,64186,3,453,16054,21,-790*d400ebab
%RAWIMUSA,2283,42767.210;2283,42767.209998727,00000077,64182,30,459,16082,12,160*9873301f
%RAWIMUSA,2283,42767.220;2283,42767.219998727,00000077,64194,-14,450,16091,13,1129*91ddd0d7
%RAWIMUSA,2283,42767.230;2283,42767.229998727,00000077,64180,43,449,16091,-5,507*eeaad9da
%RAWIMUSA,2283,42767.240;2283,42767.239998727,00000077,64194,-18,448,16063,11,-818*84d38463
%RAWIMUSA,2283,42767.250;2283,42767.249998727,00000077,64184,35,457,16063,21,-763*b63049c4
%RAWIMUSA,2283,42767.260;2283,42767.259998727,00000077,64191,11,457,16091,13,1056*338a88bc
%RAWIMUSA,2283,42767.270;2283,42767.269998727,00000077,64191,5,445,16100,4,1129*75bb73bd
%RAWIMUSA,2283,42767.280;2283,42767.279998727,00000077,64183,29,451,16072,2,-443*f7c28840
%RAWIMUSA,2283,42767.290;2283,42767.289998727,00000077,64196,-13,454,16063,21,-790*40e25777
%RAWIMUSA,2283,42767.300;2283,42767.299998727,00000077,64183,44,453,16072,12,132*e95c2e6d
%RAWIMUSA,2283,42767.310;2283,42767.309998727,00000077,64190,-21,451,16100,4,1092*91d9669b
%RAWIMUSA,2283,42767.320;2283,42767.319998727,00000077,64184,24,452,16091,3,598*d0604d3f
%RAWIMUSA,2283,42767.330;2283,42767.329998727,00000077,64187,10,457,16054,11,-854*42cb7f50
%RAWIMUSA,2283,42767.340;2283,42767.339998727,00000077,64186,12,453,16063,21,-781*34b05e5e
%RAWIMUSA,2283,42767.350;2283,42767.349998727,00000077,64183,24,450,16091,13,1028*dccb4ff0
%RAWIMUSA,2283,42767.360;2283,42767.359998727,00000077,64193,-8,449,16100,13,1129*2eeb6420
%RAWIMUSA,2283,42767.370;2283,42767.369998727,00000077,64181,40,454,16082,2,-388*03132ef5
%RAWIMUSA,2283,42767.380;2283,42767.379998727,00000077,64197,-13,451,16072,11,-800*f3e8465e
%RAWIMUSA,2283,42767.390;2283,42767.389998727,00000077,64183,37,450,16082,21,96*3fa5ef5e
%RAWIMUSA,2283,42767.400;2283,42767.399998727,00000077,64189,-10,448,16100,4,1074*58750978
%RAWIMUSA,2283,42767.410;2283,42767.409998727,00000077,64183,16,455,16100,3,662*104df35f
%RAWIMUSA,2283,42767.420;2283,42767.419998727,00000077,64185,21,452,16063,11,-873*d6cedf7d
%RAWIMUSA,2283,42767.430;2283,42767.429998727,00000077,64192,4,445,16072,21,-781*63ae98b6
%RAWIMUSA,2283,42767.440;2283,42767.439998727,00000077,64180,27,451,16100,4,983*00bf5490
%RAWIMUSA,2283,42767.450;2283,42767.449998727,00000077,64191,-12,449,16110,13,1120*a624f297
%RAWIMUSA,2283,42767.460;2283,42767.459998727,00000077,64181,45,457,16082,3,-333*b44c1b09
%RAWIMUSA,2283,42767.470;2283,42767.469998727,00000077,64196,-10,448,16081,11,-818*9899b3bd
%RAWIMUSA,2283,42767.480;2283,42767.479998727,00000077,64187,30,442,16091,30,59*094cb0f9
%RAWIMUSA,2283,42767.490;2283,42767.489998727,00000077,64188,-4,450,16110,-5,1056*beaf5afa
%RAWIMUSA,2283,42767.500;2283,42767.499998727,00000077,64185,9,455,16100,13,736*69157638
%RAWIMUSA,2283,42767.510;2283,42767.509998727,00000077,64183,29,454,16072,11,-882*7ffb8f1c
%RAWIMUSA,2283,42767.520;2283,42767.519998727,00000077,64192,-6,449,16072,21,-772*52d0d841
%RAWIMUSA,2283,42767.530;2283,42767.529998727,00000077,64180,40,455,16110,3,946*ab04db7f
%RAWIMUSA,2283,42767.540;2283,42767.539998727,00000077,64192,-18,454,16110,13,1111*b74fdd53
%RAWIMUSA,2283,42767.550;2283,42767.549998727,00000077,64182,43,452,16072,3,-251*f89cf393
%RAWIMUSA,2283,42767.560;2283,42767.559998727,00000077,64188,-3,442,16081,11,-836*f91c3da9
%RAWIMUSA,2283,42767.570;2283,42767.569998727,00000077,64186,15,449,16091,21,32*1c235252
%RAWIMUSA,2283,42767.580;2283,42767.579998727,00000077,64186,13,449,16110,4,1047*40d24d13
%RAWIMUSA,2283,42767.590;2283,42767.589998727,00000077,64191,-5,455,16091,3,800*f909c958
%RAWIMUSA,2283,42767.600;2283,42767.599998727,00000077,64183,42,449,16072,11,-882*4e18076a
%RAWIMUSA,2283,42767.610;2283,42767.609998727,00000077,64195,-21,445,16081,21,-781*507616c0
%RAWIMUSA,2283,42767.620;2283,42767.619998727,00000077,64182,39,453,16100,3,909*4f227633
%RAWIMUSA,2283,42767.630;2283,42767.629998727,00000077,64189,-6,456,16119,4,1074*f8d1f5f6
%RAWIMUSA,2283,42767.640;2283,42767.639998727,00000077,64183,22,452,16082,12,-150*06a37a98
%RAWIMUSA,2283,42767.650;2283,42767.649998727,00000077,64189,15,449,16072,21,-873*59b6f320
%RAWIMUSA,2283,42767.660;2283,42767.659998727,00000077,64192,-2,446,16100,21,-4*5d217a60
%RAWIMUSA,2283,42767.670;2283,42767.669998727,00000077,64182,35,454,16110,-5,1028*d1f52b35
%RAWIMUSA,2283,42767.680;2283,42767.679998727,00000077,64195,-15,448,16100,3,836*5fbd4151
%RAWIMUSA,2283,42767.690;2283,42767.689998727,00000077,64184,36,448,16072,21,-845*1902e98d
%RAWIMUSA,2283,42767.700;2283,42767.699998727,00000077,64191,-12,448,16072,21,-827*78e3d9ad
%RAWIMUSA,2283,42767.710;2283,42767.709998727,00000077,64187,28,451,16110,3,891*fb633c3d
%RAWIMUSA,2283,42767.720;2283,42767.719998727,00000077,64186,12,454,16110,4,1047*c0757241
%RAWIMUSA,2283,42767.730;2283,42767.729998727,00000077,64189,-13,452,16072,12,-77*98723faf
%RAWIMUSA,2283,42767.740;2283,42767.739998727,00000077,64184,41,449,16081,20,-891*cc180d4e
%RAWIMUSA,2283,42767.750;2283,42767.749998727,00000077,64193,-8,450,16100,12,-68*81b79fd2
%RAWIMUSA,2283,42767.760;2283,42767.759998727,00000077,64183,43,449,16100,13,1065*156a2d5c
%RAWIMUSA,2283,42767.770;2283,42767.769998727,00000077,64192,-10,443,16100,-5,845*4bd505c4
%RAWIMUSA,2283,42767.780;2283,42767.779998727,00000077,64183,26,451,16072,21,-809*f09d2c17
%RAWIMUSA,2283,42767.790;2283,42767.789998727,00000077,64190,12,450,16081,11,-873*cef29bc1
