%RAWIMUSA,2283,36353.660;2283,36353.660000233,00000077,475,-179,-64245,37,9,475*65171f26
%RAWIMUSA,2283,36353.670;2283,36353.670000233,00000077,474,-117,-64234,-36,-9,-932*9eb52976
%RAWIMUSA,2283,36353.680;2283,36353.680000233,00000077,470,-166,-64243,18,-9,-932*08ffe7d3
%RAWIMUSA,2283,36353.690;2283,36353.690000233,00000077,467,-118,-64235,-8,0,887*d4e7e192
%RAWIMUSA,2283,36353.700;2283,36353.700000233,00000077,474,-170,-64243,55,18,905*cac82fbf
%RAWIMUSA,2283,36353.710;2283,36353.710000233,00000077,477,-125,-64236,-27,0,-420*9ac7eed0
%RAWIMUSA,2283,36353.720;2283,36353.720000233,00000077,472,-159,-64240,9,-19,-923*3360bdec
%RAWIMUSA,2283,36353.730;2283,36353.730000233,00000077,463,-134,-64234,-9,0,-63*bb726c6c
%RAWIMUSA,2283,36353.740;2283,36353.740000233,00000077,473,-152,-64240,46,9,923*d46c63c8
%RAWIMUSA,2283,36353.750;2283,36353.750000233,00000077,480,-145,-64242,-8,9,521*3d6d9008
%RAWIMUSA,2283,36353.760;2283,36353.760000233,00000077,474,-132,-64239,9,-9,-923*a5d42ef8
%RAWIMUSA,2283,36353.770;2283,36353.770000233,00000077,465,-154,-64239,-18,-9,-923*8670ea34
%RAWIMUSA,2283,36353.780;2283,36353.780000233,00000077,472,-131,-64238,28,9,832*1ad35b38
%RAWIMUSA,2283,36353.790;2283,36353.790000233,00000077,479,-160,-64240,18,9,932*f58614f5
%RAWIMUSA,2283,36353.800;2283,36353.800000233,00000077,469,-123,-64235,0,-9,-374*86eff238
%RAWIMUSA,2283,36353.810;2283,36353.810000233,00000077,465,-166,-64239,-9,-9,-923*f31327f7
%RAWIMUSA,2283,36353.820;2283,36353.820000233,00000077,474,-125,-64238,0,9,-109*fe565bd7
%RAWIMUSA,2283,36353.830;2283,36353.830000233,00000077,477,-165,-64239,28,0,923*d924f76f
%RAWIMUSA,2283,36353.840;2283,36353.840000233,00000077,471,-123,-64237,0,0,585*6d5a5e39
%RAWIMUSA,2283,36353.850;2283,36353.850000233,00000077,473,-168,-64248,9,0,-914*6041ff93
%RAWIMUSA,2283,36353.860;2283,36353.860000233,00000077,469,-121,-64229,-36,0,-923*7b3d7738
%RAWIMUSA,2283,36353.870;2283,36353.870000233,00000077,467,-164,-64238,46,9,777*4a29e0d0
%RAWIMUSA,2283,36353.880;2283,36353.880000233,00000077,478,-126,-64233,0,0,923*4b69effe
%RAWIMUSA,2283,36353.890;2283,36353.890000233,00000077,475,-163,-64242,18,-9,-310*871b8cc4
%RAWIMUSA,2283,36353.900;2283,36353.900000233,00000077,465,-128,-64237,-36,-9,-923*d3e56218
%RAWIMUSA,2283,36353.910;2283,36353.910000233,00000077,473,-154,-64246,36,18,-173*a5826f10
%RAWIMUSA,2283,36353.920;2283,36353.920000233,00000077,478,-138,-64236,0,9,923*e3fda1bb
%RAWIMUSA,2283,36353.930;2283,36353.930000233,00000077,472,-147,-64240,27,-8,621*a0299833
%RAWIMUSA,2283,36353.940;2283,36353.940000233,00000077,467,-147,-64238,-27,-19,-914*d5e2f4ac
%RAWIMUSA,2283,36353.950;2283,36353.950000233,00000077,474,-127,-64235,0,8,-932*31ea1caa
%RAWIMUSA,2283,36353.960;2283,36353.960000233,00000077,477,-160,-64241,18,9,740*6ead0f39
%RAWIMUSA,2283,36353.970;2283,36353.970000233,00000077,469,-129,-64235,18,0,923*05ec9082
%RAWIMUSA,2283,36353.980;2283,36353.980000233,00000077,467,-167,-64240,0,-9,-265*ce8ec17e
%RAWIMUSA,2283,36353.990;2283,36353.990000233,00000077,473,-118,-64236,-18,-9,-932*ce0a656e
%RAWIMUSA,2283,36354.000;2283,36354.000000233,00000077,473,-167,-64243,18,8,-201*50ecc21b
%RAWIMUSA,2283,36354.010;2283,36354.010000233,00000077,474,-125,-64239,9,19,914*21478aeb
%RAWIMUSA,2283,36354.020;2283,36354.020000233,00000077,470,-164,-64241,27,0,685*fdb2c6b2
%RAWIMUSA,2283,36354.030;2283,36354.030000233,00000077,472,-122,-64231,-27,-19,-932*61ebbad8
%RAWIMUSA,2283,36354.040;2283,36354.040000233,00000077,471,-169,-64241,9,0,-914*273f3d58
%RAWIMUSA,2283,36354.050;2283,36354.050000233,00000077,477,-122,-64235,0,18,695*3fe224bd
%RAWIMUSA,2283,36354.060;2283,36354.060000233,00000077,472,-165,-64239,46,0,923*9dbec95c
%RAWIMUSA,2283,36354.070;2283,36354.070000233,00000077,466,-132,-64234,-18,-9,-219*97604433
%RAWIMUSA,2283,36354.080;2283,36354.080000233,00000077,472,-151,-64237,0,-9,-923*9e9f5c62
%RAWIMUSA,2283,36354.090;2283,36354.090000233,00000077,476,-142,-64240,0,18,-255*32855ca3
%RAWIMUSA,2283,36354.100;2283,36354.100000233,00000077,476,-144,-64241,37,9,923*f67ecde1
%RAWIMUSA,2283,36354.110;2283,36354.110000233,00000077,469,-145,-64240,-8,-17,722*0c52044f
%RAWIMUSA,2283,36354.120;2283,36354.120000233,00000077,467,-142,-64236,9,-9,-932*8caa4377
%RAWIMUSA,2283,36354.130;2283,36354.130000233,00000077,474,-151,-64239,-18,8,-914*cb9ceb30
%RAWIMUSA,2283,36354.140;2283,36354.140000233,00000077,477,-134,-64236,37,9,631*bc08ea04
%RAWIMUSA,2283,36354.150;2283,36354.150000233,00000077,475,-158,-64239,9,0,914*64fe255d
%RAWIMUSA,2283,36354.160;2283,36354.160000233,00000077,469,-137,-64236,0,-9,-164*ceeacbb4
%RAWIMUSA,2283,36354.170;2283,36354.170000233,00000077,468,-151,-64239,-18,-9,-923*0ba110c0
%RAWIMUSA,2283,36354.180;2283,36354.180000233,00000077,472,-128,-64239,18,18,-310*928b76ed
%RAWIMUSA,2283,36354.190;2283,36354.190000233,00000077,479,-160,-64240,9,9,914*912b20e6
%RAWIMUSA,2283,36354.200;2283,36354.200000233,00000077,463,-133,-64233,18,-8,777*c8955b3f
%RAWIMUSA,2283,36354.210;2283,36354.210000233,00000077,465,-159,-64245,-18,-9,-923*b1d13734
%RAWIMUSA,2283,36354.220;2283,36354.220000233,00000077,481,-125,-64236,0,0,-923*964e8358
%RAWIMUSA,2283,36354.230;2283,36354.230000233,00000077,483,-163,-64241,18,9,576*59628e3c
%RAWIMUSA,2283,36354.240;2283,36354.240000233,00000077,467,-120,-64234,18,0,914*59d48eae
%RAWIMUSA,2283,36354.250;2283,36354.250000233,00000077,460,-166,-64242,0,-9,-118*d59f54f1
%RAWIMUSA,2283,36354.260;2283,36354.260000233,00000077,474,-126,-64235,-18,0,-923*12bde9bf
%RAWIMUSA,2283,36354.270;2283,36354.270000233,00000077,487,-168,-64242,27,8,-365*93eaa116
%RAWIMUSA,2283,36354.280;2283,36354.280000233,00000077,469,-118,-64233,0,0,923*c7541ff5
%RAWIMUSA,2283,36354.290;2283,36354.290000233,00000077,455,-166,-64244,28,0,832*2e5e000b
%RAWIMUSA,2283,36354.300;2283,36354.300000233,00000077,477,-127,-64236,-36,0,-923*e8cf0563
%RAWIMUSA,2283,36354.310;2283,36354.310000233,00000077,486,-169,-64238,27,0,-923*72a90141
%RAWIMUSA,2283,36354.320;2283,36354.320000233,00000077,466,-121,-64234,-8,0,539*898ee0c4
%RAWIMUSA,2283,36354.330;2283,36354.330000233,00000077,460,-162,-64241,55,0,923*eb91d4ee
%RAWIMUSA,2283,36354.340;2283,36354.340000233,00000077,474,-125,-64232,-36,-9,-82*28b1dcaa
%RAWIMUSA,2283,36354.350;2283,36354.350000233,00000077,484,-173,-64244,9,0,-923*3b4628be
%RAWIMUSA,2283,36354.360;2283,36354.360000233,00000077,472,-114,-64236,-9,8,-411*1c7696e6
%RAWIMUSA,2283,36354.370;2283,36354.370000233,00000077,460,-165,-64241,55,0,914*f5943e2e
%RAWIMUSA,2283,36354.380;2283,36354.380000233,00000077,471,-128,-64232,-27,0,877*2cc38d14
%RAWIMUSA,2283,36354.390;2283,36354.390000233,00000077,483,-164,-64244,18,-9,-923*f97352f8
%RAWIMUSA,2283,36354.400;2283,36354.400000233,00000077,470,-120,-64234,-27,8,-914*38b00118
%RAWIMUSA,2283,36354.410;2283,36354.410000233,00000077,456,-161,-64240,55,0,475*46680087
%RAWIMUSA,2283,36354.420;2283,36354.420000233,00000077,480,-132,-64234,-8,0,914*ce776f3e
%RAWIMUSA,2283,36354.430;2283,36354.430000233,00000077,485,-162,-64241,9,0,-27*8d936b97
%RAWIMUSA,2283,36354.440;2283,36354.440000233,00000077,471,-121,-64237,-36,0,-932*23df979d
%RAWIMUSA,2283,36354.450;2283,36354.450000233,00000077,456,-170,-64242,46,0,-447*331035f9
%RAWIMUSA,2283,36354.460;2283,36354.460000233,00000077,477,-124,-64232,0,9,923*5fa57106
%RAWIMUSA,2283,36354.470;2283,36354.470000233,00000077,483,-172,-64245,28,-8,914*bdf52fde
%RAWIMUSA,2283,36354.480;2283,36354.480000233,00000077,467,-114,-64235,-36,-9,-914*003c1fc1
%RAWIMUSA,2283,36354.490;2283,36354.490000233,00000077,460,-171,-64243,18,0,-932*99020f0c
%RAWIMUSA,2283,36354.500;2283,36354.500000233,00000077,480,-123,-64236,0,18,438*cfbaebc5
%RAWIMUSA,2283,36354.510;2283,36354.510000233,00000077,483,-164,-64243,37,0,932*271a8a9b
%RAWIMUSA,2283,36354.520;2283,36354.520000233,00000077,465,-119,-64230,-27,-18,36*82005960
%RAWIMUSA,2283,36354.530;2283,36354.530000233,00000077,459,-173,-64243,9,0,-932*d1a9077f
%RAWIMUSA,2283,36354.540;2283,36354.540000233,00000077,480,-115,-64234,0,17,-502*f110e763
%RAWIMUSA,2283,36354.550;2283,36354.550000233,00000077,483,-174,-64244,37,0,914*7a1fb05f
%RAWIMUSA,2283,36354.560;2283,36354.560000233,00000077,464,-113,-64233,-8,-17,923*9a74fa44
%RAWIMUSA,2283,36354.570;2283,36354.570000233,00000077,464,-178,-64243,0,0,-868*e8fdc734
%RAWIMUSA,2283,36354.580;2283,36354.580000233,00000077,473,-117,-64235,-9,8,-923*2bee31f6
%RAWIMUSA,2283,36354.590;2283,36354.590000233,00000077,484,-163,-64243,27,9,384*6826f4c0
%RAWIMUSA,2283,36354.600;2283,36354.600000233,00000077,468,-120,-64236,18,-8,923*549f3d07
%RAWIMUSA,2283,36354.610;2283,36354.610000233,00000077,464,-175,-64239,-18,-9,91*c5809954
%RAWIMUSA,2283,36354.620;2283,36354.620000233,00000077,476,-122,-64238,-9,8,-932*e247ae0a
%RAWIMUSA,2283,36354.630;2283,36354.630000233,00000077,482,-157,-64239,18,8,-557*cae4d3c2
%RAWIMUSA,2283,36354.640;2283,36354.640000233,00000077,470,-125,-64237,28,0,914*013beff6
%RAWIMUSA,2283,36354.650;2283,36354.650000233,00000077,460,-168,-64243,0,-8,923*85cc73e1
%RAWIMUSA,2283,36354.660;2283,36354.660000233,00000077,478,-125,-64234,-9,0,-813*7bf3581b
%RAWIMUSA,2283,36354.670;2283,36354.670000233,00000077,475,-154,-64239,0,8,-923*c22130d6
%RAWIMUSA,2283,36354.680;2283,36354.680000233,00000077,469,-139,-64237,27,9,320*d3f56eba
%RAWIMUSA,2283,36354.690;2283,36354.690000233,00000077,471,-153,-64239,9,-8,914*85979bf0
%RAWIMUSA,2283,36354.700;2283,36354.700000233,00000077,472,-144,-64233,0,-9,128*1220186d
%RAWIMUSA,2283,36354.710;2283,36354.710000233,00000077,469,-135,-64241,-27,8,-932*53d11e5a
%RAWIMUSA,2283,36354.720;2283,36354.720000233,00000077,480,-150,-64231,36,0,-603*9d5c192d
%RAWIMUSA,2283,36354.730;2283,36354.730000233,00000077,464,-142,-64237,0,0,914*b156d764
%RAWIMUSA,2283,36354.740;2283,36354.740000233,00000077,472,-150,-64240,18,-8,923*9ab1b85b
%RAWIMUSA,2283,36354.750;2283,36354.750000233,00000077,468,-128,-64235,-27,0,-767*c3fcb283
%RAWIMUSA,2283,36354.760;2283,36354.760000232,00000077,475,-152,-64244,18,8,-923*a91bdbbe
%RAWIMUSA,2283,36354.770;2283,36354.770000232,00000077,478,-133,-64235,9,9,283*ae68cdf0
%RAWIMUSA,2283,36354.780;2283,36354.780000232,00000077,464,-166,-64240,28,-8,905*7528942d
%RAWIMUSA,2283,36354.790;2283,36354.790000232,00000077,471,-124,-64237,-9,-9,182*09f433d5
%RAWIMUSA,2283,36354.800;2283,36354.800000232,00000077,474,-148,-64237,-18,8,-932*920a94f1
%RAWIMUSA,2283,36354.810;2283,36354.810000232,00000077,474,-160,-64241,36,8,-667*f24db26d
%RAWIMUSA,2283,36354.820;2283,36354.820000232,00000077,471,-125,-64235,9,0,923*f860082a
%RAWIMUSA,2283,36354.830;2283,36354.830000232,00000077,460,-153,-64238,0,-8,923*a55164ab
%RAWIMUSA,2283,36354.840;2283,36354.840000232,00000077,485,-144,-64237,0,0,-713*145da78f
%RAWIMUSA,2283,36354.850;2283,36354.850000232,00000077,480,-147,-64234,-9,0,-932*e132fa1a
%RAWIMUSA,2283,36354.860;2283,36354.860000232,00000077,452,-153,-64239,27,9,237*e388d6ac
%RAWIMUSA,2283,36354.870;2283,36354.870000232,00000077,466,-128,-64239,18,0,923*430f3ba7
%RAWIMUSA,2283,36354.880;2283,36354.880000232,00000077,489,-144,-64236,-18,-18,228*ab39c6e8
%RAWIMUSA,2283,36354.890;2283,36354.890000232,00000077,471,-161,-64237,0,8,-941*44b2f3f0
%RAWIMUSA,2283,36354.900;2283,36354.900000232,00000077,456,-137,-64239,18,8,-703*f226d578
%RAWIMUSA,2283,36354.910;2283,36354.910000232,00000077,469,-142,-64239,18,0,914*38d1848d
%RAWIMUSA,2283,36354.920;2283,36354.920000232,00000077,491,-150,-64240,0,0,914*58105ef8
%RAWIMUSA,2283,36354.930;2283,36354.930000232,00000077,472,-140,-64237,-18,-9,-667*db1e243a
%RAWIMUSA,2283,36354.940;2283,36354.940000232,00000077,457,-148,-64238,9,8,-923*1af34b55
%RAWIMUSA,2283,36354.950;2283,36354.950000232,00000077,467,-133,-64238,27,9,192*ab896901
%RAWIMUSA,2283,36354.960;2283,36354.960000232,00000077,489,-151,-64238,9,-8,914*a7eaa5b2
%RAWIMUSA,2283,36354.970;2283,36354.970000232,00000077,474,-154,-64240,-8,-9,274*4197b9a8
%RAWIMUSA,2283,36354.980;2283,36354.980000232,00000077,458,-134,-64235,-9,8,-923*2f989eb2
%RAWIMUSA,2283,36354.990;2283,36354.990000232,00000077,464,-140,-64244,18,8,-749*b478942c
%RAWIMUSA,2283,36355.000;2283,36355.000000232,00000077,496,-151,-64237,28,-8,914*7582964f
%RAWIMUSA,2283,36355.010;2283,36355.010000232,00000077,478,-143,-64240,-8,0,923*7269897c
%RAWIMUSA,2283,36355.020;2283,36355.020000232,00000077,448,-142,-64236,-18,0,-621*3824d85a
%RAWIMUSA,2283,36355.030;2283,36355.030000232,00000077,468,-141,-64237,18,8,-932*26641947
%RAWIMUSA,2283,36355.040;2283,36355.040000232,00000077,493,-148,-64238,18,0,137*997bf4e8
%RAWIMUSA,2283,36355.050;2283,36355.050000232,00000077,475,-148,-64239,9,-8,914*4edcfb0c
%RAWIMUSA,2283,36355.060;2283,36355.060000232,00000077,449,-134,-64237,-18,-8,329*1259a124
%RAWIMUSA,2283,36355.070;2283,36355.070000232,00000077,470,-142,-64238,0,17,-914*2a5550bc
%RAWIMUSA,2283,36355.080;2283,36355.080000232,00000077,493,-154,-64237,18,8,-813*bc1c71f1
%RAWIMUSA,2283,36355.090;2283,36355.090000232,00000077,473,-139,-64238,18,-8,905*a10aed05
%RAWIMUSA,2283,36355.100;2283,36355.100000232,00000077,451,-142,-64239,0,-8,914*ed11809e
%RAWIMUSA,2283,36355.110;2283,36355.110000232,00000077,467,-144,-64235,-9,8,-575*c173cd92
%RAWIMUSA,2283,36355.120;2283,36355.120000232,00000077,494,-149,-64236,0,0,-923*6d76f02b
%RAWIMUSA,2283,36355.130;2283,36355.130000232,00000077,475,-147,-64239,27,9,82*d145e01d
%RAWIMUSA,2283,36355.140;2283,36355.140000232,00000077,451,-139,-64241,9,-8,914*17c88057
%RAWIMUSA,2283,36355.150;2283,36355.150000232,00000077,463,-142,-64238,-18,0,384*0219d6cb
%RAWIMUSA,2283,36355.160;2283,36355.160000232,00000077,488,-147,-64238,0,8,-923*2b87b55c
%RAWIMUSA,2283,36355.170;2283,36355.170000232,00000077,480,-142,-64239,18,0,-868*f819efd9
%RAWIMUSA,2283,36355.180;2283,36355.180000232,00000077,459,-141,-64237,28,-8,923*f7e15fcd
%RAWIMUSA,2283,36355.190;2283,36355.190000232,00000077,463,-144,-64240,-8,0,914*3de30c3c
%RAWIMUSA,2283,36355.200;2283,36355.200000232,00000077,482,-147,-64239,-18,0,-511*d5923856
%RAWIMUSA,2283,36355.210;2283,36355.210000232,00000077,478,-146,-64233,18,8,-923*05cb8da7
%RAWIMUSA,2283,36355.220;2283,36355.220000232,00000077,458,-138,-64242,18,0,36*245cbda2
%RAWIMUSA,2283,36355.230;2283,36355.230000232,00000077,467,-147,-64239,9,-8,923*b0142483
%RAWIMUSA,2283,36355.240;2283,36355.240000232,00000077,484,-147,-64240,-8,0,420*2ab6f663
%RAWIMUSA,2283,36355.250;2283,36355.250000232,00000077,473,-140,-64241,-9,0,-923*0c41cd41
%RAWIMUSA,2283,36355.260;2283,36355.260000232,00000077,457,-142,-64237,27,8,-905*0b573962
%RAWIMUSA,2283,36355.270;2283,36355.270000232,00000077,470,-145,-64236,28,-8,914*405a977b
%RAWIMUSA,2283,36355.280;2283,36355.280000232,00000077,486,-148,-64237,-18,-8,914*8b6c4f0b
%RAWIMUSA,2283,36355.290;2283,36355.290000232,00000077,480,-144,-64242,-9,8,-466*a28240e7
%RAWIMUSA,2283,36355.300;2283,36355.300000232,00000077,463,-135,-64240,9,8,-923*6e5ed2d1
%RAWIMUSA,2283,36355.310;2283,36355.310000232,00000077,458,-149,-64233,27,0,-18*8da1f27d
%RAWIMUSA,2283,36355.320;2283,36355.320000232,00000077,478,-149,-64241,0,-8,914*9274095f
%RAWIMUSA,2283,36355.330;2283,36355.330000232,00000077,487,-139,-64240,-8,0,484*d988d11e
%RAWIMUSA,2283,36355.340;2283,36355.340000232,00000077,468,-143,-64239,0,8,-932*87dc90a3
%RAWIMUSA,2283,36355.350;2283,36355.350000232,00000077,454,-148,-64236,18,8,-914*75110385
%RAWIMUSA,2283,36355.360;2283,36355.360000232,00000077,480,-146,-64243,18,-8,887*72327ce7
%RAWIMUSA,2283,36355.370;2283,36355.370000232,00000077,492,-140,-64238,-8,-8,914*496dd0ae
%RAWIMUSA,2283,36355.380;2283,36355.380000232,00000077,461,-139,-64239,-9,8,-420*76524a7c
%RAWIMUSA,2283,36355.390;2283,36355.390000232,00000077,448,-154,-64240,18,8,-914*fa137069
%RAWIMUSA,2283,36355.400;2283,36355.400000232,00000077,485,-148,-64241,18,-9,-63*29889c9c
%RAWIMUSA,2283,36355.410;2283,36355.410000232,00000077,494,-135,-64238,0,-8,914*0b17c2b8
%RAWIMUSA,2283,36355.420;2283,36355.420000232,00000077,458,-149,-64238,-8,9,539*4c6c8b8e
%RAWIMUSA,2283,36355.430;2283,36355.430000232,00000077,453,-146,-64238,0,8,-932*d15ae640
%RAWIMUSA,2283,36355.440;2283,36355.440000232,00000077,490,-145,-64241,18,0,-932*49d1391a
%RAWIMUSA,2283,36355.450;2283,36355.450000232,00000077,486,-139,-64238,28,-8,841*0d6b2489
%RAWIMUSA,2283,36355.460;2283,36355.460000232,00000077,448,-147,-64236,-18,-8,914*6ca79fb3
%RAWIMUSA,2283,36355.470;2283,36355.470000232,00000077,454,-150,-64240,-9,8,-365*92e4d809
%RAWIMUSA,2283,36355.480;2283,36355.480000232,00000077,496,-140,-64241,18,8,-923*9b5a87dd
%RAWIMUSA,2283,36355.490;2283,36355.490000232,00000077,487,-143,-64237,18,-9,-109*5ca3b5ee
%RAWIMUSA,2283,36355.500;2283,36355.500000232,00000077,445,-147,-64237,9,-8,914*e8b8dbfe
%RAWIMUSA,2283,36355.510;2283,36355.510000232,00000077,458,-142,-64238,-8,9,585*0fb40ec3
%RAWIMUSA,2283,36355.520;2283,36355.520000232,00000077,498,-141,-64240,0,0,-932*13ee8b06
%RAWIMUSA,2283,36355.530;2283,36355.530000232,00000077,485,-145,-64238,27,0,-923*b0f53c45
%RAWIMUSA,2283,36355.540;2283,36355.540000232,00000077,444,-152,-64237,9,0,786*d2c5226a
%RAWIMUSA,2283,36355.550;2283,36355.550000232,00000077,456,-144,-64238,-8,-8,923*075bbb41
%RAWIMUSA,2283,36355.560;2283,36355.560000232,00000077,500,-136,-64237,-9,8,-319*19544761
%RAWIMUSA,2283,36355.570;2283,36355.570000232,00000077,491,-146,-64238,18,8,-923*e0a76c37
%RAWIMUSA,2283,36355.580;2283,36355.580000232,00000077,445,-151,-64239,18,-9,-164*a8060e6f
%RAWIMUSA,2283,36355.590;2283,36355.590000232,00000077,453,-140,-64238,0,-8,914*bab2a65a
%RAWIMUSA,2283,36355.600;2283,36355.600000232,00000077,500,-139,-64241,-8,9,631*6446d82d
%RAWIMUSA,2283,36355.610;2283,36355.610000232,00000077,491,-148,-64237,9,0,-923*613eaf7a
%RAWIMUSA,2283,36355.620;2283,36355.620000232,00000077,443,-151,-64239,18,0,-923*d325f5f4
%RAWIMUSA,2283,36355.630;2283,36355.630000232,00000077,453,-140,-64242,18,0,731*1a99bf4a
%RAWIMUSA,2283,36355.640;2283,36355.640000232,00000077,499,-140,-64233,-18,0,905*8606d192
%RAWIMUSA,2283,36355.650;2283,36355.650000232,00000077,487,-155,-64239,-9,0,-265*45f0f1b3
%RAWIMUSA,2283,36355.660;2283,36355.660000232,00000077,452,-153,-64241,27,8,-923*395150ea
%RAWIMUSA,2283,36355.670;2283,36355.670000232,00000077,461,-136,-64240,18,-9,-210*ebfacb1b
%RAWIMUSA,2283,36355.680;2283,36355.680000232,00000077,481,-136,-64243,0,0,914*6607ed38
%RAWIMUSA,2283,36355.690;2283,36355.690000232,00000077,482,-151,-64235,-8,0,667*ef6cb352
%RAWIMUSA,2283,36355.700;2283,36355.700000232,00000077,461,-150,-64241,0,8,-923*7d02deed
%RAWIMUSA,2283,36355.710;2283,36355.710000232,00000077,466,-140,-64240,27,0,-923*13e08b4d
%RAWIMUSA,2283,36355.720;2283,36355.720000232,00000077,481,-142,-64237,9,-8,676*40a49ed5
%RAWIMUSA,2283,36355.730;2283,36355.730000232,00000077,475,-149,-64237,-8,0,923*f011cc52
%RAWIMUSA,2283,36355.740;2283,36355.740000232,00000077,462,-143,-64240,-9,8,-219*8eb0a3b7
%RAWIMUSA,2283,36355.750;2283,36355.750000232,00000077,468,-140,-64236,18,8,-914*ec5a1619
%RAWIMUSA,2283,36355.760;2283,36355.760000232,00000077,481,-143,-64238,27,-9,-265*291fe24f
%RAWIMUSA,2283,36355.770;2283,36355.770000232,00000077,473,-150,-64238,0,-8,914*4c9b6dab
%RAWIMUSA,2283,36355.780;2283,36355.780000232,00000077,466,-144,-64239,-18,9,731*cb4a4583
%RAWIMUSA,2283,36355.790;2283,36355.790000232,00000077,469,-140,-64239,9,8,-914*cea7372d
%RAWIMUSA,2283,36355.800;2283,36355.800000232,00000077,480,-146,-64238,18,-9,-923*4a2b3669
%RAWIMUSA,2283,36355.810;2283,36355.810000232,00000077,474,-147,-64240,18,-8,621*6ce9281e
%RAWIMUSA,2283,36355.820;2283,36355.820000232,00000077,467,-143,-64241,-8,0,923*a5212649
%RAWIMUSA,2283,36355.830;2283,36355.830000232,00000077,462,-143,-64236,-9,9,-155*f28cda53
%RAWIMUSA,2283,36355.840;2283,36355.840000232,00000077,477,-148,-64239,18,8,-914*f7fd5bf7
%RAWIMUSA,2283,36355.850;2283,36355.850000232,00000077,485,-142,-64241,27,-9,-310*b502c2d9
%RAWIMUSA,2283,36355.860;2283,36355.860000232,00000077,468,-139,-64238,-8,-8,914*4ba08188
%RAWIMUSA,2283,36355.870;2283,36355.870000232,00000077,460,-147,-64238,-8,9,777*290778c9
%RAWIMUSA,2283,36355.880;2283,36355.880000232,00000077,479,-145,-64240,9,8,-932*591bbb59
%RAWIMUSA,2283,36355.890;2283,36355.890000232,00000077,485,-141,-64239,18,-9,-923*4645d1fd
%RAWIMUSA,2283,36355.900;2283,36355.900000232,00000077,466,-147,-64237,9,-8,585*ca7df90c
%RAWIMUSA,2283,36355.910;2283,36355.910000232,00000077,459,-147,-64238,-8,9,914*1a19dad4
%RAWIMUSA,2283,36355.920;2283,36355.920000232,00000077,476,-143,-64239,-9,9,-109*da7c96b4
%RAWIMUSA,2283,36355.930;2283,36355.930000232,00000077,486,-139,-64243,27,0,-923*673d8fa4
%RAWIMUSA,2283,36355.940;2283,36355.940000232,00000077,466,-149,-64240,18,-9,-365*ba1ace69
%RAWIMUSA,2283,36355.950;2283,36355.950000232,00000077,457,-148,-64238,0,0,923*b54d7a21
%RAWIMUSA,2283,36355.960;2283,36355.960000232,00000077,483,-144,-64240,-18,9,832*cb1310e7
%RAWIMUSA,2283,36355.970;2283,36355.970000232,00000077,488,-138,-64238,9,0,-914*9d4a4e01
%RAWIMUSA,2283,36355.980;2283,36355.980000232,00000077,459,-143,-64237,27,-10,-932*debee388
%RAWIMUSA,2283,36355.990;2283,36355.990000232,00000077,450,-151,-64237,9,0,530*e4662997
%RAWIMUSA,2283,36356.000;2283,36356.000000232,00000077,486,-145,-64239,-18,0,923*cd548496
%RAWIMUSA,2283,36356.010;2283,36356.010000232,00000077,497,-139,-64240,0,0,-73*3113d281
%RAWIMUSA,2283,36356.020;2283,36356.020000232,00000077,459,-146,-64237,18,0,-923*8db151f9
%RAWIMUSA,2283,36356.030;2283,36356.030000232,00000077,446,-150,-64238,27,0,-411*107051f0
%RAWIMUSA,2283,36356.040;2283,36356.040000232,00000077,489,-147,-64242,-18,0,914*6b237996
%RAWIMUSA,2283,36356.050;2283,36356.050000232,00000077,491,-134,-64233,-8,0,877*7909c38a
%RAWIMUSA,2283,36356.060;2283,36356.060000232,00000077,454,-143,-64237,18,8,-923*29dd5fb2
%RAWIMUSA,2283,36356.070;2283,36356.070000232,00000077,448,-149,-64238,18,-9,-923*595bf209
%RAWIMUSA,2283,36356.080;2283,36356.080000232,00000077,484,-145,-64239,9,0,475*cfb4cfd8
%RAWIMUSA,2283,36356.090;2283,36356.090000232,00000077,492,-141,-64241,-18,0,914*5fe46ba6
%RAWIMUSA,2283,36356.100;2283,36356.100000232,00000077,458,-146,-64238,0,9,-27*5483cd6e
%RAWIMUSA,2283,36356.110;2283,36356.110000232,00000077,452,-148,-64238,18,0,-923*2421fb86
%RAWIMUSA,2283,36356.120;2283,36356.120000232,00000077,484,-142,-64238,27,-9,-475*cb93cf24
%RAWIMUSA,2283,36356.130;2283,36356.130000232,00000077,486,-141,-64238,-8,-8,914*90d04789
%RAWIMUSA,2283,36356.140;2283,36356.140000232,00000077,456,-145,-64238,-8,9,914*f59b7437
%RAWIMUSA,2283,36356.150;2283,36356.150000232,00000077,458,-147,-64239,9,8,-905*31c31c05
%RAWIMUSA,2283,36356.160;2283,36356.160000232,00000077,491,-144,-64238,27,-10,-932*bc3e6dca
%RAWIMUSA,2283,36356.170;2283,36356.170000232,00000077,482,-142,-64237,9,-8,439*2bf2c53a
%RAWIMUSA,2283,36356.180;2283,36356.180000232,00000077,455,-142,-64237,-8,9,914*5a6909cd
%RAWIMUSA,2283,36356.190;2283,36356.190000232,00000077,464,-147,-64235,-9,9,36*c48e207e
%RAWIMUSA,2283,36356.200;2283,36356.200000232,00000077,493,-146,-64239,27,0,-914*4166292e
%RAWIMUSA,2283,36356.210;2283,36356.210000232,00000077,477,-140,-64238,18,-9,-511*1f7bdf68
%RAWIMUSA,2283,36356.220;2283,36356.220000232,00000077,449,-151,-64236,-8,-8,914*10372a63
%RAWIMUSA,2283,36356.230;2283,36356.230000232,00000077,469,-145,-64236,-8,9,923*78030515
%RAWIMUSA,2283,36356.240;2283,36356.240000232,00000077,493,-144,-64238,9,0,-859*3bfb484c
%RAWIMUSA,2283,36356.250;2283,36356.250000232,00000077,477,-141,-64238,27,0,-923*8c64e95f
%RAWIMUSA,2283,36356.260;2283,36356.260000232,00000077,448,-142,-64238,9,-8,384*7aeb7d43
%RAWIMUSA,2283,36356.270;2283,36356.270000232,00000077,466,-150,-64239,-18,9,923*368afc88
%RAWIMUSA,2283,36356.280;2283,36356.280000232,00000077,493,-139,-64239,0,9,82*7e6490f3
%RAWIMUSA,2283,36356.290;2283,36356.290000232,00000077,478,-143,-64239,27,-10,-941*8ab81173
%RAWIMUSA,2283,36356.300;2283,36356.300000232,00000077,454,-148,-64241,18,-9,-557*99568a30
%RAWIMUSA,2283,36356.310;2283,36356.310000232,00000077,467,-146,-64239,-8,0,914*0cfa8fb0
%RAWIMUSA,2283,36356.320;2283,36356.320000232,00000077,485,-141,-64237,-8,9,914*ed56a43a
%RAWIMUSA,2283,36356.330;2283,36356.330000232,00000077,472,-144,-64238,18,8,-804*3d41d80e
%RAWIMUSA,2283,36356.340;2283,36356.340000232,00000077,464,-153,-64238,18,-9,-923*1426fb77
%RAWIMUSA,2283,36356.350;2283,36356.350000232,00000077,473,-144,-64242,0,-8,338*fc057700
%RAWIMUSA,2283,36356.360;2283,36356.360000232,00000077,481,-136,-64239,-8,9,923*5015e72d
%RAWIMUSA,2283,36356.370;2283,36356.370000232,00000077,470,-145,-64238,0,9,128*fe23d73b
%RAWIMUSA,2283,36356.380;2283,36356.380000232,00000077,463,-152,-64237,27,-9,-923*1495b1ad
%RAWIMUSA,2283,36356.390;2283,36356.390000232,00000077,473,-141,-64239,18,-9,-603*d09e23ac
%RAWIMUSA,2283,36356.400;2283,36356.400000232,00000077,483,-135,-64236,-18,0,914*ec158631
%RAWIMUSA,2283,36356.410;2283,36356.410000232,00000077,467,-149,-64239,-8,9,923*530ff66c
%RAWIMUSA,2283,36356.420;2283,36356.420000232,00000077,468,-153,-64239,18,8,-758*c70dc899
%RAWIMUSA,2283,36356.430;2283,36356.430000232,00000077,480,-141,-64240,18,-9,-914*33f1d1f8
%RAWIMUSA,2283,36356.440;2283,36356.440000232,00000077,476,-135,-64236,0,-9,274*38118624
%RAWIMUSA,2283,36356.450;2283,36356.450000232,00000077,464,-146,-64239,-8,9,914*9262fe72
%RAWIMUSA,2283,36356.460;2283,36356.460000232,00000077,468,-151,-64238,0,9,182*eacc129f
%RAWIMUSA,2283,36356.470;2283,36356.470000232,00000077,484,-143,-64240,18,0,-923*7936ef70
%RAWIMUSA,2283,36356.480;2283,36356.480000232,00000077,477,-140,-64238,27,-18,-667*43d9b9ef
%RAWIMUSA,2283,36356.490;2283,36356.490000232,00000077,461,-147,-64240,-18,9,905*b00ba9bc
%RAWIMUSA,2283,36356.500;2283,36356.500000232,00000077,468,-150,-64240,-8,9,923*60184dbb
%RAWIMUSA,2283,36356.510;2283,36356.510000232,00000077,480,-142,-64238,18,0,-713*164ea4e2
%RAWIMUSA,2283,36356.520;2283,36356.520000232,00000077,475,-139,-64239,18,-9,-923*aede9f70
%RAWIMUSA,2283,36356.530;2283,36356.530000232,00000077,462,-144,-64239,0,-9,237*02eba5b8
%RAWIMUSA,2283,36356.540;2283,36356.540000232,00000077,465,-149,-64234,-8,9,914*02718d35
%RAWIMUSA,2283,36356.550;2283,36356.550000232,00000077,480,-145,-64239,9,9,237*3845f771
%RAWIMUSA,2283,36356.560;2283,36356.560000232,00000077,481,-142,-64239,18,-9,-923*b8d1a382
%RAWIMUSA,2283,36356.570;2283,36356.570000232,00000077,468,-148,-64241,18,-9,-713*c8942d82
%RAWIMUSA,2283,36356.580;2283,36356.580000232,00000077,462,-143,-64236,-18,9,923*c48e6707
%RAWIMUSA,2283,36356.590;2283,36356.590000232,00000077,473,-141,-64241,-8,9,914*3c710dce
%RAWIMUSA,2283,36356.600;2283,36356.600000232,00000077,484,-147,-64241,27,0,-649*49885544
%RAWIMUSA,2283,36356.610;2283,36356.610000232,00000077,470,-145,-64233,18,0,-923*d34b1a77
%RAWIMUSA,2283,36356.620;2283,36356.620000232,00000077,454,-142,-64235,0,-9,173*755e73f5
%RAWIMUSA,2283,36356.630;2283,36356.630000232,00000077,474,-144,-64240,-8,19,923*5b826d0c
%RAWIMUSA,2283,36356.640;2283,36356.640000232,00000077,494,-146,-64238,0,0,292*f56c72b5
%RAWIMUSA,2283,36356.650;2283,36356.650000232,00000077,469,-148,-64240,27,-9,-923*fa2f9eb2
%RAWIMUSA,2283,36356.660;2283,36356.660000232,00000077,445,-138,-64240,9,0,-767*c48b5ae3
%RAWIMUSA,2283,36356.670;2283,36356.670000231,00000077,470,-146,-64240,-8,9,923*0dfa1813
%RAWIMUSA,2283,36356.680;2283,36356.680000231,00000077,499,-152,-64237,-8,0,914*f7d15ae9
%RAWIMUSA,2283,36356.690;2283,36356.690000231,00000077,472,-142,-64240,18,0,-621*dd9cdadb
%RAWIMUSA,2283,36356.700;2283,36356.700000231,00000077,448,-142,-64240,27,-9,-923*30d89281
%RAWIMUSA,2283,36356.710;2283,36356.710000231,00000077,465,-142,-64237,-9,0,137*f0b0e3c1
%RAWIMUSA,2283,36356.720;2283,36356.720000231,00000077,489,-150,-64238,-8,0,905*4ec78f0a
%RAWIMUSA,2283,36356.730;2283,36356.730000231,00000077,477,-149,-64238,9,9,338*395180bc
%RAWIMUSA,2283,36356.740;2283,36356.740000231,00000077,457,-135,-64238,27,-9,-923*70a2a435
%RAWIMUSA,2283,36356.750;2283,36356.750000231,00000077,467,-147,-64239,9,-9,-813*3bc58975
%RAWIMUSA,2283,36356.760;2283,36356.760000231,00000077,487,-150,-64237,-8,9,923*29e55d2a
%RAWIMUSA,2283,36356.770;2283,36356.770000231,00000077,480,-141,-64238,-8,9,914*d919d5af
%RAWIMUSA,2283,36356.780;2283,36356.780000231,00000077,461,-141,-64243,18,-9,-557*2454802f
%RAWIMUSA,2283,36356.790;2283,36356.790000231,00000077,466,-146,-64238,27,0,-932*b191f59f
%RAWIMUSA,2283,36356.800;2283,36356.800000231,00000077,482,-145,-64242,-9,0,82*4d07db36
%RAWIMUSA,2283,36356.810;2283,36356.810000231,00000077,481,-141,-64238,-8,0,914*af210df8
%RAWIMUSA,2283,36356.820;2283,36356.820000231,00000077,461,-141,-64237,9,0,374*b771d3af
%RAWIMUSA,2283,36356.830;2283,36356.830000231,00000077,463,-147,-64236,18,0,-923*09da65f2
%RAWIMUSA,2283,36356.840;2283,36356.840000231,00000077,480,-147,-64240,9,-9,-868*90214efb
%RAWIMUSA,2283,36356.850;2283,36356.850000231,00000077,484,-139,-64240,-8,9,914*5fb4d82f
%RAWIMUSA,2283,36356.860;2283,36356.860000231,00000077,464,-143,-64237,-8,9,914*bbe6cf6b
%RAWIMUSA,2283,36356.870;2283,36356.870000231,00000077,459,-150,-64240,27,-9,-511*e3b76bbe
%RAWIMUSA,2283,36356.880;2283,36356.880000231,00000077,487,-149,-64240,18,-9,-914*609fc353
%RAWIMUSA,2283,36356.890;2283,36356.890000231,00000077,481,-137,-64237,0,0,18*b862e020
%RAWIMUSA,2283,36356.900;2283,36356.900000231,00000077,449,-141,-64239,-8,9,923*f55ba980
%RAWIMUSA,2283,36356.910;2283,36356.910000231,00000077,463,-149,-64238,9,9,448*a9be3c01
%RAWIMUSA,2283,36356.920;2283,36356.920000231,00000077,497,-145,-64240,18,-9,-923*09abbee4
%RAWIMUSA,2283,36356.930;2283,36356.930000231,00000077,480,-140,-64238,9,-9,-914*9a2b2f05
%RAWIMUSA,2283,36356.940;2283,36356.940000231,00000077,443,-143,-64237,-8,9,905*f8367128
%RAWIMUSA,2283,36356.950;2283,36356.950000231,00000077,460,-148,-64239,0,19,923*2e3a3777
%RAWIMUSA,2283,36356.960;2283,36356.960000231,00000077,504,-146,-64238,18,-9,-466*2d3e1638
%RAWIMUSA,2283,36356.970;2283,36356.970000231,00000077,486,-139,-64238,18,-19,-923*5fb4c957
%RAWIMUSA,2283,36356.980;2283,36356.980000231,00000077,438,-147,-64240,-9,0,-18*26aa931a
%RAWIMUSA,2283,36356.990;2283,36356.990000231,00000077,451,-147,-64240,-8,19,923*870125ab
%RAWIMUSA,2283,36357.000;2283,36357.000000231,00000077,502,-147,-64239,9,-8,484*a81456f4
%RAWIMUSA,2283,36357.010;2283,36357.010000231,00000077,493,-138,-64239,27,-10,-932*ac580f62
%RAWIMUSA,2283,36357.020;2283,36357.020000231,00000077,447,-144,-64240,9,0,-923*b2c00200
%RAWIMUSA,2283,36357.030;2283,36357.030000231,00000077,449,-151,-64239,-18,9,877*da443451
%RAWIMUSA,2283,36357.040;2283,36357.040000231,00000077,497,-138,-64240,0,9,923*4fbb926d
%RAWIMUSA,2283,36357.050;2283,36357.050000231,00000077,491,-137,-64235,18,-9,-411*5de85dd6
%RAWIMUSA,2283,36357.060;2283,36357.060000231,00000077,451,-151,-64237,27,-9,-914*f60ad978
%RAWIMUSA,2283,36357.070;2283,36357.070000231,00000077,450,-149,-64239,-18,9,-73*2acb96f2
%RAWIMUSA,2283,36357.080;2283,36357.080000231,00000077,492,-141,-64240,-8,9,905*2676e023
%RAWIMUSA,2283,36357.090;2283,36357.090000231,00000077,490,-140,-64236,18,-8,539*1efc325c
%RAWIMUSA,2283,36357.100;2283,36357.100000231,00000077,451,-149,-64241,18,0,-923*d973f76a
%RAWIMUSA,2283,36357.110;2283,36357.110000231,00000077,451,-148,-64240,9,0,-932*bc56df65
%RAWIMUSA,2283,36357.120;2283,36357.120000231,00000077,490,-140,-64239,-8,9,823*e9778483
%RAWIMUSA,2283,36357.130;2283,36357.130000231,00000077,491,-141,-64239,-8,0,914*79f1b3ac
%RAWIMUSA,2283,36357.140;2283,36357.140000231,00000077,457,-149,-64238,27,-9,-365*8239ccf8
%RAWIMUSA,2283,36357.150;2283,36357.150000231,00000077,452,-143,-64238,27,0,-923*68ecee73
%RAWIMUSA,2283,36357.160;2283,36357.160000231,00000077,487,-143,-64240,-18,9,-118*b9eb3cd0
%RAWIMUSA,2283,36357.170;2283,36357.170000231,00000077,491,-143,-64240,-8,0,923*46748ba9
%RAWIMUSA,2283,36357.180;2283,36357.180000231,00000077,462,-146,-64240,18,0,585*9af78bf1
%RAWIMUSA,2283,36357.190;2283,36357.190000231,00000077,452,-144,-64236,18,-9,-932*8d3dcf86
%RAWIMUSA,2283,36357.200;2283,36357.200000231,00000077,479,-141,-64239,9,0,-923*9de9ccfd
%RAWIMUSA,2283,36357.210;2283,36357.210000231,00000077,491,-143,-64239,-8,9,777*db3a3ac1
%RAWIMUSA,2283,36357.220;2283,36357.220000231,00000077,465,-148,-64237,0,0,905*ff448ecf
%RAWIMUSA,2283,36357.230;2283,36357.230000231,00000077,452,-144,-64236,18,0,-310*6dfc3712
%RAWIMUSA,2283,36357.240;2283,36357.240000231,00000077,479,-143,-64239,27,-9,-923*ad89ddf2
%RAWIMUSA,2283,36357.250;2283,36357.250000231,00000077,490,-143,-64238,-9,8,-173*021961cc
%RAWIMUSA,2283,36357.260;2283,36357.260000231,00000077,467,-149,-64238,-18,0,914*90ffa102
%RAWIMUSA,2283,36357.270;2283,36357.270000231,00000077,444,-140,-64239,18,0,640*e9b98f18
%RAWIMUSA,2283,36357.280;2283,36357.280000231,00000077,480,-140,-64241,27,-10,-932*24d907e0
%RAWIMUSA,2283,36357.290;2283,36357.290000231,00000077,500,-149,-64238,0,0,-923*a7ddbd22
%RAWIMUSA,2283,36357.300;2283,36357.300000231,00000077,467,-147,-64237,-8,9,731*8b426366
%RAWIMUSA,2283,36357.310;2283,36357.310000231,00000077,435,-140,-64242,0,0,914*7dec6cf0
%RAWIMUSA,2283,36357.320;2283,36357.320000231,00000077,472,-141,-64238,18,0,-255*593f2ebb
%RAWIMUSA,2283,36357.330;2283,36357.330000231,00000077,505,-146,-64238,18,-9,-923*d4668050
%RAWIMUSA,2283,36357.340;2283,36357.340000231,00000077,469,-144,-64238,-9,0,-228*d1e81c91
%RAWIMUSA,2283,36357.350;2283,36357.350000231,00000077,438,-143,-64239,-8,19,923*0301bb34
%RAWIMUSA,2283,36357.360;2283,36357.360000231,00000077,474,-142,-64239,18,-8,676*960c6745
%RAWIMUSA,2283,36357.370;2283,36357.370000231,00000077,504,-149,-64239,18,-9,-923*5b98cfdb
%RAWIMUSA,2283,36357.380;2283,36357.380000231,00000077,471,-149,-64235,9,0,-923*199f1b12
%RAWIMUSA,2283,36357.390;2283,36357.390000231,00000077,440,-138,-64238,-18,9,676*28e43324
%RAWIMUSA,2283,36357.400;2283,36357.400000231,00000077,468,-144,-64238,9,0,914*c777a392
%RAWIMUSA,2283,36357.410;2283,36357.410000231,00000077,498,-145,-64238,18,0,-210*ccbe8b17
%RAWIMUSA,2283,36357.420;2283,36357.420000231,00000077,481,-151,-64239,18,-9,-923*44479cd6
%RAWIMUSA,2283,36357.430;2283,36357.430000231,00000077,450,-141,-64241,-9,8,-274*53e2c805
%RAWIMUSA,2283,36357.440;2283,36357.440000231,00000077,465,-142,-64241,-18,9,923*7cb20b65
%RAWIMUSA,2283,36357.450;2283,36357.450000231,00000077,486,-145,-64234,18,-8,731*4ccf7f96
%RAWIMUSA,2283,36357.460;2283,36357.460000231,00000077,472,-140,-64237,27,-9,-914*f290705e
%RAWIMUSA,2283,36357.470;2283,36357.470000231,00000077,458,-148,-64240,0,8,-923*9633e242
%RAWIMUSA,2283,36357.480;2283,36357.480000231,00000077,479,-145,-64238,-18,9,631*b6346829
%RAWIMUSA,2283,36357.490;2283,36357.490000231,00000077,486,-143,-64240,9,0,914*4fa51374
%RAWIMUSA,2283,36357.500;2283,36357.500000231,00000077,461,-143,-64238,18,-9,-155*ce5dadb0
%RAWIMUSA,2283,36357.510;2283,36357.510000231,00000077,456,-141,-64236,18,0,-932*50113576
%RAWIMUSA,2283,36357.520;2283,36357.520000231,00000077,482,-148,-64238,-9,0,-319*f846e457
%RAWIMUSA,2283,36357.530;2283,36357.530000231,00000077,486,-144,-64239,-18,9,914*7f43fd12
%RAWIMUSA,2283,36357.540;2283,36357.540000231,00000077,462,-143,-64237,18,-8,777*7a82cea5
%RAWIMUSA,2283,36357.550;2283,36357.550000231,00000077,459,-141,-64240,27,0,-923*03de072c
%RAWIMUSA,2283,36357.560;2283,36357.560000231,00000077,482,-143,-64238,0,0,-914*f88daf21
%RAWIMUSA,2283,36357.570;2283,36357.570000231,00000077,481,-147,-64237,-8,9,567*35b037e0
%RAWIMUSA,2283,36357.580;2283,36357.580000231,00000077,462,-143,-64239,0,0,914*01185642
%RAWIMUSA,2283,36357.590;2283,36357.590000231,00000077,469,-141,-64239,27,-9,-118*e8c4cd33
%RAWIMUSA,2283,36357.600;2283,36357.600000231,00000077,479,-147,-64241,9,0,-932*597ecaf5
%RAWIMUSA,2283,36357.610;2283,36357.610000231,00000077,481,-146,-64241,-9,8,-374*8f320cb2
%RAWIMUSA,2283,36357.620;2283,36357.620000231,00000077,464,-137,-64236,-8,0,923*de9d07f7
%RAWIMUSA,2283,36357.630;2283,36357.630000231,00000077,458,-137,-64237,18,0,850*e7553f50
%RAWIMUSA,2283,36357.640;2283,36357.640000231,00000077,480,-159,-64239,27,-9,-923*7aef560b
%RAWIMUSA,2283,36357.650;2283,36357.650000231,00000077,488,-151,-64238,-9,8,-923*f436f9e6
%RAWIMUSA,2283,36357.660;2283,36357.660000231,00000077,463,-137,-64240,-8,0,530*9db79507
%RAWIMUSA,2283,36357.670;2283,36357.670000231,00000077,456,-132,-64239,9,0,923*f1b8ec3a
%RAWIMUSA,2283,36357.680;2283,36357.680000231,00000077,481,-154,-64240,27,-9,-63*4b6a5334
%RAWIMUSA,2283,36357.690;2283,36357.690000231,00000077,491,-155,-64237,9,0,-923*09476e81
%RAWIMUSA,2283,36357.700;2283,36357.700000231,00000077,459,-132,-64241,-9,8,-420*c5d6363d
%RAWIMUSA,2283,36357.710;2283,36357.710000231,00000077,452,-139,-64237,-8,0,923*687ff355
%RAWIMUSA,2283,36357.720;2283,36357.720000231,00000077,483,-149,-64240,28,0,887*86170396
%RAWIMUSA,2283,36357.730;2283,36357.730000231,00000077,491,-153,-64235,18,-9,-932*06c490a9
%RAWIMUSA,2283,36357.740;2283,36357.740000231,00000077,461,-141,-64242,-9,0,-923*eefa493f
%RAWIMUSA,2283,36357.750;2283,36357.750000231,00000077,452,-134,-64238,-8,9,475*91c8fb73
%RAWIMUSA,2283,36357.760;2283,36357.760000231,00000077,477,-150,-64236,18,0,914*4a2fcb2a
%RAWIMUSA,2283,36357.770;2283,36357.770000231,00000077,481,-149,-64239,18,-9,-9*f53ec1fc
%RAWIMUSA,2283,36357.780;2283,36357.780000231,00000077,472,-143,-64239,9,0,-923*3fa46c25
%RAWIMUSA,2283,36357.790;2283,36357.790000231,00000077,463,-139,-64241,-9,0,-475*0f0dcc3b
%RAWIMUSA,2283,36357.800;2283,36357.800000231,00000077,470,-146,-64239,-8,9,914*dc9f37fd
%RAWIMUSA,2283,36357.810;2283,36357.810000231,00000077,480,-147,-64237,18,-8,914*e2f1489f
%RAWIMUSA,2283,36357.820;2283,36357.820000231,00000077,472,-140,-64237,27,-9,-905*c8c52653
%RAWIMUSA,2283,36357.830;2283,36357.830000231,00000077,465,-141,-64242,-9,8,-923*4624d43a
%RAWIMUSA,2283,36357.840;2283,36357.840000231,00000077,469,-141,-64240,-8,9,429*caa1312d
%RAWIMUSA,2283,36357.850;2283,36357.850000231,00000077,480,-147,-64239,9,-8,905*ec345d99
%RAWIMUSA,2283,36357.860;2283,36357.860000231,00000077,477,-141,-64241,18,-9,36*9fd70b81
%RAWIMUSA,2283,36357.870;2283,36357.870000231,00000077,463,-143,-64240,9,8,-914*2695b78e
%RAWIMUSA,2283,36357.880;2283,36357.880000231,00000077,473,-147,-64238,-9,8,-521*2d4e9659
%RAWIMUSA,2283,36357.890;2283,36357.890000231,00000077,477,-145,-64238,-8,0,914*7d50aa6b
%RAWIMUSA,2283,36357.900;2283,36357.900000231,00000077,475,-140,-64239,28,-8,923*ebe7172d
%RAWIMUSA,2283,36357.910;2283,36357.910000231,00000077,465,-142,-64240,27,0,-859*88f577cb
%RAWIMUSA,2283,36357.920;2283,36357.920000231,00000077,468,-148,-64238,-9,8,-923*fd36b146
%RAWIMUSA,2283,36357.930;2283,36357.930000231,00000077,479,-145,-64238,-18,9,365*510871a3
%RAWIMUSA,2283,36357.940;2283,36357.940000231,00000077,477,-142,-64237,18,-8,914*ea449b44
%RAWIMUSA,2283,36357.950;2283,36357.950000231,00000077,464,-145,-64239,18,-9,91*0ca34733
%RAWIMUSA,2283,36357.960;2283,36357.960000231,00000077,467,-147,-64241,9,0,-923*0ba38390
%RAWIMUSA,2283,36357.970;2283,36357.970000231,00000077,479,-144,-64237,-9,17,-575*95362ce4
%RAWIMUSA,2283,36357.980;2283,36357.980000231,00000077,470,-143,-64239,-8,-8,923*8790c7e8
%RAWIMUSA,2283,36357.990;2283,36357.990000231,00000077,465,-142,-64239,18,0,914*21e34346
%RAWIMUSA,2283,36358.000;2283,36358.000000231,00000077,471,-147,-64239,27,-9,-804*030b1076
%RAWIMUSA,2283,36358.010;2283,36358.010000231,00000077,478,-148,-64238,-9,8,-923*41809035
%RAWIMUSA,2283,36358.020;2283,36358.020000231,00000077,469,-145,-64238,-18,0,329*96dd495e
%RAWIMUSA,2283,36358.030;2283,36358.030000231,00000077,463,-136,-64238,18,0,905*7e652cfc
%RAWIMUSA,2283,36358.040;2283,36358.040000231,00000077,471,-144,-64239,27,-9,137*088b5408
%RAWIMUSA,2283,36358.050;2283,36358.050000231,00000077,478,-150,-64237,0,0,-923*f3314624
%RAWIMUSA,2283,36358.060;2283,36358.060000231,00000077,478,-148,-64242,-9,8,-621*13cbe937
%RAWIMUSA,2283,36358.070;2283,36358.070000231,00000077,463,-136,-64239,-8,0,914*5f71329a
%RAWIMUSA,2283,36358.080;2283,36358.080000231,00000077,468,-142,-64242,28,-8,923*e670fb8f
%RAWIMUSA,2283,36358.090;2283,36358.090000231,00000077,478,-152,-64237,27,0,-749*4f099409
%RAWIMUSA,2283,36358.100;2283,36358.100000231,00000077,479,-144,-64239,-18,8,-923*86e0d59b
%RAWIMUSA,2283,36358.110;2283,36358.110000231,00000077,462,-137,-64237,-8,0,274*a564e71b
%RAWIMUSA,2283,36358.120;2283,36358.120000231,00000077,465,-141,-64242,18,-8,923*9887164a
%RAWIMUSA,2283,36358.130;2283,36358.130000231,00000077,488,-152,-64238,27,0,182*43e4cddb
%RAWIMUSA,2283,36358.140;2283,36358.140000231,00000077,474,-143,-64237,0,0,-914*ab1577c3
%RAWIMUSA,2283,36358.150;2283,36358.150000231,00000077,457,-136,-64237,-9,8,-676*5c267572
%RAWIMUSA,2283,36358.160;2283,36358.160000231,00000077,471,-151,-64241,0,0,914*4b41e46b
%RAWIMUSA,2283,36358.170;2283,36358.170000231,00000077,487,-150,-64235,18,-8,914*fdfcbb50
%RAWIMUSA,2283,36358.180;2283,36358.180000231,00000077,472,-143,-64241,27,0,-694*82d6bd8f
%RAWIMUSA,2283,36358.190;2283,36358.190000231,00000077,457,-134,-64242,-9,8,-932*6d9433fc
%RAWIMUSA,2283,36358.200;2283,36358.200000231,00000077,473,-147,-64239,-18,0,219*8903b8f7
%RAWIMUSA,2283,36358.210;2283,36358.210000231,00000077,483,-155,-64239,18,0,923*49990fad
%RAWIMUSA,2283,36358.220;2283,36358.220000231,00000077,467,-140,-64237,18,-18,228*22e7b73a
%RAWIMUSA,2283,36358.230;2283,36358.230000231,00000077,457,-135,-64234,0,17,-914*eb97cbf1
%RAWIMUSA,2283,36358.240;2283,36358.240000231,00000077,476,-149,-64240,-9,0,-722*a07fe75d
%RAWIMUSA,2283,36358.250;2283,36358.250000231,00000077,485,-149,-64239,0,0,914*fca16bf9
%RAWIMUSA,2283,36358.260;2283,36358.260000231,00000077,466,-145,-64240,18,-8,923*4f59e2a5
%RAWIMUSA,2283,36358.270;2283,36358.270000231,00000077,461,-132,-64239,27,0,-658*3107b43f
%RAWIMUSA,2283,36358.280;2283,36358.280000231,00000077,475,-148,-64237,-9,8,-923*ac55259c
%RAWIMUSA,2283,36358.290;2283,36358.290000231,00000077,484,-151,-64237,-9,0,182*83d42772
%RAWIMUSA,2283,36358.300;2283,36358.300000231,00000077,468,-136,-64239,9,-8,905*ad7d01e9
%RAWIMUSA,2283,36358.310;2283,36358.310000231,00000077,459,-141,-64239,27,0,292*34f3f1bc
%RAWIMUSA,2283,36358.320;2283,36358.320000231,00000077,473,-145,-64238,0,0,-923*159a6a08
%RAWIMUSA,2283,36358.330;2283,36358.330000231,00000077,486,-152,-64240,-9,8,-767*f3407fcf
%RAWIMUSA,2283,36358.340;2283,36358.340000231,00000077,468,-139,-64237,0,0,905*559fead8
%RAWIMUSA,2283,36358.350;2283,36358.350000231,00000077,463,-142,-64237,18,-8,914*88abafc1
%RAWIMUSA,2283,36358.360;2283,36358.360000231,00000077,472,-146,-64239,18,0,-594*8e09e384
%RAWIMUSA,2283,36358.370;2283,36358.370000231,00000077,483,-146,-64239,-9,8,-932*8b207cbc
%RAWIMUSA,2283,36358.380;2283,36358.380000231,00000077,471,-145,-64237,-9,0,128*8c7a3462
%RAWIMUSA,2283,36358.390;2283,36358.390000231,00000077,460,-139,-64239,18,-8,914*42256b3f
%RAWIMUSA,2283,36358.400;2283,36358.400000231,00000077,472,-148,-64238,18,0,338*2ca8e2cd
%RAWIMUSA,2283,36358.410;2283,36358.410000231,00000077,477,-148,-64239,0,8,-923*68fea08e
%RAWIMUSA,2283,36358.420;2283,36358.420000231,00000077,476,-131,-64236,-9,0,-813*4a9859e5
%RAWIMUSA,2283,36358.430;2283,36358.430000231,00000077,469,-148,-64241,9,0,914*11f98dde
%RAWIMUSA,2283,36358.440;2283,36358.440000231,00000077,466,-144,-64235,18,-8,923*ee446872
%RAWIMUSA,2283,36358.450;2283,36358.450000231,00000077,470,-151,-64241,9,0,-548*097fb742
%RAWIMUSA,2283,36358.460;2283,36358.460000231,00000077,481,-134,-64240,-9,8,-923*560cd690
%RAWIMUSA,2283,36358.470;2283,36358.470000231,00000077,472,-144,-64235,-9,0,82*7dde3cda
%RAWIMUSA,2283,36358.480;2283,36358.480000231,00000077,461,-151,-64242,18,-8,923*afb2c38f
%RAWIMUSA,2283,36358.490;2283,36358.490000231,00000077,475,-140,-64238,18,0,393*b702530c
%RAWIMUSA,2283,36358.500;2283,36358.500000231,00000077,482,-139,-64240,9,0,-923*a18a450c
%RAWIMUSA,2283,36358.510;2283,36358.510000231,00000077,469,-144,-64235,-18,8,-877*60baf2a1
%RAWIMUSA,2283,36358.520;2283,36358.520000231,00000077,459,-152,-64240,9,-8,923*3b128285
%RAWIMUSA,2283,36358.530;2283,36358.530000231,00000077,476,-141,-64236,18,0,914*25716a6b
%RAWIMUSA,2283,36358.540;2283,36358.540000231,00000077,479,-141,-64238,18,0,-502*abd42bbc
%RAWIMUSA,2283,36358.550;2283,36358.550000231,00000077,469,-153,-64240,-9,17,-923*b37c4b90
%RAWIMUSA,2283,36358.560;2283,36358.560000231,00000077,462,-136,-64237,-9,-9,27*248db063
%RAWIMUSA,2283,36358.570;2283,36358.570000231,00000077,473,-161,-64242,18,0,905*ae3e12ed
%RAWIMUSA,2283,36358.580;2283,36358.580000230,00000077,481,-121,-64236,18,-8,448*5cb9b87c
%RAWIMUSA,2283,36358.590;2283,36358.590000230,00000077,467,-163,-64242,0,8,-923*9c8f9280
%RAWIMUSA,2283,36358.600;2283,36358.600000230,00000077,467,-132,-64235,-18,8,-914*c8d96c0d
%RAWIMUSA,2283,36358.610;2283,36358.610000230,00000077,475,-168,-64243,18,-8,914*71921d44
%RAWIMUSA,2283,36358.620;2283,36358.620000230,00000077,473,-117,-64235,9,-8,914*1d2981b1
%RAWIMUSA,2283,36358.630;2283,36358.630000230,00000077,469,-163,-64241,36,8,-457*fe465aff
%RAWIMUSA,2283,36358.640;2283,36358.640000230,00000077,471,-139,-64234,-36,8,-914*01a0b3a9
%RAWIMUSA,2283,36358.650;2283,36358.650000230,00000077,473,-148,-64241,9,0,-18*09375d06
%RAWIMUSA,2283,36358.660;2283,36358.660000230,00000077,477,-136,-64238,0,-8,914*a2957201
%RAWIMUSA,2283,36358.670;2283,36358.670000230,00000077,466,-152,-64240,46,0,493*3268bd44
%RAWIMUSA,2283,36358.680;2283,36358.680000230,00000077,469,-140,-64239,-27,8,-914*ac0c2732
%RAWIMUSA,2283,36358.690;2283,36358.690000230,00000077,476,-148,-64241,9,0,-923*aedc4af0
%RAWIMUSA,2283,36358.700;2283,36358.700000230,00000077,477,-131,-64240,-8,-8,868*801ef8be
%RAWIMUSA,2283,36358.710;2283,36358.710000230,00000077,463,-160,-64237,37,-8,923*cf96ffc1
%RAWIMUSA,2283,36358.720;2283,36358.720000230,00000077,469,-125,-64238,0,18,-402*87d5148b
%RAWIMUSA,2283,36358.730;2283,36358.730000230,00000077,470,-165,-64240,0,0,-932*3c985c89
%RAWIMUSA,2283,36358.740;2283,36358.740000230,00000077,482,-125,-64238,-9,0,-73*7c32d76f
%RAWIMUSA,2283,36358.750;2283,36358.750000230,00000077,469,-157,-64239,9,-8,914*9713e731
%RAWIMUSA,2283,36358.760;2283,36358.760000230,00000077,460,-145,-64239,37,0,530*20a66d6f
%RAWIMUSA,2283,36358.770;2283,36358.770000230,00000077,478,-129,-64235,-18,8,-914*3bdf47db
%RAWIMUSA,2283,36358.780;2283,36358.780000230,00000077,475,-161,-64242,-9,0,-932*a797e4fc
%RAWIMUSA,2283,36358.790;2283,36358.790000230,00000077,469,-137,-64235,9,-8,823*70cbe011
%RAWIMUSA,2283,36358.800;2283,36358.800000230,00000077,469,-137,-64236,18,0,914*aef8180c
%RAWIMUSA,2283,36358.810;2283,36358.810000230,00000077,469,-154,-64239,18,8,-365*b4475f86
%RAWIMUSA,2283,36358.820;2283,36358.820000230,00000077,478,-136,-64239,-18,0,-923*edd462d3
%RAWIMUSA,2283,36358.830;2283,36358.830000230,00000077,473,-146,-64240,-9,0,-118*467e69ed
%RAWIMUSA,2283,36358.840;2283,36358.840000230,00000077,468,-147,-64241,37,-8,914*5a4c20c8
%RAWIMUSA,2283,36358.850;2283,36358.850000230,00000077,473,-136,-64236,18,9,585*b5bcc0b0
%RAWIMUSA,2283,36358.860;2283,36358.860000230,00000077,476,-150,-64238,-9,8,-923*aeac53eb
%RAWIMUSA,2283,36358.870;2283,36358.870000230,00000077,473,-141,-64238,-9,0,-923*ecb45510
%RAWIMUSA,2283,36358.880;2283,36358.880000230,00000077,466,-141,-64238,9,-8,759*4d6785bb
%RAWIMUSA,2283,36358.890;2283,36358.890000230,00000077,471,-154,-64238,18,0,923*0ff03417
%RAWIMUSA,2283,36358.900;2283,36358.900000230,00000077,476,-140,-64239,9,0,-301*99580224
%RAWIMUSA,2283,36358.910;2283,36358.910000230,00000077,469,-145,-64238,-9,8,-923*08dbdf70
%RAWIMUSA,2283,36358.920;2283,36358.920000230,00000077,468,-147,-64238,0,-9,-173*f79ab21a
%RAWIMUSA,2283,36358.930;2283,36358.930000230,00000077,472,-141,-64238,18,-8,923*173a916e
%RAWIMUSA,2283,36358.940;2283,36358.940000230,00000077,477,-149,-64239,18,9,631*6d223de5
%RAWIMUSA,2283,36358.950;2283,36358.950000230,00000077,471,-141,-64238,0,8,-923*841b8546
%RAWIMUSA,2283,36358.960;2283,36358.960000230,00000077,466,-144,-64237,-18,-9,-914*32884787
%RAWIMUSA,2283,36358.970;2283,36358.970000230,00000077,471,-146,-64238,18,-8,713*9611395e
%RAWIMUSA,2283,36358.980;2283,36358.980000230,00000077,479,-142,-64238,18,0,914*ffdb7a7c
%RAWIMUSA,2283,36358.990;2283,36358.990000230,00000077,472,-144,-64240,9,8,-237*395e6713
%RAWIMUSA,2283,36359.000;2283,36359.000000230,00000077,467,-144,-64238,0,0,-923*4d1fc979
%RAWIMUSA,2283,36359.010;2283,36359.010000230,00000077,472,-144,-64237,-9,0,-219*9f24585e
%RAWIMUSA,2283,36359.020;2283,36359.020000230,00000077,476,-146,-64241,28,-8,914*4f5fe33a
%RAWIMUSA,2283,36359.030;2283,36359.030000230,00000077,475,-140,-64239,18,9,676*48e019c0
%RAWIMUSA,2283,36359.040;2283,36359.040000230,00000077,466,-144,-64238,-9,0,-923*708f21d8
%RAWIMUSA,2283,36359.050;2283,36359.050000230,00000077,466,-145,-64238,-9,0,-923*92096e51
%RAWIMUSA,2283,36359.060;2283,36359.060000230,00000077,479,-144,-64237,9,0,667*94736607
%RAWIMUSA,2283,36359.070;2283,36359.070000230,00000077,474,-144,-64240,18,0,923*796111eb
%RAWIMUSA,2283,36359.080;2283,36359.080000230,00000077,468,-143,-64239,9,0,-210*33269768
%RAWIMUSA,2283,36359.090;2283,36359.090000230,00000077,467,-146,-64239,-9,8,-914*229cecca
%RAWIMUSA,2283,36359.100;2283,36359.100000230,00000077,476,-144,-64237,0,-9,-274*118f2618
%RAWIMUSA,2283,36359.110;2283,36359.110000230,00000077,476,-144,-64240,18,-8,914*e7915d97
%RAWIMUSA,2283,36359.120;2283,36359.120000230,00000077,465,-138,-64240,18,9,740*7648bb84
%RAWIMUSA,2283,36359.130;2283,36359.130000230,00000077,466,-158,-64242,0,8,-923*ee277099
%RAWIMUSA,2283,36359.140;2283,36359.140000230,00000077,476,-127,-64236,-27,0,-923*b599fa5c
%RAWIMUSA,2283,36359.150;2283,36359.150000230,00000077,479,-152,-64240,37,-8,612*6ab58740
%RAWIMUSA,2283,36359.160;2283,36359.160000230,00000077,469,-146,-64239,9,0,914*a8be2afc
%RAWIMUSA,2283,36359.170;2283,36359.170000230,00000077,464,-142,-64238,18,8,-155*04402943
%RAWIMUSA,2283,36359.180;2283,36359.180000230,00000077,476,-150,-64237,-27,8,-932*a75a0e07
%RAWIMUSA,2283,36359.190;2283,36359.190000230,00000077,476,-133,-64238,18,-18,-319*437fd94d
%RAWIMUSA,2283,36359.200;2283,36359.200000230,00000077,469,-155,-64241,0,0,914*8b1455d7
%RAWIMUSA,2283,36359.210;2283,36359.210000230,00000077,462,-131,-64238,37,0,786*b3d95dd5
%RAWIMUSA,2283,36359.220;2283,36359.220000230,00000077,479,-157,-64239,-18,17,-923*d728c898
%RAWIMUSA,2283,36359.230;2283,36359.230000230,00000077,475,-129,-64235,-9,-9,-923*841b2333
%RAWIMUSA,2283,36359.240;2283,36359.240000230,00000077,469,-164,-64239,9,-8,576*7510b298
%RAWIMUSA,2283,36359.250;2283,36359.250000230,00000077,462,-120,-64237,28,0,914*ae48ac09
%RAWIMUSA,2283,36359.260;2283,36359.260000230,00000077,478,-166,-64242,0,18,-100*404da7a6
%RAWIMUSA,2283,36359.270;2283,36359.270000230,00000077,478,-126,-64231,-9,0,-923*6f295b28
%RAWIMUSA,2283,36359.280;2283,36359.280000230,00000077,465,-169,-64245,9,-9,-383*52323ba3
%RAWIMUSA,2283,36359.290;2283,36359.290000230,00000077,464,-119,-64235,18,-8,914*e8c76130
%RAWIMUSA,2283,36359.300;2283,36359.300000230,00000077,472,-168,-64242,28,9,850*47dbf6d0
%RAWIMUSA,2283,36359.310;2283,36359.310000230,00000077,484,-124,-64235,-27,8,-923*f16c0f60
%RAWIMUSA,2283,36359.320;2283,36359.320000230,00000077,466,-164,-64241,9,-9,-923*a6b7d7a8
%RAWIMUSA,2283,36359.330;2283,36359.330000230,00000077,460,-120,-64235,0,0,512*48dbbd17
%RAWIMUSA,2283,36359.340;2283,36359.340000230,00000077,472,-166,-64243,37,0,923*829b8adf
%RAWIMUSA,2283,36359.350;2283,36359.350000230,00000077,485,-122,-64236,-18,9,-45*ed3e4246
%RAWIMUSA,2283,36359.360;2283,36359.360000230,00000077,470,-159,-64241,9,0,-932*dfd0dcad
%RAWIMUSA,2283,36359.370;2283,36359.370000230,00000077,465,-132,-64234,-18,-9,-411*3fb1d9b0
%RAWIMUSA,2283,36359.380;2283,36359.380000230,00000077,470,-146,-64240,46,-8,905*db355bca
%RAWIMUSA,2283,36359.390;2283,36359.390000230,00000077,485,-148,-64239,0,19,896*de79232e
%RAWIMUSA,2283,36359.400;2283,36359.400000230,00000077,469,-135,-64235,0,0,-923*22881ace
%RAWIMUSA,2283,36359.410;2283,36359.410000230,00000077,463,-158,-64240,-18,-9,-941*876b4621
%RAWIMUSA,2283,36359.420;2283,36359.420000230,00000077,471,-127,-64237,27,-8,466*711363b3
%RAWIMUSA,2283,36359.430;2283,36359.430000230,00000077,483,-165,-64245,18,9,914*0a378efd
%RAWIMUSA,2283,36359.440;2283,36359.440000230,00000077,473,-126,-64232,0,0,0*2421d5c1
%RAWIMUSA,2283,36359.450;2283,36359.450000230,00000077,460,-163,-64243,-9,8,-923*6800baf4
%RAWIMUSA,2283,36359.460;2283,36359.460000230,00000077,466,-124,-64236,9,-18,-466*7316e47a
%RAWIMUSA,2283,36359.470;2283,36359.470000230,00000077,483,-158,-64238,9,9,914*d8ba90ba
%RAWIMUSA,2283,36359.480;2283,36359.480000230,00000077,472,-138,-64238,28,0,923*aa4194c9
%RAWIMUSA,2283,36359.490;2283,36359.490000230,00000077,464,-150,-64241,-18,8,-896*010f9f6e
%RAWIMUSA,2283,36359.500;2283,36359.500000230,00000077,467,-139,-64238,0,-19,-941*e3e148cf
%RAWIMUSA,2283,36359.510;2283,36359.510000230,00000077,477,-141,-64237,9,0,420*533ab788
%RAWIMUSA,2283,36359.520;2283,36359.520000230,00000077,477,-151,-64242,37,0,914*56fe9da6
%RAWIMUSA,2283,36359.530;2283,36359.530000230,00000077,461,-132,-64237,-27,18,45*73e3d8cc
%RAWIMUSA,2283,36359.540;2283,36359.540000230,00000077,471,-156,-64241,18,-9,-923*cdbe0583
%RAWIMUSA,2283,36359.550;2283,36359.550000230,00000077,474,-127,-64235,-18,0,-530*4f9af38b
%RAWIMUSA,2283,36359.560;2283,36359.560000230,00000077,474,-167,-64243,46,-8,914*a5057a84
%RAWIMUSA,2283,36359.570;2283,36359.570000230,00000077,476,-119,-64236,0,9,914*b0aa714a
%RAWIMUSA,2283,36359.580;2283,36359.580000230,00000077,457,-161,-64239,-9,0,-850*f9d994c6
%RAWIMUSA,2283,36359.590;2283,36359.590000230,00000077,473,-127,-64232,-9,0,-923*3ed59b5b
%RAWIMUSA,2283,36359.600;2283,36359.600000230,00000077,485,-152,-64238,9,-18,365*dfa663be
%RAWIMUSA,2283,36359.610;2283,36359.610000230,00000077,467,-152,-64243,37,18,914*2d34c6ca
%RAWIMUSA,2283,36359.620;2283,36359.620000230,00000077,465,-127,-64235,-18,0,91*f77addca
%RAWIMUSA,2283,36359.630;2283,36359.630000230,00000077,466,-158,-64240,-9,0,-923*04c8b573
%RAWIMUSA,2283,36359.640;2283,36359.640000230,00000077,477,-141,-64240,18,-9,-575*efbfe8e0
%RAWIMUSA,2283,36359.650;2283,36359.650000230,00000077,480,-138,-64237,9,0,914*4e1aa309
%RAWIMUSA,2283,36359.660;2283,36359.660000230,00000077,463,-151,-64240,18,9,914*b1077af9
%RAWIMUSA,2283,36359.670;2283,36359.670000230,00000077,468,-140,-64236,0,8,-795*a6feaf98
%RAWIMUSA,2283,36359.680;2283,36359.680000230,00000077,477,-146,-64238,-18,-9,-923*0bf0ecb2
%RAWIMUSA,2283,36359.690;2283,36359.690000230,00000077,472,-149,-64237,27,-9,320*c835a7ce
%RAWIMUSA,2283,36359.700;2283,36359.700000230,00000077,473,-137,-64243,28,9,923*7d90e3f6
%RAWIMUSA,2283,36359.710;2283,36359.710000230,00000077,472,-147,-64237,-9,9,146*391a44a3
%RAWIMUSA,2283,36359.720;2283,36359.720000230,00000077,465,-150,-64236,-9,-9,-923*3d4f5c9e
%RAWIMUSA,2283,36359.730;2283,36359.730000230,00000077,468,-138,-64238,9,-9,-630*3619ebed
%RAWIMUSA,2283,36359.740;2283,36359.740000230,00000077,480,-145,-64240,18,0,914*51c54787
%RAWIMUSA,2283,36359.750;2283,36359.750000230,00000077,477,-153,-64238,9,9,914*6db25a8e
%RAWIMUSA,2283,36359.760;2283,36359.760000230,00000077,464,-140,-64240,-9,0,-740*95c3b2a3
%RAWIMUSA,2283,36359.770;2283,36359.770000230,00000077,468,-142,-64236,-9,0,-932*aada3bd0
%RAWIMUSA,2283,36359.780;2283,36359.780000230,00000077,483,-144,-64237,27,-9,265*188c167f
%RAWIMUSA,2283,36359.790;2283,36359.790000230,00000077,475,-145,-64238,18,9,914*a530fd3f
%RAWIMUSA,2283,36359.800;2283,36359.800000230,00000077,464,-147,-64239,0,9,201*7669c859
%RAWIMUSA,2283,36359.810;2283,36359.810000230,00000077,466,-141,-64238,-18,-9,-923*2194a269
%RAWIMUSA,2283,36359.820;2283,36359.820000230,00000077,481,-141,-64237,9,-9,-676*0b02822b
%RAWIMUSA,2283,36359.830;2283,36359.830000230,00000077,479,-151,-64240,28,9,914*43f8a21f
%RAWIMUSA,2283,36359.840;2283,36359.840000230,00000077,466,-143,-64237,9,0,923*a6539486
%RAWIMUSA,2283,36359.850;2283,36359.850000230,00000077,467,-141,-64240,-9,8,-703*6ec070f7
%RAWIMUSA,2283,36359.860;2283,36359.860000230,00000077,477,-149,-64239,-9,-9,-923*67c885ea
%RAWIMUSA,2283,36359.870;2283,36359.870000230,00000077,473,-138,-64235,27,0,210*0f8dc28b
%RAWIMUSA,2283,36359.880;2283,36359.880000230,00000077,469,-145,-64237,18,0,914*d1a0e8c5
%RAWIMUSA,2283,36359.890;2283,36359.890000230,00000077,469,-145,-64237,0,9,256*469b58df
%RAWIMUSA,2283,36359.900;2283,36359.900000230,00000077,478,-142,-64240,-18,-9,-923*7a7fbfe7
%RAWIMUSA,2283,36359.910;2283,36359.910000230,00000077,476,-143,-64239,9,0,-740*0e76f4a7
%RAWIMUSA,2283,36359.920;2283,36359.920000230,00000077,466,-145,-64237,28,0,923*5fb2c4ac
%RAWIMUSA,2283,36359.930;2283,36359.930000230,00000077,467,-146,-64240,9,9,914*61b9cca4
%RAWIMUSA,2283,36359.940;2283,36359.940000230,00000077,476,-149,-64240,-9,0,-639*0b1ec774
%RAWIMUSA,2283,36359.950;2283,36359.950000230,00000077,472,-139,-64236,0,-9,-932*a4a769a8
%RAWIMUSA,2283,36359.960;2283,36359.960000230,00000077,464,-141,-64240,18,-9,164*44766c32
%RAWIMUSA,2283,36359.970;2283,36359.970000230,00000077,473,-146,-64239,28,19,923*e9474a87
%RAWIMUSA,2283,36359.980;2283,36359.980000230,00000077,479,-144,-64239,-8,0,301*919a64f5
%RAWIMUSA,2283,36359.990;2283,36359.990000230,00000077,472,-142,-64238,-18,-9,-923*6c56eff9
%RAWIMUSA,2283,36360.000;2283,36360.000000230,00000077,466,-140,-64239,18,-9,-777*4e691224
%RAWIMUSA,2283,36360.010;2283,36360.010000230,00000077,468,-141,-64239,28,9,923*15e1e57b
%RAWIMUSA,2283,36360.020;2283,36360.020000230,00000077,479,-147,-64238,0,9,914*c96e8b11
%RAWIMUSA,2283,36360.030;2283,36360.030000230,00000077,475,-149,-64239,-9,-9,-612*a508bc71
%RAWIMUSA,2283,36360.040;2283,36360.040000230,00000077,462,-139,-64238,0,-9,-923*891e5c4c
%RAWIMUSA,2283,36360.050;2283,36360.050000230,00000077,469,-144,-64240,18,0,118*99e4bdf4
%RAWIMUSA,2283,36360.060;2283,36360.060000230,00000077,480,-147,-64239,28,9,905*a7aa2fac
%RAWIMUSA,2283,36360.070;2283,36360.070000230,00000077,474,-143,-64239,-18,9,347*fa69e9ee
%RAWIMUSA,2283,36360.080;2283,36360.080000230,00000077,466,-143,-64240,-9,-9,-932*4f2627bb
%RAWIMUSA,2283,36360.090;2283,36360.090000230,00000077,471,-141,-64238,18,-9,-813*f9008600
%RAWIMUSA,2283,36360.100;2283,36360.100000230,00000077,478,-148,-64238,28,9,905*6ff48819
%RAWIMUSA,2283,36360.110;2283,36360.110000230,00000077,473,-143,-64239,0,9,914*b7770e8f
%RAWIMUSA,2283,36360.120;2283,36360.120000230,00000077,469,-140,-64237,-9,-9,-548*393ff80f
%RAWIMUSA,2283,36360.130;2283,36360.130000230,00000077,473,-150,-64238,0,0,-923*9900c299
%RAWIMUSA,2283,36360.140;2283,36360.140000230,00000077,479,-146,-64236,27,0,64*5f267297
%RAWIMUSA,2283,36360.150;2283,36360.150000230,00000077,472,-137,-64237,18,0,923*44c7a1e1
%RAWIMUSA,2283,36360.160;2283,36360.160000230,00000077,466,-147,-64239,-18,9,402*c28b6bd3
%RAWIMUSA,2283,36360.170;2283,36360.170000230,00000077,471,-149,-64235,-9,-9,-923*21d61d09
%RAWIMUSA,2283,36360.180;2283,36360.180000230,00000077,479,-142,-64237,18,-9,-877*81d95ba9
%RAWIMUSA,2283,36360.190;2283,36360.190000230,00000077,470,-139,-64240,28,9,914*9191ca83
%RAWIMUSA,2283,36360.200;2283,36360.200000230,00000077,466,-147,-64241,0,9,923*f146a045
%RAWIMUSA,2283,36360.210;2283,36360.210000230,00000077,471,-148,-64240,-9,-9,-502*b4282707
%RAWIMUSA,2283,36360.220;2283,36360.220000230,00000077,474,-143,-64239,0,-9,-923*d6f6b643
%RAWIMUSA,2283,36360.230;2283,36360.230000230,00000077,472,-140,-64238,18,9,18*d5020904
%RAWIMUSA,2283,36360.240;2283,36360.240000230,00000077,468,-147,-64239,28,0,914*236802d3
%RAWIMUSA,2283,36360.250;2283,36360.250000230,00000077,473,-148,-64240,-18,9,448*764357c6
%RAWIMUSA,2283,36360.260;2283,36360.260000230,00000077,475,-141,-64240,-9,-9,-923*5c0b394d
%RAWIMUSA,2283,36360.270;2283,36360.270000230,00000077,470,-144,-64239,18,-9,-923*03f53bf0
%RAWIMUSA,2283,36360.280;2283,36360.280000230,00000077,468,-147,-64237,18,9,914*f92da08e
%RAWIMUSA,2283,36360.290;2283,36360.290000230,00000077,474,-143,-64239,9,9,914*9b1c326f
%RAWIMUSA,2283,36360.300;2283,36360.300000230,00000077,475,-144,-64236,-18,-9,-438*6834c0c7
%RAWIMUSA,2283,36360.310;2283,36360.310000230,00000077,470,-143,-64239,9,-9,-923*2f1097a0
%RAWIMUSA,2283,36360.320;2283,36360.320000230,00000077,472,-145,-64241,18,0,-27*c801ced7
%RAWIMUSA,2283,36360.330;2283,36360.330000230,00000077,472,-145,-64238,18,9,923*b5ee0bd0
%RAWIMUSA,2283,36360.340;2283,36360.340000230,00000077,471,-146,-64238,-8,0,493*883e5cad
