%RAWIMUSA,2283,36234.140;2283,36234.140000296,00000077,-487,0,64187,-55,0,466*a34000e8
%RAWIMUSA,2283,36234.150;2283,36234.150000296,00000077,-507,149,64157,-9,8,-905*e9bbd079
%RAWIMUSA,2283,36234.160;2283,36234.160000296,00000077,-510,62,64177,55,0,-923*ac8b3d1f
%RAWIMUSA,2283,36234.170;2283,36234.170000296,00000077,-490,43,64178,-64,0,896*4c1b2a8f
%RAWIMUSA,2283,36234.180;2283,36234.180000296,00000077,-489,133,64157,110,-8,923*aa914ee6
%RAWIMUSA,2283,36234.190;2283,36234.190000296,00000077,-505,14,64184,-64,8,-420*1613aad2
%RAWIMUSA,2283,36234.200;2283,36234.200000296,00000077,-508,134,64164,-27,0,-914*9553e030
%RAWIMUSA,2283,36234.210;2283,36234.210000296,00000077,-492,57,64172,92,0,-36*30d02fbd
%RAWIMUSA,2283,36234.220;2283,36234.220000296,00000077,-495,36,64183,-73,-8,914*aa660b17
%RAWIMUSA,2283,36234.230;2283,36234.230000296,00000077,-508,165,64159,83,0,530*c0e48204
%RAWIMUSA,2283,36234.240;2283,36234.240000296,00000077,-498,3,64184,-36,8,-914*9895eae6
%RAWIMUSA,2283,36234.250;2283,36234.250000296,00000077,-498,103,64163,-46,8,-923*65716876
%RAWIMUSA,2283,36234.260;2283,36234.260000296,00000077,-502,90,64168,120,-8,850*1e13321f
%RAWIMUSA,2283,36234.270;2283,36234.270000296,00000077,-502,33,64184,-82,-8,923*f2eca27d
%RAWIMUSA,2283,36234.280;2283,36234.280000296,00000077,-503,157,64158,46,8,-374*c2a3013c
%RAWIMUSA,2283,36234.290;2283,36234.290000296,00000077,-495,11,64184,-9,8,-923*35f72287
%RAWIMUSA,2283,36234.300;2283,36234.300000296,00000077,-500,91,64170,-36,0,-91*2af0b86f
%RAWIMUSA,2283,36234.310;2283,36234.310000296,00000077,-503,121,64162,120,-17,923*52fb830e
%RAWIMUSA,2283,36234.320;2283,36234.320000296,00000077,-500,17,64185,-91,9,585*fc16d552
%RAWIMUSA,2283,36234.330;2283,36234.330000296,00000077,-493,142,64156,27,0,-923*d38b642a
%RAWIMUSA,2283,36234.340;2283,36234.340000296,00000077,-500,29,64181,27,0,-914*1c7c2f83
%RAWIMUSA,2283,36234.350;2283,36234.350000296,00000077,-505,92,64175,-54,0,795*f1f1e78b
%RAWIMUSA,2283,36234.360;2283,36234.360000296,00000077,-499,127,64162,120,-8,941*8d8db5cb
%RAWIMUSA,2283,36234.370;2283,36234.370000296,00000077,-497,-14,64184,-82,8,-319*ce75845d
%RAWIMUSA,2283,36234.380;2283,36234.380000296,00000077,-501,143,64161,-9,8,-923*8cfd86c4
%RAWIMUSA,2283,36234.390;2283,36234.390000296,00000077,-497,71,64173,83,0,-146*a09eafdc
%RAWIMUSA,2283,36234.400;2283,36234.400000296,00000077,-497,52,64184,-73,-8,923*9daa45b5
%RAWIMUSA,2283,36234.410;2283,36234.410000296,00000077,-504,133,64158,83,0,631*3d932465
%RAWIMUSA,2283,36234.420;2283,36234.420000296,00000077,-503,0,64183,-46,8,-923*3bc4fabb
%RAWIMUSA,2283,36234.430;2283,36234.430000296,00000077,-500,133,64162,-18,0,-932*5faf00f9
%RAWIMUSA,2283,36234.440;2283,36234.440000296,00000077,-495,78,64174,101,-8,740*6dead28c
%RAWIMUSA,2283,36234.450;2283,36234.450000296,00000077,-497,26,64181,-82,0,923*b86b1b56
%RAWIMUSA,2283,36234.460;2283,36234.460000296,00000077,-509,152,64160,55,8,-265*0ff2e517
%RAWIMUSA,2283,36234.470;2283,36234.470000296,00000077,-505,28,64184,-27,8,-914*8b8447f6
%RAWIMUSA,2283,36234.480;2283,36234.480000296,00000077,-491,104,64165,-27,-9,-201*63b95dcf
%RAWIMUSA,2283,36234.490;2283,36234.490000296,00000077,-497,80,64166,110,-8,932*62cdc3e3
%RAWIMUSA,2283,36234.500;2283,36234.500000295,00000077,-513,33,64178,-91,0,667*02191dff
%RAWIMUSA,2283,36234.510;2283,36234.510000295,00000077,-503,157,64160,46,8,-914*8b9031c5
%RAWIMUSA,2283,36234.520;2283,36234.520000295,00000077,-486,20,64184,0,0,-914*cbe26436
%RAWIMUSA,2283,36234.530;2283,36234.530000295,00000077,-501,92,64168,-27,-8,695*197ff3e9
%RAWIMUSA,2283,36234.540;2283,36234.540000295,00000077,-509,102,64168,101,0,923*682f794c
%RAWIMUSA,2283,36234.550;2283,36234.550000295,00000077,-499,27,64188,-101,9,-219*241dc39a
%RAWIMUSA,2283,36234.560;2283,36234.560000295,00000077,-498,154,64155,36,0,-905*c9037435
%RAWIMUSA,2283,36234.570;2283,36234.570000295,00000077,-498,17,64180,36,-9,-246*7138d0cd
%RAWIMUSA,2283,36234.580;2283,36234.580000295,00000077,-498,81,64169,-45,0,923*b7b6ee61
%RAWIMUSA,2283,36234.590;2283,36234.590000295,00000077,-506,126,64164,101,0,731*5bf7f478
%RAWIMUSA,2283,36234.600;2283,36234.600000295,00000077,-497,4,64189,-101,8,-923*a1ad36a3
%RAWIMUSA,2283,36234.610;2283,36234.610000295,00000077,-498,140,64156,36,0,-923*9b89e221
%RAWIMUSA,2283,36234.620;2283,36234.620000295,00000077,-499,40,64177,64,-8,640*83cdd315
%RAWIMUSA,2283,36234.630;2283,36234.630000295,00000077,-504,75,64178,-73,0,914*5b28a5a3
%RAWIMUSA,2283,36234.640;2283,36234.640000295,00000077,-502,134,64163,83,0,-164*f7ab86e0
%RAWIMUSA,2283,36234.650;2283,36234.650000295,00000077,-492,-5,64183,-73,8,-923*432c0853
%RAWIMUSA,2283,36234.660;2283,36234.660000295,00000077,-502,137,64157,18,-9,-292*9993ac4a
%RAWIMUSA,2283,36234.670;2283,36234.670000295,00000077,-503,70,64175,92,-8,923*83810cdb
%RAWIMUSA,2283,36234.680;2283,36234.680000295,00000077,-495,44,64180,-101,9,777*82654c10
%RAWIMUSA,2283,36234.690;2283,36234.690000295,00000077,-503,139,64155,73,17,-905*62e8d99f
%RAWIMUSA,2283,36234.700;2283,36234.700000295,00000077,-507,9,64187,-18,-9,-923*65e1a5a3
%RAWIMUSA,2283,36234.710;2283,36234.710000295,00000077,-494,129,64164,-8,-8,603*3b18ace1
%RAWIMUSA,2283,36234.720;2283,36234.720000295,00000077,-496,74,64169,83,0,923*8764b194
%RAWIMUSA,2283,36234.730;2283,36234.730000295,00000077,-506,33,64179,-101,9,-118*3a16ae41
%RAWIMUSA,2283,36234.740;2283,36234.740000295,00000077,-507,145,64159,64,0,-914*07b0a60a
%RAWIMUSA,2283,36234.750;2283,36234.750000295,00000077,-489,26,64184,0,-9,-347*15a36f3f
%RAWIMUSA,2283,36234.760;2283,36234.760000295,00000077,-493,114,64167,-8,0,932*4daec8d6
%RAWIMUSA,2283,36234.770;2283,36234.770000295,00000077,-508,68,64168,74,0,823*73b45200
%RAWIMUSA,2283,36234.780;2283,36234.780000295,00000077,-508,42,64180,-101,8,-923*176982ba
%RAWIMUSA,2283,36234.790;2283,36234.790000295,00000077,-491,160,64158,73,0,-923*a21629db
%RAWIMUSA,2283,36234.800;2283,36234.800000295,00000077,-493,9,64186,9,-8,548*9ea51ca6
%RAWIMUSA,2283,36234.810;2283,36234.810000295,00000077,-507,98,64164,-45,0,923*e98b2f67
%RAWIMUSA,2283,36234.820;2283,36234.820000295,00000077,-509,100,64166,83,8,-73*33b9bf89
%RAWIMUSA,2283,36234.830;2283,36234.830000295,00000077,-492,35,64182,-92,0,-905*0d0cd0f8
%RAWIMUSA,2283,36234.840;2283,36234.840000295,00000077,-494,140,64161,73,-9,-411*ef4ea424
%RAWIMUSA,2283,36234.850;2283,36234.850000295,00000077,-503,20,64180,28,0,923*b34ad0a3
%RAWIMUSA,2283,36234.860;2283,36234.860000295,00000077,-505,98,64171,-73,9,877*f73e3184
%RAWIMUSA,2283,36234.870;2283,36234.870000295,00000077,-496,114,64161,82,8,-905*d1dc9db9
%RAWIMUSA,2283,36234.880;2283,36234.880000295,00000077,-497,15,64185,-73,-9,-923*767e5ee2
%RAWIMUSA,2283,36234.890;2283,36234.890000295,00000077,-505,136,64159,64,-8,493*2c38b9a3
%RAWIMUSA,2283,36234.900;2283,36234.900000295,00000077,-501,37,64176,28,0,932*6d114d8c
%RAWIMUSA,2283,36234.910;2283,36234.910000295,00000077,-499,86,64173,-82,9,-18*c0c0036e
%RAWIMUSA,2283,36234.920;2283,36234.920000295,00000077,-497,125,64166,92,0,-914*a0b07575
%RAWIMUSA,2283,36234.930;2283,36234.930000295,00000077,-501,-1,64187,-55,-9,-447*b11a42c0
%RAWIMUSA,2283,36234.940;2283,36234.940000295,00000077,-507,143,64156,37,0,932*917ddb15
%RAWIMUSA,2283,36234.950;2283,36234.950000295,00000077,-496,56,64176,46,9,923*69813180
%RAWIMUSA,2283,36234.960;2283,36234.960000295,00000077,-491,61,64176,-101,8,-905*8397e156
%RAWIMUSA,2283,36234.970;2283,36234.970000295,00000077,-505,127,64161,110,-10,-914*1ef51be9
%RAWIMUSA,2283,36234.980;2283,36234.980000295,00000077,-510,12,64185,-36,-8,448*6bd2b287
%RAWIMUSA,2283,36234.990;2283,36234.990000295,00000077,-495,140,64161,0,9,923*e3b647e2
%RAWIMUSA,2283,36235.000;2283,36235.000000295,00000077,-491,55,64176,46,0,36*da0e3965
%RAWIMUSA,2283,36235.010;2283,36235.010000295,00000077,-501,54,64179,-92,0,-932*7d9a3670
%RAWIMUSA,2283,36235.020;2283,36235.020000295,00000077,-509,146,64159,110,-9,-484*d5bbf040
%RAWIMUSA,2283,36235.030;2283,36235.030000295,00000077,-495,6,64184,-18,0,923*c2700098
%RAWIMUSA,2283,36235.040;2283,36235.040000295,00000077,-490,127,64168,-36,9,923*496b8ccd
%RAWIMUSA,2283,36235.050;2283,36235.050000295,00000077,-502,77,64171,73,8,-868*aee7966c
%RAWIMUSA,2283,36235.060;2283,36235.060000295,00000077,-510,35,64180,-83,-9,-932*ec2635a1
%RAWIMUSA,2283,36235.070;2283,36235.070000295,00000077,-499,152,64156,92,-9,402*aa722665
%RAWIMUSA,2283,36235.080;2283,36235.080000295,00000077,-489,17,64183,-8,9,923*89528dd5
%RAWIMUSA,2283,36235.090;2283,36235.090000295,00000077,-500,104,64169,-64,9,91*6fbe7e78
%RAWIMUSA,2283,36235.100;2283,36235.100000295,00000077,-509,89,64165,92,-10,-905*36491176
%RAWIMUSA,2283,36235.110;2283,36235.110000295,00000077,-501,27,64181,-73,-9,-548*99f7513c
%RAWIMUSA,2283,36235.120;2283,36235.120000295,00000077,-492,150,64160,74,0,914*9ca7c4f6
%RAWIMUSA,2283,36235.130;2283,36235.130000295,00000077,-494,19,64183,-8,9,923*f3b929f7
%RAWIMUSA,2283,36235.140;2283,36235.140000295,00000077,-508,94,64170,-73,0,-822*99fae91d
%RAWIMUSA,2283,36235.150;2283,36235.150000295,00000077,-502,106,64163,110,-10,-923*55c66a8e
%RAWIMUSA,2283,36235.160;2283,36235.160000295,00000077,-492,15,64186,-64,0,347*f065d21e
%RAWIMUSA,2283,36235.170;2283,36235.170000295,00000077,-494,139,64160,46,0,932*35e4b3a4
%RAWIMUSA,2283,36235.180;2283,36235.180000295,00000077,-507,32,64175,9,9,118*b7df8d62
%RAWIMUSA,2283,36235.190;2283,36235.190000295,00000077,-501,92,64171,-73,0,-914*8b07ae28
%RAWIMUSA,2283,36235.200;2283,36235.200000295,00000077,-490,114,64163,119,-9,-594*41ebdebb
%RAWIMUSA,2283,36235.210;2283,36235.210000295,00000077,-497,6,64187,-54,0,923*9d4740a4
%RAWIMUSA,2283,36235.220;2283,36235.220000295,00000077,-510,147,64156,9,9,914*1feec796
%RAWIMUSA,2283,36235.230;2283,36235.230000295,00000077,-500,42,64174,27,0,-758*f1620ac8
%RAWIMUSA,2283,36235.240;2283,36235.240000295,00000077,-489,70,64176,-64,-9,-914*e228a547
%RAWIMUSA,2283,36235.250;2283,36235.250000295,00000077,-498,128,64162,120,0,301*d3bf2a78
%RAWIMUSA,2283,36235.260;2283,36235.260000295,00000077,-509,12,64185,-64,0,932*f51fa745
%RAWIMUSA,2283,36235.270;2283,36235.270000295,00000077,-500,141,64160,0,9,182*b6bc4e74
%RAWIMUSA,2283,36235.280;2283,36235.280000295,00000077,-490,46,64176,55,-10,-923*aa397a02
%RAWIMUSA,2283,36235.290;2283,36235.290000295,00000077,-500,59,64178,-64,0,-658*f92facde
%RAWIMUSA,2283,36235.300;2283,36235.300000295,00000077,-511,147,64158,101,0,923*1c0c1cd8
%RAWIMUSA,2283,36235.310;2283,36235.310000295,00000077,-501,10,64182,-54,9,932*0ad1452a
%RAWIMUSA,2283,36235.320;2283,36235.320000295,00000077,-491,128,64164,-27,0,-713*401f4dcf
%RAWIMUSA,2283,36235.330;2283,36235.330000295,00000077,-496,64,64171,92,-10,-914*7df0e412
%RAWIMUSA,2283,36235.340;2283,36235.340000295,00000077,-510,44,64181,-64,-9,237*eddb4c8e
%RAWIMUSA,2283,36235.350;2283,36235.350000295,00000077,-496,142,64160,74,9,932*09404d9d
%RAWIMUSA,2283,36235.360;2283,36235.360000295,00000077,-490,15,64187,-45,9,228*7d176e9f
%RAWIMUSA,2283,36235.370;2283,36235.370000295,00000077,-509,122,64162,-18,0,-905*3ec74caa
%RAWIMUSA,2283,36235.380;2283,36235.380000295,00000077,-510,66,64171,92,-19,-703*281d86ba
%RAWIMUSA,2283,36235.390;2283,36235.390000295,00000077,-486,48,64175,-73,9,923*a8441014
%RAWIMUSA,2283,36235.400;2283,36235.400000295,00000077,-493,138,64159,64,0,932*5dd65bd9
%RAWIMUSA,2283,36235.410;2283,36235.410000295,00000077,-511,11,64184,-46,8,-658*cd296dab
%RAWIMUSA,2283,36235.420;2283,36235.420000295,00000077,-509,120,64166,-9,-9,-914*bd927044
%RAWIMUSA,2283,36235.430;2283,36235.430000295,00000077,-488,80,64172,110,-9,210*8c619b10
%RAWIMUSA,2283,36235.440;2283,36235.440000295,00000077,-492,33,64180,-100,9,923*a39efeea
%RAWIMUSA,2283,36235.450;2283,36235.450000295,00000077,-510,146,64159,55,9,283*e8911bf3
%RAWIMUSA,2283,36235.460;2283,36235.460000295,00000077,-506,15,64184,-9,-9,-923*8084efd6
%RAWIMUSA,2283,36235.470;2283,36235.470000295,00000077,-489,112,64166,-27,-9,-749*2bd42c1e
%RAWIMUSA,2283,36235.480;2283,36235.480000295,00000077,-494,94,64166,101,9,923*2192efc5
%RAWIMUSA,2283,36235.490;2283,36235.490000295,00000077,-512,25,64182,-100,9,932*2497305d
%RAWIMUSA,2283,36235.500;2283,36235.500000295,00000077,-508,148,64160,46,-9,-612*71fa5cc3
%RAWIMUSA,2283,36235.510;2283,36235.510000295,00000077,-490,20,64183,27,-9,-923*f93c196e
%RAWIMUSA,2283,36235.520;2283,36235.520000295,00000077,-491,95,64169,-36,0,146*729ebc04
%RAWIMUSA,2283,36235.530;2283,36235.530000295,00000077,-508,114,64165,83,9,923*fd207142
%RAWIMUSA,2283,36235.540;2283,36235.540000295,00000077,-507,18,64184,-91,9,338*de617290
%RAWIMUSA,2283,36235.550;2283,36235.550000295,00000077,-495,143,64161,46,-19,-914*53cbf538
%RAWIMUSA,2283,36235.560;2283,36235.560000295,00000077,-486,35,64180,46,0,-795*26ae05ca
%RAWIMUSA,2283,36235.570;2283,36235.570000295,00000077,-506,81,64167,-54,9,914*a41672b5
%RAWIMUSA,2283,36235.580;2283,36235.580000295,00000077,-521,117,64159,83,0,932*2c644d7f
%RAWIMUSA,2283,36235.590;2283,36235.590000295,00000077,-492,12,64186,-82,0,-575*934fe17b
%RAWIMUSA,2283,36235.600;2283,36235.600000295,00000077,-473,146,64160,46,-10,-914*3669ca80
%RAWIMUSA,2283,36235.610;2283,36235.610000295,00000077,-507,38,64180,55,0,100*a4bef6a0
%RAWIMUSA,2283,36235.620;2283,36235.620000295,00000077,-522,69,64177,-82,9,923*a3951091
%RAWIMUSA,2283,36235.630;2283,36235.630000295,00000077,-493,130,64159,83,0,384*9449398c
%RAWIMUSA,2283,36235.640;2283,36235.640000295,00000077,-482,9,64185,-64,0,-914*98a71edb
%RAWIMUSA,2283,36235.650;2283,36235.650000295,00000077,-510,139,64157,36,-9,-859*db23587e
%RAWIMUSA,2283,36235.660;2283,36235.660000295,00000077,-520,51,64173,55,9,923*9ac517a2
%RAWIMUSA,2283,36235.670;2283,36235.670000295,00000077,-488,54,64180,-101,9,914*1021518d
%RAWIMUSA,2283,36235.680;2283,36235.680000295,00000077,-480,137,64160,82,-9,-511*82f0a075
%RAWIMUSA,2283,36235.690;2283,36235.690000295,00000077,-514,6,64186,-27,-9,-914*07d610cf
%RAWIMUSA,2283,36235.700;2283,36235.700000295,00000077,-517,134,64160,9,0,45*49b2f228
%RAWIMUSA,2283,36235.710;2283,36235.710000295,00000077,-490,64,64174,64,9,923*353ff7a9
%RAWIMUSA,2283,36235.720;2283,36235.720000295,00000077,-482,39,64178,-110,9,438*f800776c
%RAWIMUSA,2283,36235.730;2283,36235.730000295,00000077,-511,148,64157,92,-10,-932*eee5249e
%RAWIMUSA,2283,36235.740;2283,36235.740000295,00000077,-517,12,64184,0,-9,-886*59d41e43
%RAWIMUSA,2283,36235.750;2283,36235.750000295,00000077,-489,122,64166,-36,9,914*6f47db9d
%RAWIMUSA,2283,36235.760;2283,36235.760000295,00000077,-481,84,64170,83,9,923*0b6fd2c0
%RAWIMUSA,2283,36235.770;2283,36235.770000295,00000077,-508,27,64185,-101,0,-466*0deff287
%RAWIMUSA,2283,36235.780;2283,36235.780000295,00000077,-517,152,64158,82,-10,-905*fbf41aad
%RAWIMUSA,2283,36235.790;2283,36235.790000295,00000077,-488,15,64185,18,0,0*7f7b05fb
%RAWIMUSA,2283,36235.800;2283,36235.800000295,00000077,-482,93,64170,-64,9,914*84c0af04
%RAWIMUSA,2283,36235.810;2283,36235.810000295,00000077,-511,111,64162,83,0,475*5debd84e
%RAWIMUSA,2283,36235.820;2283,36235.820000295,00000077,-516,21,64185,-83,-9,-914*95432eda
%RAWIMUSA,2283,36235.830;2283,36235.830000295,00000077,-489,143,64159,64,0,-914*edadffc9
%RAWIMUSA,2283,36235.840;2283,36235.840000295,00000077,-482,22,64183,28,9,887*7bfd675d
%RAWIMUSA,2283,36235.850;2283,36235.850000295,00000077,-510,85,64172,-82,9,923*a57deccc
%RAWIMUSA,2283,36235.860;2283,36235.860000295,00000077,-519,124,64159,92,-18,-411*930745b0
%RAWIMUSA,2283,36235.870;2283,36235.870000295,00000077,-485,3,64188,-55,0,-914*2a5c9f80
%RAWIMUSA,2283,36235.880;2283,36235.880000295,00000077,-480,137,64159,55,0,-45*877e03e0
%RAWIMUSA,2283,36235.890;2283,36235.890000295,00000077,-515,46,64179,18,9,914*022b2b2d
%RAWIMUSA,2283,36235.900;2283,36235.900000295,00000077,-518,75,64174,-91,0,539*0a13d9ba
%RAWIMUSA,2283,36235.910;2283,36235.910000295,00000077,-486,125,64164,110,-10,-923*b7370fab
%RAWIMUSA,2283,36235.920;2283,36235.920000295,00000077,-480,1,64185,-46,0,-914*2fa0e2f4
%RAWIMUSA,2283,36235.930;2283,36235.930000295,00000077,-511,148,64161,18,9,850*4df095f1
%RAWIMUSA,2283,36235.940;2283,36235.940000295,00000077,-519,59,64176,37,9,923*8ad44fca
%RAWIMUSA,2283,36235.950;2283,36235.950000295,00000077,-490,49,64177,-92,-9,-365*72465cc7
%RAWIMUSA,2283,36235.960;2283,36235.960000295,00000077,-485,131,64159,110,-10,-914*e879640e
%RAWIMUSA,2283,36235.970;2283,36235.970000295,00000077,-505,13,64184,-27,9,-109*c1563282
%RAWIMUSA,2283,36235.980;2283,36235.980000295,00000077,-516,140,64160,-18,9,923*3f31dd20
%RAWIMUSA,2283,36235.990;2283,36235.990000295,00000077,-491,62,64175,55,-8,594*c3a5c92b
%RAWIMUSA,2283,36236.000;2283,36236.000000295,00000077,-484,34,64182,-83,-9,-923*593d3234
%RAWIMUSA,2283,36236.010;2283,36236.010000295,00000077,-511,157,64155,110,0,-914*1451bea6
%RAWIMUSA,2283,36236.020;2283,36236.020000295,00000077,-516,10,64185,-27,9,795*19d20eb2
%RAWIMUSA,2283,36236.030;2283,36236.030000295,00000077,-486,112,64166,-45,0,932*9dd5c170
%RAWIMUSA,2283,36236.040;2283,36236.040000295,00000077,-485,85,64171,83,-9,-319*0e36c490
%RAWIMUSA,2283,36236.050;2283,36236.050000295,00000077,-513,41,64180,-73,0,-923*5dd33ca3
%RAWIMUSA,2283,36236.060;2283,36236.060000295,00000077,-514,145,64159,92,0,-146*b4c84a65
%RAWIMUSA,2283,36236.070;2283,36236.070000295,00000077,-487,8,64185,-27,9,923*682c8b25
%RAWIMUSA,2283,36236.080;2283,36236.080000295,00000077,-482,111,64168,-64,0,640*1d88531e
%RAWIMUSA,2283,36236.090;2283,36236.090000295,00000077,-516,104,64165,110,-10,-914*29a564fe
%RAWIMUSA,2283,36236.100;2283,36236.100000295,00000077,-517,19,64187,-73,0,-923*2df00d28
%RAWIMUSA,2283,36236.110;2283,36236.110000295,00000077,-486,143,64159,55,0,749*6b59f21e
%RAWIMUSA,2283,36236.120;2283,36236.120000295,00000077,-485,21,64181,-8,9,923*fe7aacf0
%RAWIMUSA,2283,36236.130;2283,36236.130000295,00000077,-512,100,64168,-64,-9,-265*36262e95
%RAWIMUSA,2283,36236.140;2283,36236.140000295,00000077,-514,111,64164,119,-10,-905*a221e7a3
%RAWIMUSA,2283,36236.150;2283,36236.150000295,00000077,-488,9,64184,-64,9,-201*bc08e19a
%RAWIMUSA,2283,36236.160;2283,36236.160000295,00000077,-485,148,64159,28,9,914*546fb9b2
%RAWIMUSA,2283,36236.170;2283,36236.170000295,00000077,-510,41,64180,9,0,685*42a3b768
%RAWIMUSA,2283,36236.180;2283,36236.180000295,00000077,-512,74,64171,-55,-9,-923*3fb793e9
%RAWIMUSA,2283,36236.190;2283,36236.190000295,00000077,-492,115,64164,119,0,-914*54ea9edf
%RAWIMUSA,2283,36236.200;2283,36236.200000295,00000077,-484,19,64185,-73,9,685*23ffc832
%RAWIMUSA,2283,36236.210;2283,36236.210000295,00000077,-510,140,64157,9,0,923*710816de
%RAWIMUSA,2283,36236.220;2283,36236.220000295,00000077,-515,48,64175,36,-9,-219*a0df5596
%RAWIMUSA,2283,36236.230;2283,36236.230000295,00000077,-490,67,64176,-55,0,-923*66c1905a
%RAWIMUSA,2283,36236.240;2283,36236.240000295,00000077,-488,130,64163,101,0,-237*4e245700
%RAWIMUSA,2283,36236.250;2283,36236.250000295,00000077,-509,17,64184,-73,9,914*1f2dcab1
%RAWIMUSA,2283,36236.260;2283,36236.260000295,00000077,-512,133,64158,9,-8,731*ec61d587
%RAWIMUSA,2283,36236.270;2283,36236.270000295,00000077,-488,45,64181,55,-10,-914*fc751a1d
%RAWIMUSA,2283,36236.280;2283,36236.280000295,00000077,-489,79,64176,-55,8,-914*811df2e6
%RAWIMUSA,2283,36236.290;2283,36236.290000295,00000077,-510,123,64160,83,9,640*dd761442
%RAWIMUSA,2283,36236.300;2283,36236.300000295,00000077,-518,2,64182,-73,0,914*82f55ec1
%RAWIMUSA,2283,36236.310;2283,36236.310000295,00000077,-486,141,64160,18,-9,-155*498b41ec
%RAWIMUSA,2283,36236.320;2283,36236.320000295,00000077,-484,53,64175,64,0,-923*acfc89a6
%RAWIMUSA,2283,36236.330;2283,36236.330000295,00000077,-515,69,64176,-64,8,-301*15f00804
%RAWIMUSA,2283,36236.340;2283,36236.340000295,00000077,-514,120,64162,74,0,923*8617b294
%RAWIMUSA,2283,36236.350;2283,36236.350000295,00000077,-481,8,64184,-73,-8,777*0b7deb33
%RAWIMUSA,2283,36236.360;2283,36236.360000295,00000077,-489,142,64159,27,-9,-914*572cec71
%RAWIMUSA,2283,36236.370;2283,36236.370000295,00000077,-513,51,64177,73,8,-914*bd263360
%RAWIMUSA,2283,36236.380;2283,36236.380000295,00000077,-510,54,64178,-82,9,585*6556985e
%RAWIMUSA,2283,36236.390;2283,36236.390000295,00000077,-485,139,64160,74,-8,932*fc4378a5
%RAWIMUSA,2283,36236.400;2283,36236.400000295,00000077,-487,7,64186,-36,-9,-118*b4173006
%RAWIMUSA,2283,36236.410;2283,36236.410000294,00000077,-514,128,64165,0,8,-905*3c6009e0
%RAWIMUSA,2283,36236.420;2283,36236.420000294,00000077,-511,63,64170,92,0,-347*4a491aac
%RAWIMUSA,2283,36236.430;2283,36236.430000294,00000077,-487,46,64180,-110,0,914*0de80295
%RAWIMUSA,2283,36236.440;2283,36236.440000294,00000077,-486,150,64155,64,0,823*c985bda8
%RAWIMUSA,2283,36236.450;2283,36236.450000294,00000077,-509,6,64182,0,-9,-914*00549fac
%RAWIMUSA,2283,36236.460;2283,36236.460000294,00000077,-512,118,64170,-9,0,-914*ea2614de
%RAWIMUSA,2283,36236.470;2283,36236.470000294,00000077,-491,89,64167,74,9,548*f83bfde9
%RAWIMUSA,2283,36236.480;2283,36236.480000294,00000077,-485,34,64181,-100,0,914*2cc0f599
%RAWIMUSA,2283,36236.490;2283,36236.490000294,00000077,-508,148,64157,64,-9,-63*9b7b372a
%RAWIMUSA,2283,36236.500;2283,36236.500000294,00000077,-507,11,64185,18,0,-923*983ea3c9
%RAWIMUSA,2283,36236.510;2283,36236.510000294,00000077,-489,104,64171,-46,8,-402*a5c73b70
%RAWIMUSA,2283,36236.520;2283,36236.520000294,00000077,-492,109,64164,83,0,923*7fa72bf4
%RAWIMUSA,2283,36236.530;2283,36236.530000294,00000077,-510,6,64185,-91,0,859*62bb5521
%RAWIMUSA,2283,36236.540;2283,36236.540000294,00000077,-505,144,64158,64,-10,-914*1676b111
%RAWIMUSA,2283,36236.550;2283,36236.550000294,00000077,-493,38,64179,46,8,-914*f452d50c
%RAWIMUSA,2283,36236.560;2283,36236.560000294,00000077,-487,74,64174,-91,9,484*3b1cc0c8
%RAWIMUSA,2283,36236.570;2283,36236.570000294,00000077,-508,123,64162,92,-8,932*f13d64df
%RAWIMUSA,2283,36236.580;2283,36236.580000294,00000077,-513,2,64185,-55,-9,-9*8a21d8f6
%RAWIMUSA,2283,36236.590;2283,36236.590000294,00000077,-489,143,64165,18,0,-905*8911e168
%RAWIMUSA,2283,36236.600;2283,36236.600000294,00000077,-487,54,64173,73,8,-457*5cd07b24
%RAWIMUSA,2283,36236.610;2283,36236.610000294,00000077,-513,45,64179,-110,9,923*71f16168
%RAWIMUSA,2283,36236.620;2283,36236.620000294,00000077,-515,143,64159,83,-8,923*85fa7fae
%RAWIMUSA,2283,36236.630;2283,36236.630000294,00000077,-486,6,64185,-18,-9,-914*4f8451f5
%RAWIMUSA,2283,36236.640;2283,36236.640000294,00000077,-487,122,64165,0,8,-914*995b3880
%RAWIMUSA,2283,36236.650;2283,36236.650000294,00000077,-511,73,64170,64,9,457*5e1ee7be
%RAWIMUSA,2283,36236.660;2283,36236.660000294,00000077,-512,35,64181,-100,-8,923*4fc82e4c
%RAWIMUSA,2283,36236.670;2283,36236.670000294,00000077,-490,150,64157,83,-9,27*88f04cc7
%RAWIMUSA,2283,36236.680;2283,36236.680000294,00000077,-487,12,64183,9,0,-914*ade420f2
%RAWIMUSA,2283,36236.690;2283,36236.690000294,00000077,-514,111,64168,-46,8,-502*940cc30c
%RAWIMUSA,2283,36236.700;2283,36236.700000294,00000077,-510,93,64167,83,0,932*3815f8e0
%RAWIMUSA,2283,36236.710;2283,36236.710000294,00000077,-483,27,64183,-100,-8,923*51cadd2e
%RAWIMUSA,2283,36236.720;2283,36236.720000294,00000077,-489,152,64159,73,-9,-859*54d6e4d7
%RAWIMUSA,2283,36236.730;2283,36236.730000294,00000077,-515,22,64182,27,8,-923*3c524134
%RAWIMUSA,2283,36236.740;2283,36236.740000294,00000077,-515,94,64169,-73,9,393*8dc85109
%RAWIMUSA,2283,36236.750;2283,36236.750000294,00000077,-487,109,64162,83,-8,923*aed3df70
%RAWIMUSA,2283,36236.760;2283,36236.760000294,00000077,-483,13,64186,-64,0,82*f1d16e1f
%RAWIMUSA,2283,36236.770;2283,36236.770000294,00000077,-511,140,64159,64,0,-914*1eda8c11
%RAWIMUSA,2283,36236.780;2283,36236.780000294,00000077,-515,38,64178,27,8,-548*bda3e97c
%RAWIMUSA,2283,36236.790;2283,36236.790000294,00000077,-488,87,64171,-91,0,914*8ba2824c
%RAWIMUSA,2283,36236.800;2283,36236.800000294,00000077,-489,111,64164,92,-8,923*3afed718
%RAWIMUSA,2283,36236.810;2283,36236.810000294,00000077,-506,10,64184,-55,0,-804*7ae8ef16
%RAWIMUSA,2283,36236.820;2283,36236.820000294,00000077,-508,147,64160,55,8,-923*4e62a968
%RAWIMUSA,2283,36236.830;2283,36236.830000294,00000077,-491,41,64176,18,9,347*5c3630a8
%RAWIMUSA,2283,36236.840;2283,36236.840000294,00000077,-491,74,64176,-82,0,923*2a7c5011
%RAWIMUSA,2283,36236.850;2283,36236.850000294,00000077,-511,118,64162,101,-9,146*ffcafbdd
%RAWIMUSA,2283,36236.860;2283,36236.860000294,00000077,-505,6,64185,-36,0,-914*8bea78a3
%RAWIMUSA,2283,36236.870;2283,36236.870000294,00000077,-491,142,64159,9,8,-612*718a319d
%RAWIMUSA,2283,36236.880;2283,36236.880000294,00000077,-495,48,64173,37,0,932*f86a702d
%RAWIMUSA,2283,36236.890;2283,36236.890000294,00000077,-507,60,64180,-91,-8,914*88f49ad1
%RAWIMUSA,2283,36236.900;2283,36236.900000294,00000077,-506,136,64162,119,0,-749*ea421a6d
%RAWIMUSA,2283,36236.910;2283,36236.910000294,00000077,-490,10,64184,-36,8,-914*bd061cde
%RAWIMUSA,2283,36236.920;2283,36236.920000294,00000077,-495,131,64163,-18,9,301*58104206
%RAWIMUSA,2283,36236.930;2283,36236.930000294,00000077,-507,55,64175,55,-8,932*2a8ebabe
%RAWIMUSA,2283,36236.940;2283,36236.940000294,00000077,-504,57,64182,-82,-9,173*cc440b73
%RAWIMUSA,2283,36236.950;2283,36236.950000294,00000077,-494,147,64160,110,8,-914*57699c71
%RAWIMUSA,2283,36236.960;2283,36236.960000294,00000077,-493,6,64183,-36,8,-658*7eb2b44b
%RAWIMUSA,2283,36236.970;2283,36236.970000294,00000077,-508,127,64164,-27,0,932*5cade49e
%RAWIMUSA,2283,36236.980;2283,36236.980000294,00000077,-504,68,64170,74,-17,923*b48b8680
%RAWIMUSA,2283,36236.990;2283,36236.990000294,00000077,-497,43,64181,-73,8,-704*520a59fa
%RAWIMUSA,2283,36237.000;2283,36237.000000294,00000077,-491,143,64159,101,0,-923*b8b5ab94
%RAWIMUSA,2283,36237.010;2283,36237.010000294,00000077,-502,10,64183,-45,9,246*f9dcb6fa
%RAWIMUSA,2283,36237.020;2283,36237.020000294,00000077,-514,125,64167,-36,-8,923*321c931b
%RAWIMUSA,2283,36237.030;2283,36237.030000294,00000077,-494,78,64172,92,-9,237*8de2c013
%RAWIMUSA,2283,36237.040;2283,36237.040000294,00000077,-486,34,64182,-64,8,-914*fcfbd977
%RAWIMUSA,2283,36237.050;2283,36237.050000294,00000077,-504,144,64158,64,8,-694*f9bd3b2d
%RAWIMUSA,2283,36237.060;2283,36237.060000294,00000077,-512,19,64187,-18,-8,923*94b11b6e
%RAWIMUSA,2283,36237.070;2283,36237.070000294,00000077,-500,112,64168,-45,-8,923*154b8f91
%RAWIMUSA,2283,36237.080;2283,36237.080000294,00000077,-486,91,64165,110,0,-667*4087b1df
%RAWIMUSA,2283,36237.090;2283,36237.090000294,00000077,-497,17,64182,-73,8,-914*09055916
%RAWIMUSA,2283,36237.100;2283,36237.100000294,00000077,-516,148,64163,37,0,201*bdaab9e3
%RAWIMUSA,2283,36237.110;2283,36237.110000294,00000077,-497,24,64183,0,-8,932*0a94f7aa
%RAWIMUSA,2283,36237.120;2283,36237.120000294,00000077,-488,91,64167,-45,0,283*f8a6b202
%RAWIMUSA,2283,36237.130;2283,36237.130000294,00000077,-505,109,64161,119,8,-914*764d5bcc
%RAWIMUSA,2283,36237.140;2283,36237.140000294,00000077,-503,13,64188,-82,8,-749*2664f8fd
%RAWIMUSA,2283,36237.150;2283,36237.150000294,00000077,-497,150,64156,18,-8,914*facf2226
%RAWIMUSA,2283,36237.160;2283,36237.160000294,00000077,-498,34,64180,28,-8,932*94af0072
%RAWIMUSA,2283,36237.170;2283,36237.170000294,00000077,-497,74,64171,-55,8,-612*c687eeea
%RAWIMUSA,2283,36237.180;2283,36237.180000294,00000077,-502,135,64164,119,0,-914*a011afaa
%RAWIMUSA,2283,36237.190;2283,36237.190000294,00000077,-501,6,64189,-82,0,128*0d2d58c6
%RAWIMUSA,2283,36237.200;2283,36237.200000294,00000077,-497,142,64159,-8,-8,932*e7c88bcd
%RAWIMUSA,2283,36237.210;2283,36237.210000294,00000077,-499,48,64175,83,0,338*91f28198
%RAWIMUSA,2283,36237.220;2283,36237.220000294,00000077,-502,58,64178,-73,0,-914*499dc80c
%RAWIMUSA,2283,36237.230;2283,36237.230000294,00000077,-503,141,64162,92,8,-804*0b6f82f6
%RAWIMUSA,2283,36237.240;2283,36237.240000294,00000077,-490,2,64185,-64,-8,914*8b64a53e
%RAWIMUSA,2283,36237.250;2283,36237.250000294,00000077,-503,131,64165,-8,-8,923*53483103
%RAWIMUSA,2283,36237.260;2283,36237.260000294,00000077,-507,68,64170,101,8,-566*b5ea68a5
%RAWIMUSA,2283,36237.270;2283,36237.270000294,00000077,-501,43,64184,-83,8,-914*3b6b6ab0
%RAWIMUSA,2283,36237.280;2283,36237.280000294,00000077,-489,145,64155,64,-9,91*605259ca
%RAWIMUSA,2283,36237.290;2283,36237.290000294,00000077,-500,8,64183,-36,0,914*391f8d42
%RAWIMUSA,2283,36237.300;2283,36237.300000294,00000077,-509,119,64165,-18,0,393*d7b28593
%RAWIMUSA,2283,36237.310;2283,36237.310000294,00000077,-497,86,64168,110,0,-923*6b6861d6
%RAWIMUSA,2283,36237.320;2283,36237.320000294,00000077,-492,23,64180,-92,8,-859*14e04871
%RAWIMUSA,2283,36237.330;2283,36237.330000294,00000077,-504,147,64158,46,-8,923*fb0b710e
%RAWIMUSA,2283,36237.340;2283,36237.340000294,00000077,-507,22,64184,0,-8,932*39034538
%RAWIMUSA,2283,36237.350;2283,36237.350000294,00000077,-499,107,64169,-27,8,-511*54b66842
%RAWIMUSA,2283,36237.360;2283,36237.360000294,00000077,-494,95,64164,101,8,-914*30c90e6a
%RAWIMUSA,2283,36237.370;2283,36237.370000294,00000077,-500,24,64182,-101,0,36*64ecc1dd
%RAWIMUSA,2283,36237.380;2283,36237.380000294,00000077,-507,149,64163,46,-8,923*48870487
%RAWIMUSA,2283,36237.390;2283,36237.390000294,00000077,-501,20,64182,27,0,429*1077864e
%RAWIMUSA,2283,36237.400;2283,36237.400000294,00000077,-495,97,64169,-36,8,-914*3815a685
%RAWIMUSA,2283,36237.410;2283,36237.410000294,00000077,-498,113,64167,92,0,-886*6f232979
%RAWIMUSA,2283,36237.420;2283,36237.420000294,00000077,-507,10,64187,-100,-8,914*cd4599f9
%RAWIMUSA,2283,36237.430;2283,36237.430000294,00000077,-496,147,64159,46,-8,923*ca77e9bf
%RAWIMUSA,2283,36237.440;2283,36237.440000294,00000077,-493,35,64178,55,8,-457*445e55fc
%RAWIMUSA,2283,36237.450;2283,36237.450000294,00000077,-502,75,64173,-73,8,-923*50ea5b51
%RAWIMUSA,2283,36237.460;2283,36237.460000294,00000077,-508,131,64166,92,-9,-9*99d962f8
%RAWIMUSA,2283,36237.470;2283,36237.470000294,00000077,-495,5,64189,-82,-8,914*ac1898b4
%RAWIMUSA,2283,36237.480;2283,36237.480000294,00000077,-492,139,64160,27,9,493*ad36a938
%RAWIMUSA,2283,36237.490;2283,36237.490000294,00000077,-505,52,64175,82,0,-914*3ed9409e
%RAWIMUSA,2283,36237.500;2283,36237.500000294,00000077,-507,51,64179,-101,8,-914*1298406c
%RAWIMUSA,2283,36237.510;2283,36237.510000294,00000077,-495,142,64161,83,-8,887*7f8d5d8c
%RAWIMUSA,2283,36237.520;2283,36237.520000294,00000077,-488,2,64187,-36,-8,923*1223461c
%RAWIMUSA,2283,36237.530;2283,36237.530000294,00000077,-502,133,64165,0,8,-411*26c9faea
%RAWIMUSA,2283,36237.540;2283,36237.540000294,00000077,-507,72,64171,92,8,-914*571b6e2f
%RAWIMUSA,2283,36237.550;2283,36237.550000294,00000077,-498,30,64179,-110,0,-54*90155bac
%RAWIMUSA,2283,36237.560;2283,36237.560000294,00000077,-494,145,64157,64,-17,932*593b9f9e
%RAWIMUSA,2283,36237.570;2283,36237.570000294,00000077,-499,17,64184,0,9,539*b363010a
%RAWIMUSA,2283,36237.580;2283,36237.580000294,00000077,-507,111,64167,-18,8,-914*289048f5
%RAWIMUSA,2283,36237.590;2283,36237.590000294,00000077,-498,87,64166,82,0,-923*2c1031f8
%RAWIMUSA,2283,36237.600;2283,36237.600000294,00000077,-495,27,64182,-101,-8,832*8a1ecdd6
%RAWIMUSA,2283,36237.610;2283,36237.610000294,00000077,-499,147,64160,64,-8,923*559cfc9a
%RAWIMUSA,2283,36237.620;2283,36237.620000294,00000077,-506,18,64183,18,8,-356*c8617303
%RAWIMUSA,2283,36237.630;2283,36237.630000294,00000077,-499,96,64169,-46,8,-914*8e407f6f
%RAWIMUSA,2283,36237.640;2283,36237.640000294,00000077,-492,112,64163,92,-9,-100*9e59a3df
%RAWIMUSA,2283,36237.650;2283,36237.650000294,00000077,-500,16,64187,-91,0,932*41bd1094
%RAWIMUSA,2283,36237.660;2283,36237.660000294,00000077,-508,147,64158,55,0,585*85ed672f
%RAWIMUSA,2283,36237.670;2283,36237.670000294,00000077,-497,25,64180,55,8,-914*b5aa5913
%RAWIMUSA,2283,36237.680;2283,36237.680000294,00000077,-491,80,64174,-92,0,-923*c0036547
%RAWIMUSA,2283,36237.690;2283,36237.690000294,00000077,-501,140,64162,83,-8,795*334bbc9a
%RAWIMUSA,2283,36237.700;2283,36237.700000294,00000077,-508,-1,64190,-45,0,914*e4d6e440
%RAWIMUSA,2283,36237.710;2283,36237.710000294,00000077,-494,131,64163,27,8,-319*44aafc27
%RAWIMUSA,2283,36237.720;2283,36237.720000294,00000077,-492,60,64176,64,0,-914*ce8a8d24
%RAWIMUSA,2283,36237.730;2283,36237.730000294,00000077,-509,54,64180,-110,0,-164*d0c42e19
%RAWIMUSA,2283,36237.740;2283,36237.740000294,00000077,-502,134,64161,83,-8,932*ded07d6e
%RAWIMUSA,2283,36237.750;2283,36237.750000294,00000077,-495,2,64183,-18,9,640*4069ca76
%RAWIMUSA,2283,36237.760;2283,36237.760000294,00000077,-500,135,64165,9,8,-914*e556b00c
%RAWIMUSA,2283,36237.770;2283,36237.770000294,00000077,-503,70,64173,55,-10,-914*58c8b936
%RAWIMUSA,2283,36237.780;2283,36237.780000294,00000077,-501,30,64179,-101,0,740*9f16f2a2
%RAWIMUSA,2283,36237.790;2283,36237.790000294,00000077,-499,145,64159,92,-8,923*55bc1881
%RAWIMUSA,2283,36237.800;2283,36237.800000294,00000077,-498,22,64188,0,8,-255*e1c34b29
%RAWIMUSA,2283,36237.810;2283,36237.810000294,00000077,-502,113,64167,-36,8,-905*b3e9f638
%RAWIMUSA,2283,36237.820;2283,36237.820000294,00000077,-499,79,64167,73,-9,-219*58e48e73
%RAWIMUSA,2283,36237.830;2283,36237.830000294,00000077,-499,27,64178,-91,-8,923*ff8ff659
%RAWIMUSA,2283,36237.840;2283,36237.840000294,00000077,-498,155,64157,83,9,685*f1539ced
%RAWIMUSA,2283,36237.850;2283,36237.850000294,00000077,-503,16,64182,9,8,-914*69629635
%RAWIMUSA,2283,36237.860;2283,36237.860000294,00000077,-499,95,64171,-64,0,-923*fa85bcd1
%RAWIMUSA,2283,36237.870;2283,36237.870000294,00000077,-500,104,64164,92,-18,685*4b75a958
%RAWIMUSA,2283,36237.880;2283,36237.880000294,00000077,-500,29,64183,-73,0,923*8a9753dc
%RAWIMUSA,2283,36237.890;2283,36237.890000294,00000077,-500,145,64161,64,8,-210*8138c251
%RAWIMUSA,2283,36237.900;2283,36237.900000294,00000077,-496,17,64179,18,8,-914*d28e42fb
%RAWIMUSA,2283,36237.910;2283,36237.910000294,00000077,-498,93,64169,-82,-9,-255*04af447f
%RAWIMUSA,2283,36237.920;2283,36237.920000294,00000077,-505,126,64161,101,-8,923*80f0eaff
%RAWIMUSA,2283,36237.930;2283,36237.930000294,00000077,-501,12,64189,-54,9,731*98ff0866
%RAWIMUSA,2283,36237.940;2283,36237.940000294,00000077,-493,138,64159,46,0,-923*3c566af5
%RAWIMUSA,2283,36237.950;2283,36237.950000294,00000077,-500,42,64176,18,0,-914*013848ea
%RAWIMUSA,2283,36237.960;2283,36237.960000294,00000077,-508,80,64175,-91,-8,640*ac4f8325
%RAWIMUSA,2283,36237.970;2283,36237.970000294,00000077,-497,124,64161,110,0,914*b4a1dd1e
%RAWIMUSA,2283,36237.980;2283,36237.980000294,00000077,-493,4,64185,-45,9,-155*1c3f974f
%RAWIMUSA,2283,36237.990;2283,36237.990000294,00000077,-501,144,64159,18,0,-905*e3749095
%RAWIMUSA,2283,36238.000;2283,36238.000000294,00000077,-506,51,64177,36,-9,-310*5b6ec310
%RAWIMUSA,2283,36238.010;2283,36238.010000294,00000077,-495,54,64177,-91,0,932*4ca95c14
%RAWIMUSA,2283,36238.020;2283,36238.020000294,00000077,-494,136,64162,120,0,786*beb6978d
%RAWIMUSA,2283,36238.030;2283,36238.030000294,00000077,-501,5,64181,-36,17,-923*f86f5062
%RAWIMUSA,2283,36238.040;2283,36238.040000294,00000077,-508,134,64165,-27,-9,-914*46331e10
%RAWIMUSA,2283,36238.050;2283,36238.050000294,00000077,-496,65,64171,64,-8,576*24d39888
%RAWIMUSA,2283,36238.060;2283,36238.060000294,00000077,-492,28,64180,-73,0,923*cb63920d
%RAWIMUSA,2283,36238.070;2283,36238.070000294,00000077,-505,152,64158,92,8,-100*7506f11e
%RAWIMUSA,2283,36238.080;2283,36238.080000294,00000077,-506,13,64183,-18,0,-914*711c145c
%RAWIMUSA,2283,36238.090;2283,36238.090000294,00000077,-495,108,64170,-55,-9,-365*fe8aeb93
%RAWIMUSA,2283,36238.100;2283,36238.100000294,00000077,-486,94,64168,92,-8,923*1b10ed89
%RAWIMUSA,2283,36238.110;2283,36238.110000294,00000077,-509,33,64179,-73,19,841*053f0bb1
%RAWIMUSA,2283,36238.120;2283,36238.120000294,00000077,-508,146,64158,73,0,-914*864aeceb
%RAWIMUSA,2283,36238.130;2283,36238.130000294,00000077,-495,9,64185,-9,-9,-914*ef17d1a3
%RAWIMUSA,2283,36238.140;2283,36238.140000294,00000077,-488,105,64170,-64,0,539*802304a6
%RAWIMUSA,2283,36238.150;2283,36238.150000294,00000077,-503,107,64162,101,0,923*7ceec67a
%RAWIMUSA,2283,36238.160;2283,36238.160000294,00000077,-516,22,64184,-55,9,-54*6addb64d
%RAWIMUSA,2283,36238.170;2283,36238.170000294,00000077,-499,140,64159,46,0,-923*bc5b5d09
%RAWIMUSA,2283,36238.180;2283,36238.180000294,00000077,-483,28,64183,-9,-9,-402*b7ab9390
%RAWIMUSA,2283,36238.190;2283,36238.190000294,00000077,-506,95,64167,-54,0,923*5d326ed1
%RAWIMUSA,2283,36238.200;2283,36238.200000294,00000077,-508,104,64165,110,0,896*84124268
%RAWIMUSA,2283,36238.210;2283,36238.210000294,00000077,-501,20,64186,-64,8,-905*16fe462e
%RAWIMUSA,2283,36238.220;2283,36238.220000294,00000077,-488,141,64158,27,-9,-914*cc5c5792
%RAWIMUSA,2283,36238.230;2283,36238.230000294,00000077,-498,29,64180,9,-8,484*fdf68ed4
%RAWIMUSA,2283,36238.240;2283,36238.240000294,00000077,-518,86,64168,-45,9,923*d693ab97
%RAWIMUSA,2283,36238.250;2283,36238.250000294,00000077,-496,110,64167,110,0,-18*a1320ed6
%RAWIMUSA,2283,36238.260;2283,36238.260000294,00000077,-484,14,64182,-73,8,-914*fbadd6b6
%RAWIMUSA,2283,36238.270;2283,36238.270000294,00000077,-510,145,64159,18,-9,-438*c2acf3ce
%RAWIMUSA,2283,36238.280;2283,36238.280000294,00000077,-510,37,64179,28,-8,914*5fcf28ce
%RAWIMUSA,2283,36238.290;2283,36238.290000294,00000077,-493,80,64172,-45,9,923*5cbf7e22
%RAWIMUSA,2283,36238.300;2283,36238.300000294,00000077,-489,103,64167,101,0,-895*f7d7112a
%RAWIMUSA,2283,36238.310;2283,36238.310000294,00000077,-507,25,64185,-83,0,-923*8b729ec6
%RAWIMUSA,2283,36238.320;2283,36238.320000293,00000077,-510,143,64158,18,-8,439*a0655d68
%RAWIMUSA,2283,36238.330;2283,36238.330000293,00000077,-490,29,64176,46,9,923*dd2aa441
%RAWIMUSA,2283,36238.340;2283,36238.340000293,00000077,-493,79,64172,-45,9,45*2daf3034
%RAWIMUSA,2283,36238.350;2283,36238.350000293,00000077,-509,121,64163,82,-10,-914*503f3125
%RAWIMUSA,2283,36238.360;2283,36238.360000293,00000077,-510,23,64183,-82,-9,-511*0a543f10
%RAWIMUSA,2283,36238.370;2283,36238.370000293,00000077,-489,132,64159,37,0,932*1f9c3468
%RAWIMUSA,2283,36238.380;2283,36238.380000293,00000077,-489,34,64177,46,9,923*fa879a78
%RAWIMUSA,2283,36238.390;2283,36238.390000293,00000077,-511,92,64173,-55,8,-850*2a8e1586
%RAWIMUSA,2283,36238.400;2283,36238.400000293,00000077,-507,117,64165,82,-19,-914*58ff7323
%RAWIMUSA,2283,36238.410;2283,36238.410000293,00000077,-490,11,64183,-91,0,393*ae46e1d1
%RAWIMUSA,2283,36238.420;2283,36238.420000293,00000077,-491,137,64159,64,9,923*72b0e415
%RAWIMUSA,2283,36238.430;2283,36238.430000293,00000077,-506,41,64178,46,9,91*4b64572e
%RAWIMUSA,2283,36238.440;2283,36238.440000293,00000077,-510,92,64171,-83,-9,-923*0aaabe2d
%RAWIMUSA,2283,36238.450;2283,36238.450000293,00000077,-493,101,64164,82,-9,-557*02c1e4ad
%RAWIMUSA,2283,36238.460;2283,36238.460000293,00000077,-489,10,64183,-73,0,923*87ee997f
%RAWIMUSA,2283,36238.470;2283,36238.470000293,00000077,-505,149,64161,64,9,923*8e12cf5d
%RAWIMUSA,2283,36238.480;2283,36238.480000293,00000077,-509,41,64179,27,0,-813*76a71dae
%RAWIMUSA,2283,36238.490;2283,36238.490000293,00000077,-494,77,64174,-83,-9,-923*b9eaa96a
%RAWIMUSA,2283,36238.500;2283,36238.500000293,00000077,-489,105,64165,92,0,347*45f2bcd8
%RAWIMUSA,2283,36238.510;2283,36238.510000293,00000077,-504,24,64182,-54,9,932*a3665957
%RAWIMUSA,2283,36238.520;2283,36238.520000293,00000077,-510,149,64157,55,0,137*b7ca94fa
%RAWIMUSA,2283,36238.530;2283,36238.530000293,00000077,-495,25,64177,9,0,-914*72963dbc
%RAWIMUSA,2283,36238.540;2283,36238.540000293,00000077,-493,77,64171,-73,-9,-603*1e39b010
%RAWIMUSA,2283,36238.550;2283,36238.550000293,00000077,-505,119,64165,101,0,932*57981184
%RAWIMUSA,2283,36238.560;2283,36238.560000293,00000077,-506,17,64183,-54,9,914*6f7133cb
%RAWIMUSA,2283,36238.570;2283,36238.570000293,00000077,-496,139,64156,36,0,-749*0f442e18
%RAWIMUSA,2283,36238.580;2283,36238.580000293,00000077,-493,34,64177,18,-9,-914*a9bd1a51
%RAWIMUSA,2283,36238.590;2283,36238.590000293,00000077,-503,85,64174,-82,0,283*e193e2a8
%RAWIMUSA,2283,36238.600;2283,36238.600000293,00000077,-503,125,64165,120,0,914*c50c67d6
%RAWIMUSA,2283,36238.610;2283,36238.610000293,00000077,-497,6,64185,-45,9,192*bae19c23
%RAWIMUSA,2283,36238.620;2283,36238.620000293,00000077,-499,142,64158,9,0,-905*c0d9e954
%RAWIMUSA,2283,36238.630;2283,36238.630000293,00000077,-504,49,64177,27,-9,-667*6e39d5df
%RAWIMUSA,2283,36238.640;2283,36238.640000293,00000077,-499,70,64175,-73,9,923*195a3adf
%RAWIMUSA,2283,36238.650;2283,36238.650000293,00000077,-499,126,64162,110,0,923*42084e2c
%RAWIMUSA,2283,36238.660;2283,36238.660000293,00000077,-498,10,64184,-46,0,-703*1bde7c62
%RAWIMUSA,2283,36238.670;2283,36238.670000293,00000077,-504,138,64163,-9,0,-914*fdf01785
%RAWIMUSA,2283,36238.680;2283,36238.680000293,00000077,-501,51,64174,46,-9,237*4f65af24
%RAWIMUSA,2283,36238.690;2283,36238.690000293,00000077,-498,56,64180,-64,9,932*eeb5517e
%RAWIMUSA,2283,36238.700;2283,36238.700000293,00000077,-498,140,64161,110,9,256*ec8fb0ef
%RAWIMUSA,2283,36238.710;2283,36238.710000293,00000077,-500,9,64187,-55,-9,-923*034eeff8
%RAWIMUSA,2283,36238.720;2283,36238.720000293,00000077,-507,128,64164,-36,-9,-703*bce15555
%RAWIMUSA,2283,36238.730;2283,36238.730000293,00000077,-494,64,64172,92,9,932*26555d00
%RAWIMUSA,2283,36238.740;2283,36238.740000293,00000077,-495,35,64182,-73,9,914*621f26a6
%RAWIMUSA,2283,36238.750;2283,36238.750000293,00000077,-506,152,64154,82,0,-639*22a4a200
%RAWIMUSA,2283,36238.760;2283,36238.760000293,00000077,-506,10,64185,-36,-9,-923*f0180a87
%RAWIMUSA,2283,36238.770;2283,36238.770000293,00000077,-491,105,64167,-45,0,182*36b79020
%RAWIMUSA,2283,36238.780;2283,36238.780000293,00000077,-497,91,64168,110,9,923*6bc05e01
%RAWIMUSA,2283,36238.790;2283,36238.790000293,00000077,-506,32,64183,-64,9,292*f1f2589b
%RAWIMUSA,2283,36238.800;2283,36238.800000293,00000077,-502,144,64157,46,-10,-914*f1673ae0
%RAWIMUSA,2283,36238.810;2283,36238.810000293,00000077,-497,14,64182,-9,-9,-758*1cf04dab
%RAWIMUSA,2283,36238.820;2283,36238.820000293,00000077,-495,102,64167,-45,9,923*f7f3203c
%RAWIMUSA,2283,36238.830;2283,36238.830000293,00000077,-506,115,64164,120,0,923*85f705de
%RAWIMUSA,2283,36238.840;2283,36238.840000293,00000077,-508,9,64185,-82,0,-603*a89873c1
%RAWIMUSA,2283,36238.850;2283,36238.850000293,00000077,-486,140,64155,27,-9,-914*fbf7cc11
%RAWIMUSA,2283,36238.860;2283,36238.860000293,00000077,-495,39,64179,18,0,137*4149253a
%RAWIMUSA,2283,36238.870;2283,36238.870000293,00000077,-509,92,64171,-45,9,914*bb360e70
%RAWIMUSA,2283,36238.880;2283,36238.880000293,00000077,-505,111,64163,110,0,338*740285c5
%RAWIMUSA,2283,36238.890;2283,36238.890000293,00000077,-495,12,64184,-83,-9,-914*57e5b905
%RAWIMUSA,2283,36238.900;2283,36238.900000293,00000077,-490,145,64162,18,-9,-813*ed1632fe
%RAWIMUSA,2283,36238.910;2283,36238.910000293,00000077,-507,45,64176,46,9,932*ae236281
%RAWIMUSA,2283,36238.920;2283,36238.920000293,00000077,-512,82,64172,-54,9,923*9343df9a
%RAWIMUSA,2283,36238.930;2283,36238.930000293,00000077,-485,115,64167,92,-9,-539*d17a0c5d
%RAWIMUSA,2283,36238.940;2283,36238.940000293,00000077,-488,9,64186,-73,-9,-914*6bac4659
%RAWIMUSA,2283,36238.950;2283,36238.950000293,00000077,-516,152,64158,9,9,91*6e344786
%RAWIMUSA,2283,36238.960;2283,36238.960000293,00000077,-515,43,64179,64,0,932*d1f7f35d
%RAWIMUSA,2283,36238.970;2283,36238.970000293,00000077,-477,53,64176,-64,9,393*688ec07b
%RAWIMUSA,2283,36238.980;2283,36238.980000293,00000077,-493,138,64159,82,-10,-905*15c6d015
%RAWIMUSA,2283,36238.990;2283,36238.990000293,00000077,-515,8,64180,-64,-9,-868*b3742841
%RAWIMUSA,2283,36239.000;2283,36239.000000293,00000077,-509,132,64162,9,9,932*196a02c3
%RAWIMUSA,2283,36239.010;2283,36239.010000293,00000077,-482,58,64173,83,9,914*1d297dbc
%RAWIMUSA,2283,36239.020;2283,36239.020000293,00000077,-494,52,64183,-92,-9,-502*7ee4d2a6
%RAWIMUSA,2283,36239.030;2283,36239.030000293,00000077,-519,146,64158,73,-10,-905*a20ccdb0
%RAWIMUSA,2283,36239.040;2283,36239.040000293,00000077,-505,1,64184,-36,0,27*e7c3b423
%RAWIMUSA,2283,36239.050;2283,36239.050000293,00000077,-483,123,64167,0,9,923*1536a961
%RAWIMUSA,2283,36239.060;2283,36239.060000293,00000077,-492,74,64173,101,9,448*fef2cea3
%RAWIMUSA,2283,36239.070;2283,36239.070000293,00000077,-514,39,64179,-110,-9,-914*259d0ee8
%RAWIMUSA,2283,36239.080;2283,36239.080000293,00000077,-503,145,64155,64,-10,-905*ba30bad8
%RAWIMUSA,2283,36239.090;2283,36239.090000293,00000077,-481,7,64184,0,19,923*ab47b729
%RAWIMUSA,2283,36239.100;2283,36239.100000293,00000077,-494,120,64168,-18,0,923*ac7f9e4b
%RAWIMUSA,2283,36239.110;2283,36239.110000293,00000077,-519,100,64167,82,-9,-447*3489ecd9
%RAWIMUSA,2283,36239.120;2283,36239.120000293,00000077,-503,19,64183,-101,0,-914*04291631
%RAWIMUSA,2283,36239.130;2283,36239.130000293,00000077,-483,141,64160,55,9,-9*68f6116b
%RAWIMUSA,2283,36239.140;2283,36239.140000293,00000077,-497,23,64183,28,0,923*a4a1a9ed
%RAWIMUSA,2283,36239.150;2283,36239.150000293,00000077,-511,101,64170,-45,0,493*502efb0d
%RAWIMUSA,2283,36239.160;2283,36239.160000293,00000077,-504,115,64159,82,-10,-923*b65a1cd7
%RAWIMUSA,2283,36239.170;2283,36239.170000293,00000077,-483,1,64189,-92,0,-905*bce3df9c
%RAWIMUSA,2283,36239.180;2283,36239.180000293,00000077,-502,156,64160,55,0,877*c20f2103
%RAWIMUSA,2283,36239.190;2283,36239.190000293,00000077,-517,46,64180,46,9,923*6f6d8c81
%RAWIMUSA,2283,36239.200;2283,36239.200000293,00000077,-504,71,64170,-82,-9,-402*95acbe91
%RAWIMUSA,2283,36239.210;2283,36239.210000293,00000077,-484,107,64161,92,-10,-914*2a293f3b
%RAWIMUSA,2283,36239.220;2283,36239.220000293,00000077,-495,12,64188,-64,9,-73*5e5f5476
%RAWIMUSA,2283,36239.230;2283,36239.230000293,00000077,-519,159,64161,37,9,923*3c5569e5
%RAWIMUSA,2283,36239.240;2283,36239.240000293,00000077,-504,36,64177,64,-8,548*31632cfa
%RAWIMUSA,2283,36239.250;2283,36239.250000293,00000077,-478,41,64175,-110,0,-923*2dcebc59
%RAWIMUSA,2283,36239.260;2283,36239.260000293,00000077,-502,157,64160,92,-10,-923*e07d98b3
%RAWIMUSA,2283,36239.270;2283,36239.270000293,00000077,-513,12,64185,-36,9,832*60a1e07a
%RAWIMUSA,2283,36239.280;2283,36239.280000293,00000077,-501,128,64165,0,9,914*726b03ff
%RAWIMUSA,2283,36239.290;2283,36239.290000293,00000077,-485,55,64172,83,-9,-347*c4d43ada
%RAWIMUSA,2283,36239.300;2283,36239.300000293,00000077,-500,42,64182,-110,-9,-914*4c4272f1
%RAWIMUSA,2283,36239.310;2283,36239.310000293,00000077,-514,162,64158,73,8,-118*5b229223
%RAWIMUSA,2283,36239.320;2283,36239.320000293,00000077,-497,0,64182,0,9,923*07ec2156
%RAWIMUSA,2283,36239.330;2283,36239.330000293,00000077,-489,104,64168,-27,0,594*637af59d
%RAWIMUSA,2283,36239.340;2283,36239.340000293,00000077,-502,101,64167,82,-19,-923*2254160a
%RAWIMUSA,2283,36239.350;2283,36239.350000293,00000077,-510,39,64179,-101,8,-923*fedb24ca
%RAWIMUSA,2283,36239.360;2283,36239.360000293,00000077,-498,138,64160,74,9,777*64a9af25
%RAWIMUSA,2283,36239.370;2283,36239.370000293,00000077,-487,9,64182,18,0,923*4410f3b7
%RAWIMUSA,2283,36239.380;2283,36239.380000293,00000077,-501,112,64167,-55,-9,-301*b2b67308
%RAWIMUSA,2283,36239.390;2283,36239.390000293,00000077,-514,109,64168,82,-10,-923*a452b3ea
%RAWIMUSA,2283,36239.400;2283,36239.400000293,00000077,-496,12,64187,-82,9,-155*3ed6e7e8
%RAWIMUSA,2283,36239.410;2283,36239.410000293,00000077,-492,145,64157,74,9,923*2eda7e92
%RAWIMUSA,2283,36239.420;2283,36239.420000293,00000077,-504,30,64181,27,-8,640*a09d540d
%RAWIMUSA,2283,36239.430;2283,36239.430000293,00000077,-504,85,64172,-92,0,-923*e635a103
%RAWIMUSA,2283,36239.440;2283,36239.440000293,00000077,-499,124,64160,92,0,-905*22e32e43
%RAWIMUSA,2283,36239.450;2283,36239.450000293,00000077,-495,-4,64188,-45,9,731*32273114
%RAWIMUSA,2283,36239.460;2283,36239.460000293,00000077,-498,148,64162,37,0,914*a7ab0347
%RAWIMUSA,2283,36239.470;2283,36239.470000293,00000077,-505,56,64177,36,-9,-255*13df93c7
%RAWIMUSA,2283,36239.480;2283,36239.480000293,00000077,-497,51,64176,-101,0,-914*ae1b4cd3
%RAWIMUSA,2283,36239.490;2283,36239.490000293,00000077,-499,132,64160,101,0,-201*a18aa9ea
%RAWIMUSA,2283,36239.500;2283,36239.500000293,00000077,-499,9,64185,-27,9,914*d32284af
%RAWIMUSA,2283,36239.510;2283,36239.510000293,00000077,-502,140,64161,0,0,695*301d5203
%RAWIMUSA,2283,36239.520;2283,36239.520000293,00000077,-504,60,64173,55,-19,-923*36f32d97
%RAWIMUSA,2283,36239.530;2283,36239.530000293,00000077,-498,40,64181,-101,8,-923*8947e445
%RAWIMUSA,2283,36239.540;2283,36239.540000293,00000077,-498,146,64160,101,9,685*327450de
%RAWIMUSA,2283,36239.550;2283,36239.550000293,00000077,-499,8,64181,-8,0,932*8da1e109
%RAWIMUSA,2283,36239.560;2283,36239.560000293,00000077,-503,127,64165,-36,-9,-210*7f654f03
%RAWIMUSA,2283,36239.570;2283,36239.570000293,00000077,-494,70,64173,64,0,-923*85cc3fb9
%RAWIMUSA,2283,36239.580;2283,36239.580000293,00000077,-502,41,64180,-82,8,-265*9a8d92d0
%RAWIMUSA,2283,36239.590;2283,36239.590000293,00000077,-502,155,64155,92,9,914*bbd93e92
%RAWIMUSA,2283,36239.600;2283,36239.600000293,00000077,-494,3,64186,-8,-8,749*814ca508
%RAWIMUSA,2283,36239.610;2283,36239.610000293,00000077,-497,105,64167,-55,-9,-914*c094d8b6
%RAWIMUSA,2283,36239.620;2283,36239.620000293,00000077,-506,106,64169,82,0,-914*b00cd042
%RAWIMUSA,2283,36239.630;2283,36239.630000293,00000077,-502,29,64183,-73,9,621*9a6d6684
%RAWIMUSA,2283,36239.640;2283,36239.640000293,00000077,-494,141,64156,83,0,923*bda0a3d4
%RAWIMUSA,2283,36239.650;2283,36239.650000293,00000077,-498,13,64183,-9,-9,-155*f094ae99
%RAWIMUSA,2283,36239.660;2283,36239.660000293,00000077,-503,108,64167,-73,0,-914*5e8e5f95
%RAWIMUSA,2283,36239.670;2283,36239.670000293,00000077,-500,112,64162,110,8,-310*1148e5d7
%RAWIMUSA,2283,36239.680;2283,36239.680000293,00000077,-492,6,64185,-64,9,932*a5496363
%RAWIMUSA,2283,36239.690;2283,36239.690000293,00000077,-505,147,64158,46,-8,795*69af3484
%RAWIMUSA,2283,36239.700;2283,36239.700000293,00000077,-506,34,64180,18,-9,-923*49063c3e
%RAWIMUSA,2283,36239.710;2283,36239.710000293,00000077,-498,73,64170,-92,8,-914*a2ce54ee
%RAWIMUSA,2283,36239.720;2283,36239.720000293,00000077,-497,126,64162,120,9,594*9859609d
%RAWIMUSA,2283,36239.730;2283,36239.730000293,00000077,-498,2,64192,-45,-8,914*13aa358c
%RAWIMUSA,2283,36239.740;2283,36239.740000293,00000077,-500,150,64159,0,0,-109*c82003c0
%RAWIMUSA,2283,36239.750;2283,36239.750000293,00000077,-502,47,64175,36,0,-914*ab960884
%RAWIMUSA,2283,36239.760;2283,36239.760000293,00000077,-496,55,64175,-73,8,-356*8aedc2fc
%RAWIMUSA,2283,36239.770;2283,36239.770000293,00000077,-500,128,64163,110,0,932*ef48beaf
%RAWIMUSA,2283,36239.780;2283,36239.780000293,00000077,-500,11,64184,-45,-8,841*f296cbf7
%RAWIMUSA,2283,36239.790;2283,36239.790000293,00000077,-506,142,64162,-18,0,-914*54d46a3f
%RAWIMUSA,2283,36239.800;2283,36239.800000293,00000077,-500,56,64175,64,0,-914*c2a3c917
%RAWIMUSA,2283,36239.810;2283,36239.810000293,00000077,-497,43,64180,-73,18,521*79922fcf
%RAWIMUSA,2283,36239.820;2283,36239.820000293,00000077,-499,151,64159,110,-8,923*b712409a
%RAWIMUSA,2283,36239.830;2283,36239.830000293,00000077,-498,9,64183,-55,0,-54*1b7e9f7d
%RAWIMUSA,2283,36239.840;2283,36239.840000293,00000077,-505,119,64167,-36,0,-914*3cf1f364
%RAWIMUSA,2283,36239.850;2283,36239.850000293,00000077,-500,82,64172,101,0,-402*3dc86b1b
%RAWIMUSA,2283,36239.860;2283,36239.860000293,00000077,-492,32,64181,-73,9,914*1fecade2
%RAWIMUSA,2283,36239.870;2283,36239.870000293,00000077,-500,155,64155,64,-8,896*47e961e5
%RAWIMUSA,2283,36239.880;2283,36239.880000293,00000077,-507,13,64180,-18,0,-914*9df3450a
%RAWIMUSA,2283,36239.890;2283,36239.890000293,00000077,-502,90,64165,-55,0,-914*eec86b3f
%RAWIMUSA,2283,36239.900;2283,36239.900000293,00000077,-491,109,64165,120,9,493*f1a5a07f
%RAWIMUSA,2283,36239.910;2283,36239.910000293,00000077,-497,23,64190,-73,0,923*a26de3ea
%RAWIMUSA,2283,36239.920;2283,36239.920000293,00000077,-512,149,64161,37,-9,0*c75eb8f9
%RAWIMUSA,2283,36239.930;2283,36239.930000293,00000077,-506,14,64180,0,0,-923*3c9ad718
%RAWIMUSA,2283,36239.940;2283,36239.940000293,00000077,-489,86,64172,-55,8,-466*54149ee2
%RAWIMUSA,2283,36239.950;2283,36239.950000293,00000077,-494,125,64161,120,0,914*3dabbfe2
%RAWIMUSA,2283,36239.960;2283,36239.960000293,00000077,-508,6,64187,-73,-8,923*c0b28f10
%RAWIMUSA,2283,36239.970;2283,36239.970000293,00000077,-507,141,64159,9,0,-886*62e0974e
%RAWIMUSA,2283,36239.980;2283,36239.980000293,00000077,-491,42,64178,36,0,-923*98b2103c
%RAWIMUSA,2283,36239.990;2283,36239.990000293,00000077,-492,78,64174,-55,18,429*a8df2e9c
%RAWIMUSA,2283,36240.000;2283,36240.000000293,00000077,-508,123,64161,110,-8,923*407ffe98
%RAWIMUSA,2283,36240.010;2283,36240.010000293,00000077,-507,6,64185,-73,-9,54*be21f06a
%RAWIMUSA,2283,36240.020;2283,36240.020000293,00000077,-493,142,64158,0,0,-923*c344fe1b
%RAWIMUSA,2283,36240.030;2283,36240.030000293,00000077,-495,51,64178,64,8,-502*435aa09d
%RAWIMUSA,2283,36240.040;2283,36240.040000293,00000077,-507,61,64177,-64,0,905*d2e0abc8
%RAWIMUSA,2283,36240.050;2283,36240.050000293,00000077,-510,127,64161,101,-8,923*88b1ed5f
%RAWIMUSA,2283,36240.060;2283,36240.060000293,00000077,-493,16,64185,-73,-9,-850*da80ea8e
%RAWIMUSA,2283,36240.070;2283,36240.070000293,00000077,-491,144,64160,0,17,-914*04ec67f1
%RAWIMUSA,2283,36240.080;2283,36240.080000293,00000077,-505,50,64178,73,0,375*6a791f81
%RAWIMUSA,2283,36240.090;2283,36240.090000293,00000077,-508,48,64182,-64,0,932*282d417c
%RAWIMUSA,2283,36240.100;2283,36240.100000293,00000077,-493,147,64158,73,-18,91*d17623de
%RAWIMUSA,2283,36240.110;2283,36240.110000293,00000077,-490,11,64185,-64,8,-914*0e5ff316
%RAWIMUSA,2283,36240.120;2283,36240.120000293,00000077,-505,124,64165,9,8,-557*7967dacd
%RAWIMUSA,2283,36240.130;2283,36240.130000293,00000077,-506,63,64170,92,0,914*37b8c41a
%RAWIMUSA,2283,36240.140;2283,36240.140000293,00000077,-498,50,64183,-100,-8,914*1f0a8fc8
%RAWIMUSA,2283,36240.150;2283,36240.150000293,00000077,-493,150,64157,73,0,-795*e8e27680
%RAWIMUSA,2283,36240.160;2283,36240.160000293,00000077,-501,-3,64181,-27,17,-905*4df6c4d5
%RAWIMUSA,2283,36240.170;2283,36240.170000293,00000077,-504,117,64163,0,0,338*695cbbfc
%RAWIMUSA,2283,36240.180;2283,36240.180000293,00000077,-500,85,64171,83,-8,932*1d7c22cd
%RAWIMUSA,2283,36240.190;2283,36240.190000293,00000077,-493,41,64182,-101,0,137*357b1381
%RAWIMUSA,2283,36240.200;2283,36240.200000293,00000077,-498,132,64156,55,0,-923*616073bb
%RAWIMUSA,2283,36240.210;2283,36240.210000293,00000077,-508,14,64183,9,8,-621*e07984ca
%RAWIMUSA,2283,36240.220;2283,36240.220000293,00000077,-497,114,64171,-27,0,923*f37efe15
%RAWIMUSA,2283,36240.230;2283,36240.230000292,00000077,-488,93,64164,83,-8,932*2189558b
%RAWIMUSA,2283,36240.240;2283,36240.240000292,00000077,-506,21,64180,-101,0,-749*428105b6
%RAWIMUSA,2283,36240.250;2283,36240.250000292,00000077,-512,146,64159,64,8,-914*d25607f6
%RAWIMUSA,2283,36240.260;2283,36240.260000292,00000077,-490,26,64184,18,0,274*5516be7a
%RAWIMUSA,2283,36240.270;2283,36240.270000292,00000077,-491,105,64167,-36,-8,932*e88f6f02
%RAWIMUSA,2283,36240.280;2283,36240.280000292,00000077,-509,92,64165,73,-9,201*68929d6e
%RAWIMUSA,2283,36240.290;2283,36240.290000292,00000077,-509,24,64184,-101,8,-923*644accad
%RAWIMUSA,2283,36240.300;2283,36240.300000292,00000077,-487,153,64162,92,8,-667*de759e01
%RAWIMUSA,2283,36240.310;2283,36240.310000292,00000077,-492,28,64185,18,0,923*e011c248
%RAWIMUSA,2283,36240.320;2283,36240.320000292,00000077,-511,95,64167,-64,-8,914*1c553938
%RAWIMUSA,2283,36240.330;2283,36240.330000292,00000077,-508,97,64165,82,0,-694*5ea8dbc6
%RAWIMUSA,2283,36240.340;2283,36240.340000292,00000077,-488,18,64183,-83,8,-914*0fc6125f
%RAWIMUSA,2283,36240.350;2283,36240.350000292,00000077,-495,157,64163,64,0,237*a207d894
%RAWIMUSA,2283,36240.360;2283,36240.360000292,00000077,-509,34,64181,28,-8,923*56e4865a
%RAWIMUSA,2283,36240.370;2283,36240.370000292,00000077,-503,77,64171,-82,0,246*4b04f85e
%RAWIMUSA,2283,36240.380;2283,36240.380000292,00000077,-493,116,64166,92,8,-923*30eb57c5
%RAWIMUSA,2283,36240.390;2283,36240.390000292,00000077,-498,18,64187,-55,8,-713*46b2ba6f
%RAWIMUSA,2283,36240.400;2283,36240.400000292,00000077,-508,144,64157,46,-8,923*3be8ed79
%RAWIMUSA,2283,36240.410;2283,36240.410000292,00000077,-499,31,64178,28,-8,914*8cdeccdf
%RAWIMUSA,2283,36240.420;2283,36240.420000292,00000077,-492,76,64175,-92,8,-640*3d5461c1
%RAWIMUSA,2283,36240.430;2283,36240.430000292,00000077,-503,128,64166,110,0,-914*3b3a411b
%RAWIMUSA,2283,36240.440;2283,36240.440000292,00000077,-504,6,64187,-55,0,173*a027f1b8
%RAWIMUSA,2283,36240.450;2283,36240.450000292,00000077,-498,134,64156,37,-8,923*b4d6fbff
%RAWIMUSA,2283,36240.460;2283,36240.460000292,00000077,-496,46,64177,27,0,292*488ab3e2
%RAWIMUSA,2283,36240.470;2283,36240.470000292,00000077,-500,77,64176,-92,8,-914*374fddb9
%RAWIMUSA,2283,36240.480;2283,36240.480000292,00000077,-506,131,64162,110,8,-758*af99f3a1
%RAWIMUSA,2283,36240.490;2283,36240.490000292,00000077,-497,-4,64185,-36,-8,914*3f68146e
%RAWIMUSA,2283,36240.500;2283,36240.500000292,00000077,-496,137,64161,-8,-8,932*86811e29
%RAWIMUSA,2283,36240.510;2283,36240.510000292,00000077,-498,66,64176,55,8,-594*865459c2
%RAWIMUSA,2283,36240.520;2283,36240.520000292,00000077,-506,53,64181,-83,8,-914*09cedee6
%RAWIMUSA,2283,36240.530;2283,36240.530000292,00000077,-500,137,64158,101,0,128*cb5ae40c
%RAWIMUSA,2283,36240.540;2283,36240.540000292,00000077,-491,10,64184,-27,-8,932*59032a58
%RAWIMUSA,2283,36240.550;2283,36240.550000292,00000077,-505,131,64165,-36,0,347*ba735619
%RAWIMUSA,2283,36240.560;2283,36240.560000292,00000077,-503,69,64172,73,0,-914*0f6a3e44
%RAWIMUSA,2283,36240.570;2283,36240.570000292,00000077,-497,29,64180,-73,8,-813*1240c1e3
%RAWIMUSA,2283,36240.580;2283,36240.580000292,00000077,-497,153,64156,101,-8,914*05ac24f1
%RAWIMUSA,2283,36240.590;2283,36240.590000292,00000077,-506,20,64184,-27,-8,923*3636229c
%RAWIMUSA,2283,36240.600;2283,36240.600000292,00000077,-504,109,64169,-55,8,-539*a6747b9c
%RAWIMUSA,2283,36240.610;2283,36240.610000292,00000077,-494,92,64165,101,8,-923*58f612c2
%RAWIMUSA,2283,36240.620;2283,36240.620000292,00000077,-496,21,64181,-73,0,82*033d497a
%RAWIMUSA,2283,36240.630;2283,36240.630000292,00000077,-497,146,64158,64,-8,932*0d838f61
%RAWIMUSA,2283,36240.640;2283,36240.640000292,00000077,-504,27,64185,-8,0,402*b21e09cc
%RAWIMUSA,2283,36240.650;2283,36240.650000292,00000077,-499,101,64167,-64,8,-914*3a0cdc53
%RAWIMUSA,2283,36240.660;2283,36240.660000292,00000077,-499,101,64162,119,0,-859*8168e866
%RAWIMUSA,2283,36240.670;2283,36240.670000292,00000077,-498,8,64184,-54,0,932*388ddba9
%RAWIMUSA,2283,36240.680;2283,36240.680000292,00000077,-504,156,64160,18,-8,914*5418c5bb
%RAWIMUSA,2283,36240.690;2283,36240.690000292,00000077,-501,37,64179,9,0,-502*e53bd8b6
%RAWIMUSA,2283,36240.700;2283,36240.700000292,00000077,-499,73,64172,-55,8,-923*650e89dd
%RAWIMUSA,2283,36240.710;2283,36240.710000292,00000077,-499,117,64163,119,0,27*52950b08
%RAWIMUSA,2283,36240.720;2283,36240.720000292,00000077,-496,16,64186,-64,-8,923*57fcd04c
%RAWIMUSA,2283,36240.730;2283,36240.730000292,00000077,-504,148,64158,0,0,448*5a001e70
%RAWIMUSA,2283,36240.740;2283,36240.740000292,00000077,-500,30,64178,46,8,-905*ac21d4d3
%RAWIMUSA,2283,36240.750;2283,36240.750000292,00000077,-496,70,64171,-64,8,-905*a83cf4ec
%RAWIMUSA,2283,36240.760;2283,36240.760000292,00000077,-504,136,64162,120,-17,923*1b77e270
%RAWIMUSA,2283,36240.770;2283,36240.770000292,00000077,-502,12,64186,-73,0,914*e4bb2a98
%RAWIMUSA,2283,36240.780;2283,36240.780000292,00000077,-496,127,64162,-9,8,-447*a2cbaf04
%RAWIMUSA,2283,36240.790;2283,36240.790000292,00000077,-493,48,64176,64,8,-923*18fc7119
%RAWIMUSA,2283,36240.800;2283,36240.800000292,00000077,-507,72,64179,-55,-9,-18*b6e77796
%RAWIMUSA,2283,36240.810;2283,36240.810000292,00000077,-506,138,64158,92,0,923*fd40508f
%RAWIMUSA,2283,36240.820;2283,36240.820000292,00000077,-491,-3,64182,-64,0,493*77e22ece
%RAWIMUSA,2283,36240.830;2283,36240.830000292,00000077,-491,134,64163,-9,8,-905*a6505392
%RAWIMUSA,2283,36240.840;2283,36240.840000292,00000077,-509,70,64173,92,0,-923*68c0cfb1
%RAWIMUSA,2283,36240.850;2283,36240.850000292,00000077,-507,47,64177,-73,-8,868*aa62ba4a
%RAWIMUSA,2283,36240.860;2283,36240.860000292,00000077,-497,133,64156,64,-8,923*54799909
%RAWIMUSA,2283,36240.870;2283,36240.870000292,00000077,-488,13,64186,-46,8,-402*55d8d151
%RAWIMUSA,2283,36240.880;2283,36240.880000292,00000077,-510,133,64166,-9,17,-914*dddf09bb
%RAWIMUSA,2283,36240.890;2283,36240.890000292,00000077,-507,69,64168,101,-9,-63*846385cb
