%RAWIMUSA,2283,36147.300;2283,36147.300000341,00000077,-510,61,64176,-101,0,173*5723f949
%RAWIMUSA,2283,36147.310;2283,36147.310000341,00000077,-505,124,64161,82,-19,-914*ee75dcc3
%RAWIMUSA,2283,36147.320;2283,36147.320000341,00000077,-492,17,64186,-46,0,-649*774cbfd6
%RAWIMUSA,2283,36147.330;2283,36147.330000341,00000077,-495,139,64159,37,9,914*4868cbb5
%RAWIMUSA,2283,36147.340;2283,36147.340000341,00000077,-502,43,64178,46,9,923*9b18cffe
%RAWIMUSA,2283,36147.350;2283,36147.350000341,00000077,-500,57,64180,-101,-9,-713*2e4f92e5
%RAWIMUSA,2283,36147.360;2283,36147.360000341,00000077,-494,140,64158,92,-10,-923*559fbe54
%RAWIMUSA,2283,36147.370;2283,36147.370000341,00000077,-501,15,64188,-27,9,256*e5576cd7
%RAWIMUSA,2283,36147.380;2283,36147.380000341,00000077,-500,133,64161,9,9,932*32fbc92a
%RAWIMUSA,2283,36147.390;2283,36147.390000341,00000077,-497,53,64173,55,-9,237*321401a3
%RAWIMUSA,2283,36147.400;2283,36147.400000341,00000077,-495,51,64177,-110,0,-932*a767a98b
%RAWIMUSA,2283,36147.410;2283,36147.410000341,00000077,-497,146,64158,101,-9,-694*b6ec742d
%RAWIMUSA,2283,36147.420;2283,36147.420000341,00000077,-503,7,64189,-8,9,923*f79c757f
%RAWIMUSA,2283,36147.430;2283,36147.430000341,00000077,-496,120,64166,-18,9,932*af54c508
%RAWIMUSA,2283,36147.440;2283,36147.440000341,00000077,-499,78,64171,64,-9,-658*ce1dbe73
%RAWIMUSA,2283,36147.450;2283,36147.450000341,00000077,-500,44,64179,-92,-9,-923*83a737e4
%RAWIMUSA,2283,36147.460;2283,36147.460000341,00000077,-500,134,64155,92,9,201*7438610d
%RAWIMUSA,2283,36147.470;2283,36147.470000341,00000077,-496,13,64187,-8,9,932*373a5802
%RAWIMUSA,2283,36147.480;2283,36147.480000341,00000077,-489,122,64166,-45,-9,274*ef804093
%RAWIMUSA,2283,36147.490;2283,36147.490000341,00000077,-507,80,64170,73,-10,-923*76e32f2c
%RAWIMUSA,2283,36147.500;2283,36147.500000341,00000077,-512,19,64182,-73,8,-749*57063c2a
%RAWIMUSA,2283,36147.510;2283,36147.510000341,00000077,-486,143,64159,83,0,923*aebba4c1
%RAWIMUSA,2283,36147.520;2283,36147.520000341,00000077,-489,29,64186,-8,9,923*177f5375
%RAWIMUSA,2283,36147.530;2283,36147.530000341,00000077,-503,108,64167,-64,-9,-621*5ee482ad
%RAWIMUSA,2283,36147.540;2283,36147.540000341,00000077,-513,88,64163,92,-10,-914*87ecaa86
%RAWIMUSA,2283,36147.550;2283,36147.550000341,00000077,-498,13,64178,-64,9,146*d849271e
%RAWIMUSA,2283,36147.560;2283,36147.560000341,00000077,-488,158,64159,64,9,923*121dc314
%RAWIMUSA,2283,36147.570;2283,36147.570000341,00000077,-497,26,64184,0,0,329*eb76e7e6
%RAWIMUSA,2283,36147.580;2283,36147.580000341,00000077,-507,82,64171,-83,-9,-914*a823bf37
%RAWIMUSA,2283,36147.590;2283,36147.590000341,00000077,-502,116,64164,119,0,-804*29daaabc
%RAWIMUSA,2283,36147.600;2283,36147.600000341,00000077,-493,16,64189,-54,9,923*8f8d6afa
%RAWIMUSA,2283,36147.610;2283,36147.610000341,00000077,-499,146,64160,18,0,923*5edc75ad
%RAWIMUSA,2283,36147.620;2283,36147.620000341,00000077,-502,24,64178,27,-9,-557*808c65ca
%RAWIMUSA,2283,36147.630;2283,36147.630000341,00000077,-504,72,64173,-73,0,-923*3d36ab93
%RAWIMUSA,2283,36147.640;2283,36147.640000341,00000077,-502,129,64163,110,9,91*a2616a81
%RAWIMUSA,2283,36147.650;2283,36147.650000341,00000077,-496,9,64188,-54,9,923*c43e8a6d
%RAWIMUSA,2283,36147.660;2283,36147.660000341,00000077,-496,135,64160,9,-8,384*5c438c47
%RAWIMUSA,2283,36147.670;2283,36147.670000341,00000077,-504,43,64180,36,0,-905*0c8f2547
%RAWIMUSA,2283,36147.680;2283,36147.680000341,00000077,-498,70,64178,-73,0,-859*383c8e61
%RAWIMUSA,2283,36147.690;2283,36147.690000341,00000077,-502,131,64158,120,9,932*4d0eeb00
%RAWIMUSA,2283,36147.700;2283,36147.700000341,00000077,-505,0,64184,-64,0,914*7d3efaf8
%RAWIMUSA,2283,36147.710;2283,36147.710000341,00000077,-498,142,64161,-18,-9,-502*b4d44d7d
%RAWIMUSA,2283,36147.720;2283,36147.720000341,00000077,-492,54,64173,73,0,-923*e3ba2919
%RAWIMUSA,2283,36147.730;2283,36147.730000341,00000077,-504,43,64180,-73,9,45*af24d62f
%RAWIMUSA,2283,36147.740;2283,36147.740000341,00000077,-506,140,64159,101,0,923*8cfbc6ad
%RAWIMUSA,2283,36147.750;2283,36147.750000341,00000077,-499,15,64184,-55,-8,438*5da4af36
%RAWIMUSA,2283,36147.760;2283,36147.760000341,00000077,-494,129,64167,-27,0,-914*a37e8641
%RAWIMUSA,2283,36147.770;2283,36147.770000341,00000077,-497,56,64175,92,0,-905*beee3d15
%RAWIMUSA,2283,36147.780;2283,36147.780000341,00000077,-505,40,64180,-64,9,932*06fda367
%RAWIMUSA,2283,36147.790;2283,36147.790000341,00000077,-503,149,64156,74,0,923*c7537d0a
%RAWIMUSA,2283,36147.800;2283,36147.800000341,00000077,-493,10,64187,-46,-9,-466*e0b84130
%RAWIMUSA,2283,36147.810;2283,36147.810000341,00000077,-492,116,64165,-18,0,-923*79a8366d
%RAWIMUSA,2283,36147.820;2283,36147.820000341,00000077,-508,83,64171,101,9,0*59b480ed
%RAWIMUSA,2283,36147.830;2283,36147.830000341,00000077,-503,33,64180,-82,9,923*7addc241
%RAWIMUSA,2283,36147.840;2283,36147.840000341,00000077,-491,144,64159,46,-18,493*15397c07
%RAWIMUSA,2283,36147.850;2283,36147.850000341,00000077,-498,14,64183,-18,-9,-923*41e003c2
%RAWIMUSA,2283,36147.860;2283,36147.860000341,00000077,-505,111,64168,-18,17,-914*9f95d025
%RAWIMUSA,2283,36147.870;2283,36147.870000341,00000077,-499,97,64168,110,-8,887*1b2c153c
%RAWIMUSA,2283,36147.880;2283,36147.880000341,00000077,-493,26,64183,-100,9,932*bb90b85d
%RAWIMUSA,2283,36147.890;2283,36147.890000341,00000077,-495,141,64157,46,-18,-411*ff574e7d
%RAWIMUSA,2283,36147.900;2283,36147.900000341,00000077,-502,15,64182,9,0,-914*989c0e59
%RAWIMUSA,2283,36147.910;2283,36147.910000341,00000077,-504,105,64169,-36,9,-63*e338d02a
%RAWIMUSA,2283,36147.920;2283,36147.920000341,00000077,-494,107,64164,101,9,941*1e87d82b
%RAWIMUSA,2283,36147.930;2283,36147.930000341,00000077,-497,10,64184,-101,-8,539*d9a1801c
%RAWIMUSA,2283,36147.940;2283,36147.940000341,00000077,-505,145,64160,46,-10,-923*4a54075c
%RAWIMUSA,2283,36147.950;2283,36147.950000341,00000077,-504,32,64181,36,0,-914*a3363079
%RAWIMUSA,2283,36147.960;2283,36147.960000341,00000077,-496,86,64166,-54,9,832*4f58e564
%RAWIMUSA,2283,36147.970;2283,36147.970000341,00000077,-495,112,64166,92,-8,932*2f00db7b
%RAWIMUSA,2283,36147.980;2283,36147.980000341,00000077,-502,6,64187,-92,0,-365*a485a6fe
%RAWIMUSA,2283,36147.990;2283,36147.990000341,00000077,-503,147,64157,46,0,-914*99e1c3a3
%RAWIMUSA,2283,36148.000;2283,36148.000000341,00000077,-501,44,64179,46,0,-100*f73ec9c5
%RAWIMUSA,2283,36148.010;2283,36148.010000341,00000077,-498,72,64171,-73,9,932*52b604f3
%RAWIMUSA,2283,36148.020;2283,36148.020000341,00000077,-496,116,64163,92,-8,585*4a931fc2
%RAWIMUSA,2283,36148.030;2283,36148.030000341,00000077,-499,12,64185,-73,-9,-914*1583fe39
%RAWIMUSA,2283,36148.040;2283,36148.040000341,00000077,-508,151,64156,27,8,-905*d78fb3fd
%RAWIMUSA,2283,36148.050;2283,36148.050000341,00000077,-500,45,64177,74,9,795*53173b8c
%RAWIMUSA,2283,36148.060;2283,36148.060000341,00000077,-487,50,64179,-100,0,923*eccd6ae1
%RAWIMUSA,2283,36148.070;2283,36148.070000341,00000077,-505,137,64159,83,-18,-310*f7b8d2e5
%RAWIMUSA,2283,36148.080;2283,36148.080000341,00000077,-506,9,64189,-36,8,-923*982878c1
%RAWIMUSA,2283,36148.090;2283,36148.090000341,00000077,-496,137,64161,9,8,-155*a973b6c8
%RAWIMUSA,2283,36148.100;2283,36148.100000341,00000077,-494,63,64172,74,0,923*91ce7458
%RAWIMUSA,2283,36148.110;2283,36148.110000341,00000077,-506,46,64182,-101,-8,621*a470ab5d
%RAWIMUSA,2283,36148.120;2283,36148.120000341,00000077,-506,146,64156,82,-10,-923*d0691d87
%RAWIMUSA,2283,36148.130;2283,36148.130000341,00000077,-491,3,64187,-18,17,-914*2a586c7c
%RAWIMUSA,2283,36148.140;2283,36148.140000341,00000077,-497,117,64165,-8,9,749*0b51d2ef
%RAWIMUSA,2283,36148.150;2283,36148.150000341,00000077,-513,83,64174,74,-8,923*353cbe6d
%RAWIMUSA,2283,36148.160;2283,36148.160000341,00000077,-501,35,64179,-110,-9,-265*007b6eb4
%RAWIMUSA,2283,36148.170;2283,36148.170000341,00000077,-488,143,64160,82,0,-923*a722842b
%RAWIMUSA,2283,36148.180;2283,36148.180000341,00000077,-492,11,64182,9,8,-201*9dfabc24
%RAWIMUSA,2283,36148.190;2283,36148.190000341,00000077,-514,113,64165,-36,0,923*5f33ab58
%RAWIMUSA,2283,36148.200;2283,36148.200000341,00000077,-507,93,64167,74,-8,685*95603f54
%RAWIMUSA,2283,36148.210;2283,36148.210000341,00000077,-481,24,64183,-92,0,-914*92e01b63
%RAWIMUSA,2283,36148.220;2283,36148.220000341,00000077,-484,146,64158,82,8,-923*61b9d96b
%RAWIMUSA,2283,36148.230;2283,36148.230000341,00000077,-509,25,64183,27,9,685*78a6c1b7
%RAWIMUSA,2283,36148.240;2283,36148.240000341,00000077,-524,87,64164,-82,-8,923*08a5291b
%RAWIMUSA,2283,36148.250;2283,36148.250000341,00000077,-497,110,64162,92,-9,-210*41e4ed3c
%RAWIMUSA,2283,36148.260;2283,36148.260000341,00000077,-472,11,64187,-73,8,-923*b6a66fc4
%RAWIMUSA,2283,36148.270;2283,36148.270000341,00000077,-492,150,64162,55,8,-246*be596737
%RAWIMUSA,2283,36148.280;2283,36148.280000341,00000077,-528,38,64176,37,-8,923*fa7c52eb
%RAWIMUSA,2283,36148.290;2283,36148.290000341,00000077,-516,67,64174,-91,0,722*e63800cd
%RAWIMUSA,2283,36148.300;2283,36148.300000341,00000077,-468,128,64158,101,0,-905*4fa49f7e
%RAWIMUSA,2283,36148.310;2283,36148.310000341,00000077,-485,11,64189,-46,8,-914*b900825f
%RAWIMUSA,2283,36148.320;2283,36148.320000341,00000077,-522,135,64161,27,9,640*e06ed324
%RAWIMUSA,2283,36148.330;2283,36148.330000341,00000077,-521,46,64174,46,-17,932*8422889a
%RAWIMUSA,2283,36148.340;2283,36148.340000341,00000077,-477,56,64182,-110,-9,-164*1a04b3a4
%RAWIMUSA,2283,36148.350;2283,36148.350000341,00000077,-480,156,64162,110,8,-914*7c631ee0
%RAWIMUSA,2283,36148.360;2283,36148.360000341,00000077,-516,-1,64184,-18,8,-310*55df39ad
%RAWIMUSA,2283,36148.370;2283,36148.370000341,00000077,-518,110,64166,-27,0,932*526c3f14
%RAWIMUSA,2283,36148.380;2283,36148.380000341,00000077,-485,82,64170,74,-8,777*a70943ca
%RAWIMUSA,2283,36148.390;2283,36148.390000341,00000077,-484,43,64181,-101,0,-914*a21cb2dd
%RAWIMUSA,2283,36148.400;2283,36148.400000341,00000077,-513,142,64158,101,8,-914*26581229
%RAWIMUSA,2283,36148.410;2283,36148.410000341,00000077,-517,2,64185,-8,0,585*db972591
%RAWIMUSA,2283,36148.420;2283,36148.420000341,00000077,-482,114,64166,-54,-8,932*ce4ceef6
%RAWIMUSA,2283,36148.430;2283,36148.430000341,00000077,-483,98,64167,73,-9,-118*f7298c9b
%RAWIMUSA,2283,36148.440;2283,36148.440000341,00000077,-518,22,64184,-73,8,-914*91b824e5
%RAWIMUSA,2283,36148.450;2283,36148.450000341,00000077,-520,140,64161,92,8,-356*47e0ca60
%RAWIMUSA,2283,36148.460;2283,36148.460000341,00000077,-481,28,64183,-8,-8,923*37a825b4
%RAWIMUSA,2283,36148.470;2283,36148.470000341,00000077,-479,106,64168,-64,0,832*ab6ab679
%RAWIMUSA,2283,36148.480;2283,36148.480000341,00000077,-512,88,64166,92,0,-914*699fb171
%RAWIMUSA,2283,36148.490;2283,36148.490000341,00000077,-523,19,64182,-64,8,-914*a4aeeebb
%RAWIMUSA,2283,36148.500;2283,36148.500000341,00000077,-487,150,64161,74,-8,539*40aed13b
%RAWIMUSA,2283,36148.510;2283,36148.510000341,00000077,-468,29,64180,-18,-8,923*4ba421da
%RAWIMUSA,2283,36148.520;2283,36148.520000341,00000077,-513,90,64167,-64,0,-63*0ee6e0fb
%RAWIMUSA,2283,36148.530;2283,36148.530000341,00000077,-529,94,64164,110,8,-923*8bf7ac11
%RAWIMUSA,2283,36148.540;2283,36148.540000341,00000077,-487,36,64186,-64,8,-393*9384b451
%RAWIMUSA,2283,36148.550;2283,36148.550000341,00000077,-467,148,64161,46,-8,932*557349f1
%RAWIMUSA,2283,36148.560;2283,36148.560000341,00000077,-515,16,64183,0,-8,887*c2dc50d3
%RAWIMUSA,2283,36148.570;2283,36148.570000341,00000077,-528,92,64172,-64,8,-923*7e9dbdd1
%RAWIMUSA,2283,36148.580;2283,36148.580000341,00000077,-487,109,64161,119,0,-914*51c41e67
%RAWIMUSA,2283,36148.590;2283,36148.590000341,00000077,-470,20,64184,-73,9,493*590a5378
%RAWIMUSA,2283,36148.600;2283,36148.600000340,00000077,-509,139,64158,28,-8,923*e647a839
%RAWIMUSA,2283,36148.610;2283,36148.610000340,00000077,-523,37,64179,18,0,0*ce11fb31
%RAWIMUSA,2283,36148.620;2283,36148.620000340,00000077,-493,82,64172,-55,8,-932*9c4ef015
%RAWIMUSA,2283,36148.630;2283,36148.630000340,00000077,-482,121,64162,119,0,-447*ca96f7de
%RAWIMUSA,2283,36148.640;2283,36148.640000340,00000077,-504,-1,64188,-82,0,914*719620ad
%RAWIMUSA,2283,36148.650;2283,36148.650000340,00000077,-517,140,64160,9,-8,932*d2be00cc
%RAWIMUSA,2283,36148.660;2283,36148.660000340,00000077,-496,55,64176,55,0,-905*f06c15f2
%RAWIMUSA,2283,36148.670;2283,36148.670000340,00000077,-482,59,64180,-73,8,-914*148a5f67
%RAWIMUSA,2283,36148.680;2283,36148.680000340,00000077,-501,132,64160,110,0,439*fb29234b
%RAWIMUSA,2283,36148.690;2283,36148.690000340,00000077,-518,-6,64184,-64,-8,923*364a04fc
%RAWIMUSA,2283,36148.700;2283,36148.700000340,00000077,-497,136,64164,-18,0,36*89b92119
%RAWIMUSA,2283,36148.710;2283,36148.710000340,00000077,-476,74,64175,101,8,-914*d7ae21a7
%RAWIMUSA,2283,36148.720;2283,36148.720000340,00000077,-500,36,64179,-73,8,-521*6ec07330
%RAWIMUSA,2283,36148.730;2283,36148.730000340,00000077,-526,134,64157,74,-17,932*29aeb47f
%RAWIMUSA,2283,36148.740;2283,36148.740000340,00000077,-496,14,64183,-45,-8,923*547a1d7f
%RAWIMUSA,2283,36148.750;2283,36148.750000340,00000077,-476,127,64166,-18,8,-850*11ddac5c
%RAWIMUSA,2283,36148.760;2283,36148.760000340,00000077,-493,71,64169,101,8,-923*820a44b5
%RAWIMUSA,2283,36148.770;2283,36148.770000340,00000077,-523,25,64181,-82,0,393*83c02955
%RAWIMUSA,2283,36148.780;2283,36148.780000340,00000077,-510,154,64159,55,-17,932*32030b49
%RAWIMUSA,2283,36148.790;2283,36148.790000340,00000077,-478,32,64183,-27,9,91*264f8c03
%RAWIMUSA,2283,36148.800;2283,36148.800000340,00000077,-489,97,64169,-9,8,-923*1bd85a0b
%RAWIMUSA,2283,36148.810;2283,36148.810000340,00000077,-522,78,64163,101,0,-557*6c5af788
%RAWIMUSA,2283,36148.820;2283,36148.820000340,00000077,-511,43,64182,-91,-8,932*2cb5aade
%RAWIMUSA,2283,36148.830;2283,36148.830000340,00000077,-478,153,64160,46,-8,923*4333e50d
%RAWIMUSA,2283,36148.840;2283,36148.840000340,00000077,-485,10,64185,0,17,-813*c88a1962
%RAWIMUSA,2283,36148.850;2283,36148.850000340,00000077,-520,97,64169,-27,0,-923*1f48175c
%RAWIMUSA,2283,36148.860;2283,36148.860000340,00000077,-513,103,64163,101,0,338*498b9bf6
%RAWIMUSA,2283,36148.870;2283,36148.870000340,00000077,-481,27,64183,-100,-8,923*6bc649b6
%RAWIMUSA,2283,36148.880;2283,36148.880000340,00000077,-489,134,64159,46,0,146*a9544966
%RAWIMUSA,2283,36148.890;2283,36148.890000340,00000077,-511,26,64183,36,8,-923*d39c5bab
%RAWIMUSA,2283,36148.900;2283,36148.900000340,00000077,-507,106,64168,-46,0,-612*ac107b91
%RAWIMUSA,2283,36148.910;2283,36148.910000340,00000077,-487,105,64165,83,-17,923*893d4f7d
%RAWIMUSA,2283,36148.920;2283,36148.920000340,00000077,-492,-3,64187,-91,0,914*e4782606
%RAWIMUSA,2283,36148.930;2283,36148.930000340,00000077,-516,150,64157,46,8,-749*bb439aeb
%RAWIMUSA,2283,36148.940;2283,36148.940000340,00000077,-502,46,64178,55,0,-914*f580dd39
%RAWIMUSA,2283,36148.950;2283,36148.950000340,00000077,-486,68,64175,-82,0,283*62e60a94
%RAWIMUSA,2283,36148.960;2283,36148.960000340,00000077,-492,127,64159,92,-8,932*f3c2472b
%RAWIMUSA,2283,36148.970;2283,36148.970000340,00000077,-514,5,64186,-64,9,192*bdc05490
%RAWIMUSA,2283,36148.980;2283,36148.980000340,00000077,-507,143,64161,18,0,-905*1951a31e
%RAWIMUSA,2283,36148.990;2283,36148.990000340,00000077,-485,48,64171,82,0,-658*d5c170cb
%RAWIMUSA,2283,36149.000;2283,36149.000000340,00000077,-487,41,64181,-100,0,923*7053b526
%RAWIMUSA,2283,36149.010;2283,36149.010000340,00000077,-517,154,64158,74,-8,932*b16a6930
%RAWIMUSA,2283,36149.020;2283,36149.020000340,00000077,-511,12,64182,-27,8,-713*8fddd14d
%RAWIMUSA,2283,36149.030;2283,36149.030000340,00000077,-478,112,64168,-9,0,-923*39cbd46a
%RAWIMUSA,2283,36149.040;2283,36149.040000340,00000077,-490,76,64170,92,0,237*73fee711
%RAWIMUSA,2283,36149.050;2283,36149.050000340,00000077,-525,42,64180,-110,-8,923*246a859b
%RAWIMUSA,2283,36149.060;2283,36149.060000340,00000077,-507,155,64155,64,0,237*60493ebb
%RAWIMUSA,2283,36149.070;2283,36149.070000340,00000077,-471,2,64183,9,8,-914*08466766
%RAWIMUSA,2283,36149.080;2283,36149.080000340,00000077,-491,103,64169,-27,0,-703*324a149c
%RAWIMUSA,2283,36149.090;2283,36149.090000340,00000077,-522,102,64168,83,-8,923*46cc27c2
%RAWIMUSA,2283,36149.100;2283,36149.100000340,00000077,-512,26,64182,-110,-8,923*43a286c1
%RAWIMUSA,2283,36149.110;2283,36149.110000340,00000077,-482,134,64158,73,8,-649*ad34c788
%RAWIMUSA,2283,36149.120;2283,36149.120000340,00000077,-481,15,64184,27,8,-923*07767fda
%RAWIMUSA,2283,36149.130;2283,36149.130000340,00000077,-517,109,64167,-64,-9,201*957f181d
%RAWIMUSA,2283,36149.140;2283,36149.140000340,00000077,-516,108,64165,83,-8,923*67a144f9
%RAWIMUSA,2283,36149.150;2283,36149.150000340,00000077,-484,9,64182,-91,9,292*7bc21d48
%RAWIMUSA,2283,36149.160;2283,36149.160000340,00000077,-489,144,64156,73,8,-914*d2000f8e
%RAWIMUSA,2283,36149.170;2283,36149.170000340,00000077,-515,34,64184,27,0,-749*a3c1b9b8
%RAWIMUSA,2283,36149.180;2283,36149.180000340,00000077,-504,84,64169,-73,-8,923*b67abe97
%RAWIMUSA,2283,36149.190;2283,36149.190000340,00000077,-492,109,64164,83,-8,932*81dc3834
%RAWIMUSA,2283,36149.200;2283,36149.200000340,00000077,-496,19,64184,-64,17,-612*4a51a542
%RAWIMUSA,2283,36149.210;2283,36149.210000340,00000077,-508,141,64157,55,0,-923*672eb008
%RAWIMUSA,2283,36149.220;2283,36149.220000340,00000077,-508,31,64179,37,-9,146*6ff76630
%RAWIMUSA,2283,36149.230;2283,36149.230000340,00000077,-489,81,64175,-91,-8,923*416e84ec
%RAWIMUSA,2283,36149.240;2283,36149.240000340,00000077,-497,130,64166,92,9,329*b253ffe1
%RAWIMUSA,2283,36149.250;2283,36149.250000340,00000077,-506,4,64187,-46,8,-914*c89188f5
%RAWIMUSA,2283,36149.260;2283,36149.260000340,00000077,-508,134,64158,36,0,-795*86d0208f
%RAWIMUSA,2283,36149.270;2283,36149.270000340,00000077,-494,49,64175,37,-8,914*29850d83
%RAWIMUSA,2283,36149.280;2283,36149.280000340,00000077,-486,74,64177,-101,0,914*a43239b0
%RAWIMUSA,2283,36149.290;2283,36149.290000340,00000077,-506,129,64162,110,0,-548*2f239f6f
%RAWIMUSA,2283,36149.300;2283,36149.300000340,00000077,-511,-2,64185,-36,8,-914*f9cf1f36
%RAWIMUSA,2283,36149.310;2283,36149.310000340,00000077,-494,139,64163,0,-9,91*a3cf860f
%RAWIMUSA,2283,36149.320;2283,36149.320000340,00000077,-489,65,64177,55,-8,923*60215e92
%RAWIMUSA,2283,36149.330;2283,36149.330000340,00000077,-504,47,64179,-91,18,393*b793409d
%RAWIMUSA,2283,36149.340;2283,36149.340000340,00000077,-514,137,64157,110,0,-923*ae705845
%RAWIMUSA,2283,36149.350;2283,36149.350000340,00000077,-493,10,64186,-18,0,-850*395b9513
%RAWIMUSA,2283,36149.360;2283,36149.360000340,00000077,-481,129,64166,-36,-8,923*4b8024f5
%RAWIMUSA,2283,36149.370;2283,36149.370000340,00000077,-503,71,64172,64,0,923*6f5ffcd6
%RAWIMUSA,2283,36149.380;2283,36149.380000340,00000077,-514,28,64179,-73,8,-502*346dfd03
%RAWIMUSA,2283,36149.390;2283,36149.390000340,00000077,-496,147,64159,92,0,-914*ec1aea30
%RAWIMUSA,2283,36149.400;2283,36149.400000340,00000077,-488,20,64185,-18,-9,45*db5a8ceb
%RAWIMUSA,2283,36149.410;2283,36149.410000340,00000077,-503,113,64167,-54,0,923*78f1e2fb
%RAWIMUSA,2283,36149.420;2283,36149.420000340,00000077,-510,78,64167,92,0,448*50c4bde1
%RAWIMUSA,2283,36149.430;2283,36149.430000340,00000077,-492,25,64181,-64,8,-923*9f055a4b
%RAWIMUSA,2283,36149.440;2283,36149.440000340,00000077,-491,151,64161,73,0,-905*b51ccb01
%RAWIMUSA,2283,36149.450;2283,36149.450000340,00000077,-504,20,64181,-18,-8,914*63131629
%RAWIMUSA,2283,36149.460;2283,36149.460000340,00000077,-511,101,64167,-54,0,923*2a690c54
%RAWIMUSA,2283,36149.470;2283,36149.470000340,00000077,-498,92,64167,110,8,-447*0fb9c82a
%RAWIMUSA,2283,36149.480;2283,36149.480000340,00000077,-486,26,64181,-73,8,-923*b0e5a040
%RAWIMUSA,2283,36149.490;2283,36149.490000340,00000077,-501,147,64160,55,-9,-9*86b954be
%RAWIMUSA,2283,36149.500;2283,36149.500000340,00000077,-513,15,64182,-8,-8,923*e7392778
%RAWIMUSA,2283,36149.510;2283,36149.510000340,00000077,-500,96,64167,-55,9,484*0d49382d
%RAWIMUSA,2283,36149.520;2283,36149.520000340,00000077,-484,110,64167,110,8,-905*d71a2d4a
%RAWIMUSA,2283,36149.530;2283,36149.530000340,00000077,-503,28,64183,-73,-9,-923*5d9e5dc8
%RAWIMUSA,2283,36149.540;2283,36149.540000340,00000077,-518,139,64155,37,-8,887*63dcbfbb
%RAWIMUSA,2283,36149.550;2283,36149.550000340,00000077,-497,16,64178,0,0,914*0d4d4c98
%RAWIMUSA,2283,36149.560;2283,36149.560000340,00000077,-479,94,64175,-46,8,-402*752b7f6c
%RAWIMUSA,2283,36149.570;2283,36149.570000340,00000077,-500,126,64164,119,0,-923*c25d32ae
%RAWIMUSA,2283,36149.580;2283,36149.580000340,00000077,-520,3,64188,-82,-9,-63*1ebfb57d
%RAWIMUSA,2283,36149.590;2283,36149.590000340,00000077,-501,142,64155,18,0,914*a2b9a9b8
%RAWIMUSA,2283,36149.600;2283,36149.600000340,00000077,-481,38,64178,37,0,557*19d8c19b
%RAWIMUSA,2283,36149.610;2283,36149.610000340,00000077,-493,66,64175,-64,8,-914*21f078fa
%RAWIMUSA,2283,36149.620;2283,36149.620000340,00000077,-517,134,64163,110,-10,-905*cbc4712d
%RAWIMUSA,2283,36149.630;2283,36149.630000340,00000077,-505,1,64188,-73,-8,832*ff29309b
%RAWIMUSA,2283,36149.640;2283,36149.640000340,00000077,-485,141,64158,-8,9,932*ba97ecf0
%RAWIMUSA,2283,36149.650;2283,36149.650000340,00000077,-493,59,64173,83,8,-347*e5bdf2f5
%RAWIMUSA,2283,36149.660;2283,36149.660000340,00000077,-511,41,64180,-64,0,-923*0e4df2da
%RAWIMUSA,2283,36149.670;2283,36149.670000340,00000077,-506,140,64161,83,-18,-109*9c7841fc
%RAWIMUSA,2283,36149.680;2283,36149.680000340,00000077,-484,11,64183,-54,9,914*45ae93aa
%RAWIMUSA,2283,36149.690;2283,36149.690000340,00000077,-494,129,64163,-18,9,594*a1695bba
%RAWIMUSA,2283,36149.700;2283,36149.700000340,00000077,-510,64,64172,101,0,-914*57ee8fc6
%RAWIMUSA,2283,36149.710;2283,36149.710000340,00000077,-507,27,64180,-83,-9,-923*9300e6b3
%RAWIMUSA,2283,36149.720;2283,36149.720000340,00000077,-493,161,64155,55,-8,786*68aed6b1
%RAWIMUSA,2283,36149.730;2283,36149.730000340,00000077,-491,13,64184,-27,9,932*513446b9
%RAWIMUSA,2283,36149.740;2283,36149.740000340,00000077,-506,100,64167,-18,8,-310*8f97140e
%RAWIMUSA,2283,36149.750;2283,36149.750000340,00000077,-503,91,64170,110,0,-914*991a12ef
%RAWIMUSA,2283,36149.760;2283,36149.760000340,00000077,-493,32,64185,-101,-9,-164*faf15d9a
%RAWIMUSA,2283,36149.770;2283,36149.770000340,00000077,-497,154,64158,46,0,923*3edee81d
%RAWIMUSA,2283,36149.780;2283,36149.780000340,00000077,-504,5,64187,18,9,640*b8499d90
%RAWIMUSA,2283,36149.790;2283,36149.790000340,00000077,-502,95,64169,-46,0,-923*0e67b9d1
%RAWIMUSA,2283,36149.800;2283,36149.800000340,00000077,-501,121,64162,101,-10,-914*79cabba3
%RAWIMUSA,2283,36149.810;2283,36149.810000340,00000077,-496,11,64186,-91,0,740*c2f852de
%RAWIMUSA,2283,36149.820;2283,36149.820000340,00000077,-495,143,64157,28,9,923*27b96e0e
%RAWIMUSA,2283,36149.830;2283,36149.830000340,00000077,-507,35,64181,55,0,-255*25b00ed9
%RAWIMUSA,2283,36149.840;2283,36149.840000340,00000077,-501,74,64176,-55,0,-923*89a94abf
%RAWIMUSA,2283,36149.850;2283,36149.850000340,00000077,-496,124,64162,83,-9,-210*6185386a
%RAWIMUSA,2283,36149.860;2283,36149.860000340,00000077,-501,10,64184,-82,9,932*afeb48f5
%RAWIMUSA,2283,36149.870;2283,36149.870000340,00000077,-507,136,64159,27,0,685*7297fd72
%RAWIMUSA,2283,36149.880;2283,36149.880000340,00000077,-496,47,64174,64,8,-914*d96a570d
%RAWIMUSA,2283,36149.890;2283,36149.890000340,00000077,-490,67,64176,-73,-9,-914*1bb0921a
%RAWIMUSA,2283,36149.900;2283,36149.900000340,00000077,-502,131,64164,83,-8,685*d56733d4
%RAWIMUSA,2283,36149.910;2283,36149.910000340,00000077,-509,6,64184,-64,9,914*5f775131
%RAWIMUSA,2283,36149.920;2283,36149.920000340,00000077,-496,132,64159,18,8,-201*f2f27992
%RAWIMUSA,2283,36149.930;2283,36149.930000340,00000077,-496,53,64176,82,0,-914*4217f87f
%RAWIMUSA,2283,36149.940;2283,36149.940000340,00000077,-505,56,64179,-101,-9,-274*ea834437
%RAWIMUSA,2283,36149.950;2283,36149.950000340,00000077,-504,140,64160,74,0,932*4de9a157
%RAWIMUSA,2283,36149.960;2283,36149.960000340,00000077,-493,3,64187,-36,9,740*9384469e
%RAWIMUSA,2283,36149.970;2283,36149.970000340,00000077,-491,129,64165,9,0,-914*94273575
%RAWIMUSA,2283,36149.980;2283,36149.980000340,00000077,-506,73,64173,73,-10,-914*d12e537a
%RAWIMUSA,2283,36149.990;2283,36149.990000340,00000077,-507,41,64180,-101,-8,631*0f40effe
%RAWIMUSA,2283,36150.000;2283,36150.000000340,00000077,-488,139,64157,74,9,914*4030551b
%RAWIMUSA,2283,36150.010;2283,36150.010000340,00000077,-492,15,64182,-9,9,-155*fad8fdea
%RAWIMUSA,2283,36150.020;2283,36150.020000340,00000077,-510,125,64166,-9,-9,-914*bbf1a225
%RAWIMUSA,2283,36150.030;2283,36150.030000340,00000077,-504,77,64171,64,-9,-301*02b14dae
%RAWIMUSA,2283,36150.040;2283,36150.040000340,00000077,-490,34,64178,-100,9,923*0bc12ad9
%RAWIMUSA,2283,36150.050;2283,36150.050000340,00000077,-496,144,64158,92,9,795*48b1cacd
%RAWIMUSA,2283,36150.060;2283,36150.060000340,00000077,-508,13,64182,0,0,-914*50cd6e28
%RAWIMUSA,2283,36150.070;2283,36150.070000340,00000077,-503,106,64165,-36,-9,-914*6f8fe3f7
%RAWIMUSA,2283,36150.080;2283,36150.080000340,00000077,-490,92,64163,74,-8,585*beefc938
%RAWIMUSA,2283,36150.090;2283,36150.090000340,00000077,-495,26,64184,-91,9,923*667a6693
%RAWIMUSA,2283,36150.100;2283,36150.100000340,00000077,-508,150,64154,73,8,-109*7662c524
%RAWIMUSA,2283,36150.110;2283,36150.110000340,00000077,-502,12,64183,27,-9,-914*b7e2e7ac
%RAWIMUSA,2283,36150.120;2283,36150.120000340,00000077,-494,90,64169,-73,-9,-374*104e7f8a
%RAWIMUSA,2283,36150.130;2283,36150.130000340,00000077,-497,115,64165,83,9,923*98d76c84
%RAWIMUSA,2283,36150.140;2283,36150.140000340,00000077,-507,20,64187,-64,9,832*368dafc7
%RAWIMUSA,2283,36150.150;2283,36150.150000340,00000077,-505,138,64159,64,0,-914*57527079
%RAWIMUSA,2283,36150.160;2283,36150.160000340,00000077,-493,28,64177,18,-19,-914*0f799b04
%RAWIMUSA,2283,36150.170;2283,36150.170000340,00000077,-494,84,64170,-82,9,530*5b7c323b
%RAWIMUSA,2283,36150.180;2283,36150.180000340,00000077,-502,115,64163,101,0,932*16a193be
%RAWIMUSA,2283,36150.190;2283,36150.190000340,00000077,-505,9,64187,-55,9,-63*52f4022c
%RAWIMUSA,2283,36150.200;2283,36150.200000340,00000077,-494,148,64155,36,-10,-923*55771c0e
%RAWIMUSA,2283,36150.210;2283,36150.210000340,00000077,-492,38,64178,36,-9,-411*245feee4
%RAWIMUSA,2283,36150.220;2283,36150.220000340,00000077,-505,64,64173,-100,19,923*41191121
%RAWIMUSA,2283,36150.230;2283,36150.230000340,00000077,-507,132,64161,110,0,896*bb41a6ec
%RAWIMUSA,2283,36150.240;2283,36150.240000340,00000077,-498,1,64186,-36,0,-923*975cd78b
%RAWIMUSA,2283,36150.250;2283,36150.250000340,00000077,-491,137,64163,0,-9,-914*684167a7
%RAWIMUSA,2283,36150.260;2283,36150.260000340,00000077,-502,62,64174,46,0,493*7d89822e
%RAWIMUSA,2283,36150.270;2283,36150.270000340,00000077,-505,56,64180,-82,9,914*eb9d8528
%RAWIMUSA,2283,36150.280;2283,36150.280000340,00000077,-498,130,64158,110,0,-9*4aba7e59
%RAWIMUSA,2283,36150.290;2283,36150.290000340,00000077,-496,12,64179,-36,-9,-923*5af00077
%RAWIMUSA,2283,36150.300;2283,36150.300000340,00000077,-499,131,64163,-18,0,-466*652cf1c2
%RAWIMUSA,2283,36150.310;2283,36150.310000340,00000077,-505,57,64178,46,0,932*60cd4d67
%RAWIMUSA,2283,36150.320;2283,36150.320000340,00000077,-499,51,64177,-73,9,914*bd386dec
%RAWIMUSA,2283,36150.330;2283,36150.330000340,00000077,-494,141,64158,110,-10,-895*442fa953
%RAWIMUSA,2283,36150.340;2283,36150.340000340,00000077,-498,5,64187,-46,-9,-914*09d5ce81
%RAWIMUSA,2283,36150.350;2283,36150.350000340,00000077,-507,120,64164,-36,9,438*ad79f3e4
%RAWIMUSA,2283,36150.360;2283,36150.360000340,00000077,-507,78,64170,83,0,923*22c42d87
%RAWIMUSA,2283,36150.370;2283,36150.370000340,00000077,-497,32,64181,-73,9,45*66f375b5
%RAWIMUSA,2283,36150.380;2283,36150.380000340,00000077,-487,144,64156,92,-10,-914*be4e42bb
%RAWIMUSA,2283,36150.390;2283,36150.390000340,00000077,-505,17,64185,-27,-9,-511*fc276830
%RAWIMUSA,2283,36150.400;2283,36150.400000340,00000077,-513,109,64165,-64,9,923*47492faf
%RAWIMUSA,2283,36150.410;2283,36150.410000340,00000077,-498,89,64163,110,9,932*df52a215
%RAWIMUSA,2283,36150.420;2283,36150.420000340,00000077,-488,28,64181,-73,-9,-850*681fa4aa
%RAWIMUSA,2283,36150.430;2283,36150.430000340,00000077,-498,148,64157,64,-10,-914*9c656791
%RAWIMUSA,2283,36150.440;2283,36150.440000340,00000077,-513,20,64183,-18,9,384*ae894291
%RAWIMUSA,2283,36150.450;2283,36150.450000340,00000077,-499,99,64169,-45,0,914*5149430c
%RAWIMUSA,2283,36150.460;2283,36150.460000340,00000077,-489,99,64164,110,0,82*e29119c0
%RAWIMUSA,2283,36150.470;2283,36150.470000340,00000077,-494,20,64184,-64,-9,-923*64aee29d
%RAWIMUSA,2283,36150.480;2283,36150.480000340,00000077,-502,148,64161,27,0,-548*7879652b
%RAWIMUSA,2283,36150.490;2283,36150.490000340,00000077,-503,35,64182,0,9,923*f198ba39
%RAWIMUSA,2283,36150.500;2283,36150.500000340,00000077,-493,81,64169,-45,9,923*9bbe6afa
%RAWIMUSA,2283,36150.510;2283,36150.510000339,00000077,-495,109,64164,119,-9,-804*8093f22f
%RAWIMUSA,2283,36150.520;2283,36150.520000339,00000077,-507,23,64185,-83,-9,-914*5e196a01
%RAWIMUSA,2283,36150.530;2283,36150.530000339,00000077,-504,144,64160,18,0,338*e6e1da17
%RAWIMUSA,2283,36150.540;2283,36150.540000339,00000077,-494,33,64178,28,9,914*c3958651
%RAWIMUSA,2283,36150.550;2283,36150.550000339,00000077,-494,83,64176,-45,0,155*4e78d56c
%RAWIMUSA,2283,36150.560;2283,36150.560000339,00000077,-504,118,64162,101,-10,-914*1f284d15
%RAWIMUSA,2283,36150.570;2283,36150.570000339,00000077,-504,14,64186,-82,-9,-612*f0ff878d
%RAWIMUSA,2283,36150.580;2283,36150.580000339,00000077,-496,136,64157,18,9,923*d74be8e2
%RAWIMUSA,2283,36150.590;2283,36150.590000339,00000077,-496,43,64179,55,9,923*c2fd889a
%RAWIMUSA,2283,36150.600;2283,36150.600000339,00000077,-502,74,64178,-55,0,-758*ceed2a8d
%RAWIMUSA,2283,36150.610;2283,36150.610000339,00000077,-507,117,64164,92,-19,-905*7cc0df39
%RAWIMUSA,2283,36150.620;2283,36150.620000339,00000077,-491,8,64184,-82,9,274*f138f9b9
%RAWIMUSA,2283,36150.630;2283,36150.630000339,00000077,-496,141,64157,18,9,932*71de11bb
%RAWIMUSA,2283,36150.640;2283,36150.640000339,00000077,-501,45,64176,73,0,201*1096d186
%RAWIMUSA,2283,36150.650;2283,36150.650000339,00000077,-501,67,64178,-73,-9,-914*8f5cf192
%RAWIMUSA,2283,36150.660;2283,36150.660000339,00000077,-498,128,64161,82,0,-667*52ac075c
%RAWIMUSA,2283,36150.670;2283,36150.670000339,00000077,-497,6,64186,-73,9,923*30758a2a
%RAWIMUSA,2283,36150.680;2283,36150.680000339,00000077,-502,135,64159,28,0,914*24b537ff
%RAWIMUSA,2283,36150.690;2283,36150.690000339,00000077,-502,52,64175,73,-9,-685*3413101a
%RAWIMUSA,2283,36150.700;2283,36150.700000339,00000077,-493,62,64176,-92,0,-923*67a88fe4
%RAWIMUSA,2283,36150.710;2283,36150.710000339,00000077,-496,135,64159,73,9,237*aa0401f0
%RAWIMUSA,2283,36150.720;2283,36150.720000339,00000077,-506,8,64183,-45,9,923*7d972fab
%RAWIMUSA,2283,36150.730;2283,36150.730000339,00000077,-503,127,64165,27,-9,246*40988b63
%RAWIMUSA,2283,36150.740;2283,36150.740000339,00000077,-492,56,64172,64,-10,-914*fe2d2d88
%RAWIMUSA,2283,36150.750;2283,36150.750000339,00000077,-494,59,64179,-101,0,-713*bdb3ff60
%RAWIMUSA,2283,36150.760;2283,36150.760000339,00000077,-506,145,64157,74,9,932*25d90441
%RAWIMUSA,2283,36150.770;2283,36150.770000339,00000077,-503,2,64185,-8,0,914*3ff037bd
%RAWIMUSA,2283,36150.780;2283,36150.780000339,00000077,-495,123,64165,0,0,-649*361da285
%RAWIMUSA,2283,36150.790;2283,36150.790000339,00000077,-496,77,64170,64,-10,-923*3e95ecff
%RAWIMUSA,2283,36150.800;2283,36150.800000339,00000077,-500,33,64179,-101,9,173*2d536480
%RAWIMUSA,2283,36150.810;2283,36150.810000339,00000077,-501,139,64157,83,9,923*c27fa886
%RAWIMUSA,2283,36150.820;2283,36150.820000339,00000077,-495,17,64187,0,-9,292*8c449233
%RAWIMUSA,2283,36150.830;2283,36150.830000339,00000077,-497,117,64165,-27,-9,-914*b36cc24a
%RAWIMUSA,2283,36150.840;2283,36150.840000339,00000077,-506,78,64168,73,8,-758*9628fddc
%RAWIMUSA,2283,36150.850;2283,36150.850000339,00000077,-505,23,64180,-100,0,932*491947d7
%RAWIMUSA,2283,36150.860;2283,36150.860000339,00000077,-491,147,64160,92,9,923*db92389d
%RAWIMUSA,2283,36150.870;2283,36150.870000339,00000077,-493,21,64182,9,-9,-594*fd73d9dd
%RAWIMUSA,2283,36150.880;2283,36150.880000339,00000077,-505,110,64167,-64,0,-932*4f96bf3b
%RAWIMUSA,2283,36150.890;2283,36150.890000339,00000077,-502,93,64167,83,0,146*085667c0
%RAWIMUSA,2283,36150.900;2283,36150.900000339,00000077,-494,17,64183,-82,9,923*23e087d7
%RAWIMUSA,2283,36150.910;2283,36150.910000339,00000077,-496,150,64160,83,-9,338*1a1d5cc9
%RAWIMUSA,2283,36150.920;2283,36150.920000339,00000077,-501,19,64181,9,0,-923*f2498764
%RAWIMUSA,2283,36150.930;2283,36150.930000339,00000077,-508,99,64170,-82,0,-813*3324e07d
%RAWIMUSA,2283,36150.940;2283,36150.940000339,00000077,-498,114,64165,101,9,932*f053f948
%RAWIMUSA,2283,36150.950;2283,36150.950000339,00000077,-493,0,64186,-64,0,923*df05a87b
%RAWIMUSA,2283,36150.960;2283,36150.960000339,00000077,-503,149,64158,55,-9,-548*b0d56976
%RAWIMUSA,2283,36150.970;2283,36150.970000339,00000077,-504,35,64180,18,0,-923*7a499dba
%RAWIMUSA,2283,36150.980;2283,36150.980000339,00000077,-498,77,64172,-91,9,73*7a5f2b6f
%RAWIMUSA,2283,36150.990;2283,36150.990000339,00000077,-496,126,64164,110,9,932*48f5cd41
%RAWIMUSA,2283,36151.000;2283,36151.000000339,00000077,-503,1,64185,-45,-8,393*bada259e
%RAWIMUSA,2283,36151.010;2283,36151.010000339,00000077,-503,146,64158,18,-9,-914*d5292845
%RAWIMUSA,2283,36151.020;2283,36151.020000339,00000077,-496,53,64177,36,8,-850*4c95df50
%RAWIMUSA,2283,36151.030;2283,36151.030000339,00000077,-495,54,64176,-91,9,914*a6b19016
%RAWIMUSA,2283,36151.040;2283,36151.040000339,00000077,-505,133,64162,110,-8,923*4574494f
%RAWIMUSA,2283,36151.050;2283,36151.050000339,00000077,-500,13,64186,-27,-9,-502*2ca02cba
%RAWIMUSA,2283,36151.060;2283,36151.060000339,00000077,-495,135,64161,-18,0,-923*4133248e
%RAWIMUSA,2283,36151.070;2283,36151.070000339,00000077,-500,50,64173,46,9,45*bf0aec69
%RAWIMUSA,2283,36151.080;2283,36151.080000339,00000077,-505,55,64178,-73,9,914*58521c0f
%RAWIMUSA,2283,36151.090;2283,36151.090000339,00000077,-499,144,64159,110,-18,429*54be9dd3
%RAWIMUSA,2283,36151.100;2283,36151.100000339,00000077,-488,2,64186,-46,0,-914*d9c850b4
%RAWIMUSA,2283,36151.110;2283,36151.110000339,00000077,-499,125,64161,-18,0,-905*ca2c05ea
%RAWIMUSA,2283,36151.120;2283,36151.120000339,00000077,-509,65,64174,74,9,932*8e828d07
%RAWIMUSA,2283,36151.130;2283,36151.130000339,00000077,-503,45,64181,-73,0,923*3f16e53b
%RAWIMUSA,2283,36151.140;2283,36151.140000339,00000077,-487,145,64157,92,-9,-457*9aa1338b
%RAWIMUSA,2283,36151.150;2283,36151.150000339,00000077,-494,0,64186,-36,0,-914*61fb6aa7
%RAWIMUSA,2283,36151.160;2283,36151.160000339,00000077,-512,123,64168,-45,9,-27*f5cf4281
%RAWIMUSA,2283,36151.170;2283,36151.170000339,00000077,-504,88,64167,101,0,932*08cb2935
%RAWIMUSA,2283,36151.180;2283,36151.180000339,00000077,-491,26,64179,-73,-8,484*60e5af3c
%RAWIMUSA,2283,36151.190;2283,36151.190000339,00000077,-498,135,64159,64,0,-923*1a51f757
%RAWIMUSA,2283,36151.200;2283,36151.200000339,00000077,-505,18,64184,-9,0,-923*05b0494e
%RAWIMUSA,2283,36151.210;2283,36151.210000339,00000077,-504,120,64170,-54,9,877*e706ed51
%RAWIMUSA,2283,36151.220;2283,36151.220000339,00000077,-495,96,64168,110,0,932*13513233
%RAWIMUSA,2283,36151.230;2283,36151.230000339,00000077,-495,12,64181,-73,-9,-402*c7620d86
%RAWIMUSA,2283,36151.240;2283,36151.240000339,00000077,-502,142,64162,46,0,-932*914ef0b1
%RAWIMUSA,2283,36151.250;2283,36151.250000339,00000077,-501,31,64185,-18,9,-63*2044c012
%RAWIMUSA,2283,36151.260;2283,36151.260000339,00000077,-497,103,64166,-36,0,923*317cfc0d
%RAWIMUSA,2283,36151.270;2283,36151.270000339,00000077,-503,99,64166,120,-8,548*5f523424
%RAWIMUSA,2283,36151.280;2283,36151.280000339,00000077,-503,12,64189,-92,0,-914*672c3d03
%RAWIMUSA,2283,36151.290;2283,36151.290000339,00000077,-496,156,64160,36,0,-914*332d7f79
%RAWIMUSA,2283,36151.300;2283,36151.300000339,00000077,-495,31,64177,9,9,841*3d43f566
%RAWIMUSA,2283,36151.310;2283,36151.310000339,00000077,-501,77,64172,-36,0,923*6e45adc7
%RAWIMUSA,2283,36151.320;2283,36151.320000339,00000077,-502,107,64165,110,-9,-347*a2d3dc6a
%RAWIMUSA,2283,36151.330;2283,36151.330000339,00000077,-501,26,64188,-92,0,-923*d52744fe
%RAWIMUSA,2283,36151.340;2283,36151.340000339,00000077,-500,144,64161,18,9,-109*8c7604eb
%RAWIMUSA,2283,36151.350;2283,36151.350000339,00000077,-493,20,64176,55,0,932*545456cf
%RAWIMUSA,2283,36151.360;2283,36151.360000339,00000077,-504,81,64175,-54,-8,594*89e8088c
%RAWIMUSA,2283,36151.370;2283,36151.370000339,00000077,-507,132,64161,92,0,-914*d6e1315c
%RAWIMUSA,2283,36151.380;2283,36151.380000339,00000077,-494,4,64187,-92,8,-923*45651a6a
%RAWIMUSA,2283,36151.390;2283,36151.390000339,00000077,-497,137,64160,27,0,777*f746723b
%RAWIMUSA,2283,36151.400;2283,36151.400000339,00000077,-505,39,64176,64,0,932*ac1dd635
%RAWIMUSA,2283,36151.410;2283,36151.410000339,00000077,-507,77,64176,-73,-9,-301*b55594d6
%RAWIMUSA,2283,36151.420;2283,36151.420000339,00000077,-496,131,64162,82,0,-914*b243db69
%RAWIMUSA,2283,36151.430;2283,36151.430000339,00000077,-492,-1,64185,-73,9,-164*422fad84
%RAWIMUSA,2283,36151.440;2283,36151.440000339,00000077,-500,133,64162,28,0,923*23aae629
%RAWIMUSA,2283,36151.450;2283,36151.450000339,00000077,-507,67,64174,83,-8,649*7475b5a1
%RAWIMUSA,2283,36151.460;2283,36151.460000339,00000077,-500,50,64183,-101,0,-923*b9130ad0
%RAWIMUSA,2283,36151.470;2283,36151.470000339,00000077,-494,133,64156,82,0,-914*77b1edc0
%RAWIMUSA,2283,36151.480;2283,36151.480000339,00000077,-501,6,64186,-36,9,722*f9acdf4e
%RAWIMUSA,2283,36151.490;2283,36151.490000339,00000077,-504,136,64167,0,-8,923*8f15bc7e
%RAWIMUSA,2283,36151.500;2283,36151.500000339,00000077,-497,73,64172,83,0,-246*8441266d
%RAWIMUSA,2283,36151.510;2283,36151.510000339,00000077,-498,40,64184,-101,0,-932*0efd0f47
%RAWIMUSA,2283,36151.520;2283,36151.520000339,00000077,-494,142,64159,64,8,-210*549e5ca8
%RAWIMUSA,2283,36151.530;2283,36151.530000339,00000077,-502,10,64179,-8,0,932*4124392d
%RAWIMUSA,2283,36151.540;2283,36151.540000339,00000077,-510,115,64167,-8,-8,685*070260d5
%RAWIMUSA,2283,36151.550;2283,36151.550000339,00000077,-491,86,64171,82,0,-905*33a16cb0
%RAWIMUSA,2283,36151.560;2283,36151.560000339,00000077,-487,32,64183,-110,8,-914*6c6ee4f6
%RAWIMUSA,2283,36151.570;2283,36151.570000339,00000077,-510,158,64159,64,9,695*13c98c99
%RAWIMUSA,2283,36151.580;2283,36151.580000339,00000077,-511,6,64184,28,-8,923*573d6b40
%RAWIMUSA,2283,36151.590;2283,36151.590000339,00000077,-486,86,64168,-55,-9,-201*b49bfefb
%RAWIMUSA,2283,36151.600;2283,36151.600000339,00000077,-487,118,64161,82,8,-914*989c6e80
%RAWIMUSA,2283,36151.610;2283,36151.610000339,00000077,-516,15,64187,-92,9,-255*8f04589a
%RAWIMUSA,2283,36151.620;2283,36151.620000339,00000077,-513,142,64158,55,0,932*ee26f0c3
%RAWIMUSA,2283,36151.630;2283,36151.630000339,00000077,-485,36,64181,55,-8,740*5b0ba1ed
%RAWIMUSA,2283,36151.640;2283,36151.640000339,00000077,-488,72,64175,-83,8,-914*e3946d89
%RAWIMUSA,2283,36151.650;2283,36151.650000339,00000077,-514,130,64161,82,0,-914*eb40e466
%RAWIMUSA,2283,36151.660;2283,36151.660000339,00000077,-510,6,64185,-54,0,631*17e0a6a1
%RAWIMUSA,2283,36151.670;2283,36151.670000339,00000077,-485,134,64159,28,0,923*cba0168d
%RAWIMUSA,2283,36151.680;2283,36151.680000339,00000077,-488,56,64174,64,-9,-137*14d81770
%RAWIMUSA,2283,36151.690;2283,36151.690000339,00000077,-516,58,64178,-110,8,-923*16ae649a
%RAWIMUSA,2283,36151.700;2283,36151.700000339,00000077,-514,130,64159,83,8,-310*3387ebe6
%RAWIMUSA,2283,36151.710;2283,36151.710000339,00000077,-486,1,64185,-18,-8,923*f3e3baf6
%RAWIMUSA,2283,36151.720;2283,36151.720000339,00000077,-485,141,64164,0,-8,804*56863415
%RAWIMUSA,2283,36151.730;2283,36151.730000339,00000077,-515,72,64173,64,0,-923*bfbe6f39
%RAWIMUSA,2283,36151.740;2283,36151.740000339,00000077,-514,35,64181,-101,8,-923*9662e028
%RAWIMUSA,2283,36151.750;2283,36151.750000339,00000077,-484,137,64155,92,0,576*e9c99526
%RAWIMUSA,2283,36151.760;2283,36151.760000339,00000077,-487,18,64186,-8,0,923*e7ef7e0d
%RAWIMUSA,2283,36151.770;2283,36151.770000339,00000077,-512,121,64163,-27,-9,-109*9409f777
%RAWIMUSA,2283,36151.780;2283,36151.780000339,00000077,-513,74,64169,64,8,-914*b89f946d
%RAWIMUSA,2283,36151.790;2283,36151.790000339,00000077,-487,31,64180,-92,8,-374*60f4fe11
%RAWIMUSA,2283,36151.800;2283,36151.800000339,00000077,-487,146,64159,92,-8,923*6eb70f58
%RAWIMUSA,2283,36151.810;2283,36151.810000339,00000077,-506,11,64187,0,0,841*30490f4a
%RAWIMUSA,2283,36151.820;2283,36151.820000339,00000077,-514,110,64168,-46,0,-932*aa806e99
%RAWIMUSA,2283,36151.830;2283,36151.830000339,00000077,-493,83,64166,73,8,-914*801f43a8
%RAWIMUSA,2283,36151.840;2283,36151.840000339,00000077,-481,32,64183,-82,0,530*78cdc2f4
%RAWIMUSA,2283,36151.850;2283,36151.850000339,00000077,-507,145,64160,92,-8,923*2183721c
%RAWIMUSA,2283,36151.860;2283,36151.860000339,00000077,-519,11,64185,-9,-9,-54*b89cc709
%RAWIMUSA,2283,36151.870;2283,36151.870000339,00000077,-496,100,64167,-64,8,-923*74212eb8
%RAWIMUSA,2283,36151.880;2283,36151.880000339,00000077,-482,107,64165,92,8,-411*6def172b
%RAWIMUSA,2283,36151.890;2283,36151.890000339,00000077,-503,22,64184,-73,-8,914*00b44930
%RAWIMUSA,2283,36151.900;2283,36151.900000339,00000077,-519,146,64159,74,-8,905*504c4736
%RAWIMUSA,2283,36151.910;2283,36151.910000339,00000077,-497,21,64183,9,8,-914*34f92e36
%RAWIMUSA,2283,36151.920;2283,36151.920000339,00000077,-478,91,64169,-83,8,-923*402032bf
%RAWIMUSA,2283,36151.930;2283,36151.930000339,00000077,-501,114,64163,101,0,484*6bd697dc
%RAWIMUSA,2283,36151.940;2283,36151.940000339,00000077,-520,11,64189,-54,-8,914*55e22177
%RAWIMUSA,2283,36151.950;2283,36151.950000339,00000077,-499,144,64163,37,-9,0*54def710
%RAWIMUSA,2283,36151.960;2283,36151.960000339,00000077,-484,44,64180,9,8,-923*65ec6e83
%RAWIMUSA,2283,36151.970;2283,36151.970000339,00000077,-500,80,64174,-73,8,-466*11db6ae7
%RAWIMUSA,2283,36151.980;2283,36151.980000339,00000077,-515,105,64163,120,-8,932*d33b1de2
%RAWIMUSA,2283,36151.990;2283,36151.990000339,00000077,-497,17,64186,-54,-8,923*106c82d9
%RAWIMUSA,2283,36152.000;2283,36152.000000339,00000077,-484,150,64158,18,0,-895*faf19cec
%RAWIMUSA,2283,36152.010;2283,36152.010000339,00000077,-500,40,64179,18,8,-914*d2edfe3e
%RAWIMUSA,2283,36152.020;2283,36152.020000339,00000077,-513,69,64174,-64,0,429*5b7e8150
%RAWIMUSA,2283,36152.030;2283,36152.030000339,00000077,-502,131,64162,120,-8,932*55cbb472
%RAWIMUSA,2283,36152.040;2283,36152.040000339,00000077,-484,0,64187,-55,0,45*b6144c68
%RAWIMUSA,2283,36152.050;2283,36152.050000339,00000077,-500,143,64160,-18,8,-914*86d8507b
%RAWIMUSA,2283,36152.060;2283,36152.060000339,00000077,-512,60,64174,64,0,-521*61670bea
%RAWIMUSA,2283,36152.070;2283,36152.070000339,00000077,-499,45,64179,-73,0,923*1183c47c
%RAWIMUSA,2283,36152.080;2283,36152.080000339,00000077,-488,142,64156,110,-8,923*727b8181
%RAWIMUSA,2283,36152.090;2283,36152.090000339,00000077,-498,6,64188,-55,8,-850*fb82bc28
%RAWIMUSA,2283,36152.100;2283,36152.100000339,00000077,-509,120,64162,-36,8,-923*440487da
%RAWIMUSA,2283,36152.110;2283,36152.110000339,00000077,-507,77,64172,101,-9,393*699c17e6
%RAWIMUSA,2283,36152.120;2283,36152.120000339,00000077,-488,27,64180,-73,-8,923*2b6911ac
%RAWIMUSA,2283,36152.130;2283,36152.130000339,00000077,-494,154,64158,64,0,100*a0739eb6
%RAWIMUSA,2283,36152.140;2283,36152.140000339,00000077,-508,15,64184,-18,8,-914*6aaa9620
%RAWIMUSA,2283,36152.150;2283,36152.150000339,00000077,-505,95,64171,-55,0,-566*4f753966
%RAWIMUSA,2283,36152.160;2283,36152.160000339,00000077,-492,103,64163,120,0,923*8535b356
%RAWIMUSA,2283,36152.170;2283,36152.170000339,00000077,-494,20,64187,-73,-8,923*acb19d2b
%RAWIMUSA,2283,36152.180;2283,36152.180000339,00000077,-504,153,64160,36,8,-804*f6f555f0
%RAWIMUSA,2283,36152.190;2283,36152.190000339,00000077,-506,28,64181,0,8,-914*240e13fe
%RAWIMUSA,2283,36152.200;2283,36152.200000339,00000077,-496,79,64172,-55,-8,320*c14ff8c5
%RAWIMUSA,2283,36152.210;2283,36152.210000339,00000077,-497,124,64162,120,-8,932*aad4e72e
%RAWIMUSA,2283,36152.220;2283,36152.220000339,00000077,-503,14,64185,-73,9,146*e84a64c1
%RAWIMUSA,2283,36152.230;2283,36152.230000339,00000077,-505,132,64161,9,8,-923*4554dace
%RAWIMUSA,2283,36152.240;2283,36152.240000339,00000077,-498,46,64178,36,0,-621*3e85dfbd
%RAWIMUSA,2283,36152.250;2283,36152.250000339,00000077,-496,80,64176,-54,-8,932*7db09edd
%RAWIMUSA,2283,36152.260;2283,36152.260000339,00000077,-502,122,64162,110,0,923*6b236819
%RAWIMUSA,2283,36152.270;2283,36152.270000339,00000077,-504,3,64186,-82,0,-740*b4fa6f5b
%RAWIMUSA,2283,36152.280;2283,36152.280000339,00000077,-496,133,64156,0,8,-923*89c20f81
%RAWIMUSA,2283,36152.290;2283,36152.290000339,00000077,-496,57,64175,73,-9,283*79b73427
%RAWIMUSA,2283,36152.300;2283,36152.300000339,00000077,-496,57,64180,-73,0,914*5e388ab1
%RAWIMUSA,2283,36152.310;2283,36152.310000339,00000077,-500,127,64159,92,0,201*f2943ae1
%RAWIMUSA,2283,36152.320;2283,36152.320000339,00000077,-503,5,64184,-64,8,-914*097a725a
%RAWIMUSA,2283,36152.330;2283,36152.330000339,00000077,-498,136,64159,0,0,-667*22d3d1d5
%RAWIMUSA,2283,36152.340;2283,36152.340000339,00000077,-499,62,64176,83,-8,923*7ba824f1
%RAWIMUSA,2283,36152.350;2283,36152.350000339,00000077,-501,45,64180,-82,0,923*7666b978
%RAWIMUSA,2283,36152.360;2283,36152.360000339,00000077,-503,142,64155,82,8,-694*d8817825
%RAWIMUSA,2283,36152.370;2283,36152.370000339,00000077,-495,8,64185,-55,8,-923*9d53fa34
%RAWIMUSA,2283,36152.380;2283,36152.380000339,00000077,-497,122,64162,0,-9,228*34d12432
%RAWIMUSA,2283,36152.390;2283,36152.390000339,00000077,-499,66,64171,92,-8,932*c0ec832f
%RAWIMUSA,2283,36152.400;2283,36152.400000339,00000077,-503,50,64179,-91,9,246*7bcadfef
%RAWIMUSA,2283,36152.410;2283,36152.410000339,00000077,-499,142,64161,64,8,-914*9df42544
%RAWIMUSA,2283,36152.420;2283,36152.420000338,00000077,-497,9,64183,-27,0,-722*cb8e14d2
%RAWIMUSA,2283,36152.430;2283,36152.430000338,00000077,-504,121,64164,0,-8,932*60eb2006
%RAWIMUSA,2283,36152.440;2283,36152.440000338,00000077,-503,81,64170,92,-8,923*46f60176
%RAWIMUSA,2283,36152.450;2283,36152.450000338,00000077,-497,35,64181,-110,8,-649*138166ad
%RAWIMUSA,2283,36152.460;2283,36152.460000338,00000077,-494,139,64163,55,8,-914*994e8a0f
%RAWIMUSA,2283,36152.470;2283,36152.470000338,00000077,-502,20,64186,9,-9,192*a41fd5aa
%RAWIMUSA,2283,36152.480;2283,36152.480000338,00000077,-506,115,64168,-18,0,923*245a369c
%RAWIMUSA,2283,36152.490;2283,36152.490000338,00000077,-496,78,64168,73,0,301*c0637b46
%RAWIMUSA,2283,36152.500;2283,36152.500000338,00000077,-494,31,64181,-101,8,-914*69393c4c
%RAWIMUSA,2283,36152.510;2283,36152.510000338,00000077,-504,146,64158,64,0,-767*8d294e03
%RAWIMUSA,2283,36152.520;2283,36152.520000338,00000077,-502,15,64186,18,-8,923*f1acb98d
%RAWIMUSA,2283,36152.530;2283,36152.530000338,00000077,-497,102,64165,-45,0,923*7326563f
%RAWIMUSA,2283,36152.540;2283,36152.540000338,00000077,-501,101,64165,92,8,-594*4de726dd
%RAWIMUSA,2283,36152.550;2283,36152.550000338,00000077,-497,12,64184,-110,0,-914*29f35842
%RAWIMUSA,2283,36152.560;2283,36152.560000338,00000077,-498,150,64158,73,0,118*838feb48
%RAWIMUSA,2283,36152.570;2283,36152.570000338,00000077,-500,24,64181,37,-17,923*5bc77d53
%RAWIMUSA,2283,36152.580;2283,36152.580000338,00000077,-498,86,64171,-73,18,347*a6309ba0
%RAWIMUSA,2283,36152.590;2283,36152.590000338,00000077,-497,122,64160,82,0,-905*03ac5229
%RAWIMUSA,2283,36152.600;2283,36152.600000338,00000077,-502,5,64184,-73,0,-813*24ed7e45
%RAWIMUSA,2283,36152.610;2283,36152.610000338,00000077,-500,141,64160,55,-8,923*6a4e59d0
%RAWIMUSA,2283,36152.620;2283,36152.620000338,00000077,-494,36,64176,46,0,914*4d9851d7
%RAWIMUSA,2283,36152.630;2283,36152.630000338,00000077,-501,77,64178,-92,8,-530*08035127
%RAWIMUSA,2283,36152.640;2283,36152.640000338,00000077,-504,128,64158,92,0,-923*9608ed88
%RAWIMUSA,2283,36152.650;2283,36152.650000338,00000077,-500,0,64189,-45,-9,73*bd273be1
%RAWIMUSA,2283,36152.660;2283,36152.660000338,00000077,-486,142,64159,28,0,923*03a6da1d
%RAWIMUSA,2283,36152.670;2283,36152.670000338,00000077,-505,58,64174,55,9,411*23779f1d
%RAWIMUSA,2283,36152.680;2283,36152.680000338,00000077,-512,48,64180,-110,8,-923*bd56fd4e
%RAWIMUSA,2283,36152.690;2283,36152.690000338,00000077,-495,145,64161,101,-10,-850*bda684e1
%RAWIMUSA,2283,36152.700;2283,36152.700000338,00000077,-486,8,64182,-18,-8,914*de9d1901
%RAWIMUSA,2283,36152.710;2283,36152.710000338,00000077,-506,128,64166,-8,0,932*dd187158
%RAWIMUSA,2283,36152.720;2283,36152.720000338,00000077,-512,62,64171,64,8,-493*fa179a8a
%RAWIMUSA,2283,36152.730;2283,36152.730000338,00000077,-495,49,64176,-101,0,-932*1aa06470
%RAWIMUSA,2283,36152.740;2283,36152.740000338,00000077,-492,145,64157,101,-9,36*cda485c5
%RAWIMUSA,2283,36152.750;2283,36152.750000338,00000077,-499,4,64186,-8,0,914*e9236c8f
%RAWIMUSA,2283,36152.760;2283,36152.760000338,00000077,-508,122,64163,-27,9,457*d2ba9f26
%RAWIMUSA,2283,36152.770;2283,36152.770000338,00000077,-500,76,64172,55,8,-914*9493aa38
%RAWIMUSA,2283,36152.780;2283,36152.780000338,00000077,-497,40,64182,-73,-9,-914*8d44db06
%RAWIMUSA,2283,36152.790;2283,36152.790000338,00000077,-497,135,64155,101,-8,914*0c6d6932
%RAWIMUSA,2283,36152.800;2283,36152.800000338,00000077,-505,11,64184,-27,9,923*bda9bfc7
%RAWIMUSA,2283,36152.810;2283,36152.810000338,00000077,-503,126,64166,-46,8,-447*4e918490
%RAWIMUSA,2283,36152.820;2283,36152.820000338,00000077,-493,78,64170,82,0,-914*5b16ac21
%RAWIMUSA,2283,36152.830;2283,36152.830000338,00000077,-501,21,64181,-73,-9,-18*a9667c47
%RAWIMUSA,2283,36152.840;2283,36152.840000338,00000077,-504,145,64159,92,0,923*206126ce
%RAWIMUSA,2283,36152.850;2283,36152.850000338,00000077,-493,19,64181,-27,9,502*da8c06ba
%RAWIMUSA,2283,36152.860;2283,36152.860000338,00000077,-503,113,64169,-55,8,-932*f480f00c
%RAWIMUSA,2283,36152.870;2283,36152.870000338,00000077,-502,83,64165,101,-10,-914*1b0bdc89
%RAWIMUSA,2283,36152.880;2283,36152.880000338,00000077,-504,23,64182,-64,-8,877*77d0f73f
%RAWIMUSA,2283,36152.890;2283,36152.890000338,00000077,-494,154,64162,55,0,923*031fa49b
%RAWIMUSA,2283,36152.900;2283,36152.900000338,00000077,-496,21,64181,-9,18,-393*88cd62e2
%RAWIMUSA,2283,36152.910;2283,36152.910000338,00000077,-503,91,64167,-64,0,-923*4297ef14
%RAWIMUSA,2283,36152.920;2283,36152.920000338,00000077,-502,109,64166,119,-9,-54*f00c56dc
%RAWIMUSA,2283,36152.930;2283,36152.930000338,00000077,-497,16,64187,-64,0,914*1289580e
%RAWIMUSA,2283,36152.940;2283,36152.940000338,00000077,-500,148,64160,27,9,548*71724265
%RAWIMUSA,2283,36152.950;2283,36152.950000338,00000077,-500,29,64180,9,0,-914*15d679e2
%RAWIMUSA,2283,36152.960;2283,36152.960000338,00000077,-500,74,64174,-55,0,-923*8c3b809c
%RAWIMUSA,2283,36152.970;2283,36152.970000338,00000077,-494,127,64163,120,-8,823*87c5d388
%RAWIMUSA,2283,36152.980;2283,36152.980000338,00000077,-498,15,64191,-73,9,923*fbeeeee9
%RAWIMUSA,2283,36152.990;2283,36152.990000338,00000077,-506,138,64157,9,0,-329*838cdcac
%RAWIMUSA,2283,36153.000;2283,36153.000000338,00000077,-501,39,64176,36,0,-914*e1a1e80d
%RAWIMUSA,2283,36153.010;2283,36153.010000338,00000077,-493,66,64175,-55,0,-109*c772ee24
%RAWIMUSA,2283,36153.020;2283,36153.020000338,00000077,-499,134,64163,110,0,923*bf938681
%RAWIMUSA,2283,36153.030;2283,36153.030000338,00000077,-507,6,64186,-82,9,594*74525d77
%RAWIMUSA,2283,36153.040;2283,36153.040000338,00000077,-504,133,64160,0,0,-923*f82ac710
%RAWIMUSA,2283,36153.050;2283,36153.050000338,00000077,-489,49,64176,73,-10,-914*ad92af0a
%RAWIMUSA,2283,36153.060;2283,36153.060000338,00000077,-501,63,64178,-73,-8,777*20982b61
%RAWIMUSA,2283,36153.070;2283,36153.070000338,00000077,-505,132,64161,92,9,914*e05e028d
%RAWIMUSA,2283,36153.080;2283,36153.080000338,00000077,-504,1,64184,-64,8,-292*49ff5070
%RAWIMUSA,2283,36153.090;2283,36153.090000338,00000077,-491,137,64162,0,-9,-923*6d071282
%RAWIMUSA,2283,36153.100;2283,36153.100000338,00000077,-496,59,64174,83,0,-164*c981a4be
%RAWIMUSA,2283,36153.110;2283,36153.110000338,00000077,-509,41,64173,-64,0,914*1f8996b7
%RAWIMUSA,2283,36153.120;2283,36153.120000338,00000077,-501,138,64159,64,0,658*2daa2a5e
%RAWIMUSA,2283,36153.130;2283,36153.130000338,00000077,-488,7,64182,-46,0,-914*5988a3e7
%RAWIMUSA,2283,36153.140;2283,36153.140000338,00000077,-501,131,64163,0,0,-914*b3ed1985
%RAWIMUSA,2283,36153.150;2283,36153.150000338,00000077,-508,69,64173,92,-8,722*eb690400
%RAWIMUSA,2283,36153.160;2283,36153.160000338,00000077,-499,39,64177,-91,9,923*9331557c
%RAWIMUSA,2283,36153.170;2283,36153.170000338,00000077,-488,140,64159,73,0,-237*e53574fb
%RAWIMUSA,2283,36153.180;2283,36153.180000338,00000077,-500,13,64186,-27,0,-914*4029573f
%RAWIMUSA,2283,36153.190;2283,36153.190000338,00000077,-511,119,64167,-18,-9,-219*c4bd7596
%RAWIMUSA,2283,36153.200;2283,36153.200000338,00000077,-501,81,64166,101,0,914*4ebc30ce
%RAWIMUSA,2283,36153.210;2283,36153.210000338,00000077,-488,34,64183,-101,9,694*bb9dab2d
%RAWIMUSA,2283,36153.220;2283,36153.220000338,00000077,-494,144,64158,55,8,-914*f0009795
%RAWIMUSA,2283,36153.230;2283,36153.230000338,00000077,-510,20,64185,9,-19,-914*2401d260
%RAWIMUSA,2283,36153.240;2283,36153.240000338,00000077,-506,102,64166,-18,0,667*d31dd7df
%RAWIMUSA,2283,36153.250;2283,36153.250000338,00000077,-487,87,64164,83,9,932*ffe9eb75
%RAWIMUSA,2283,36153.260;2283,36153.260000338,00000077,-496,34,64182,-101,9,-191*84669f46
%RAWIMUSA,2283,36153.270;2283,36153.270000338,00000077,-510,147,64159,64,-10,-923*ed4f9ff3
%RAWIMUSA,2283,36153.280;2283,36153.280000338,00000077,-499,9,64183,18,-9,-265*b7e99534
%RAWIMUSA,2283,36153.290;2283,36153.290000338,00000077,-488,100,64165,-36,9,932*88f7192d
%RAWIMUSA,2283,36153.300;2283,36153.300000338,00000077,-501,109,64163,83,9,749*74589856
%RAWIMUSA,2283,36153.310;2283,36153.310000338,00000077,-511,17,64184,-101,0,-923*eff2c3e3
%RAWIMUSA,2283,36153.320;2283,36153.320000338,00000077,-499,145,64157,64,-10,-914*c6d83dcd
%RAWIMUSA,2283,36153.330;2283,36153.330000338,00000077,-488,22,64183,46,-8,603*dc384ef7
%RAWIMUSA,2283,36153.340;2283,36153.340000338,00000077,-504,76,64169,-82,19,832*23872a55
%RAWIMUSA,2283,36153.350;2283,36153.350000338,00000077,-516,116,64159,92,0,-393*0bfac29d
%RAWIMUSA,2283,36153.360;2283,36153.360000338,00000077,-498,1,64188,-64,-10,-1334*a7b537f2
%RAWIMUSA,2283,36153.370;2283,36153.370000338,00000077,-500,123,64159,46,-9,-859*430948ce
%RAWIMUSA,2283,36153.380;2283,36153.380000338,00000077,-503,53,64175,64,9,283*259df050
%RAWIMUSA,2283,36153.390;2283,36153.390000338,00000077,-512,66,64179,-101,0,91*400cd90b
%RAWIMUSA,2283,36153.400;2283,36153.400000338,00000077,-506,115,64156,91,-1,-1682*e6914ed2
%RAWIMUSA,2283,36153.410;2283,36153.410000338,00000077,-488,1,64187,-27,-10,-1792*2a9de9e5
%RAWIMUSA,2283,36153.420;2283,36153.420000338,00000077,-497,132,64160,27,8,-347*e30ec642
%RAWIMUSA,2283,36153.430;2283,36153.430000338,00000077,-516,63,64179,64,0,-82*0202b30b
%RAWIMUSA,2283,36153.440;2283,36153.440000338,00000077,-509,43,64178,-101,0,-1161*beb48093
%RAWIMUSA,2283,36153.450;2283,36153.450000338,00000077,-492,128,64160,101,-10,-2057*ab6bc901
%RAWIMUSA,2283,36153.460;2283,36153.460000338,00000077,-498,8,64184,0,-10,-1600*d8d1b346
%RAWIMUSA,2283,36153.470;2283,36153.470000338,00000077,-503,127,64165,-9,8,-402*ebb3223f
%RAWIMUSA,2283,36153.480;2283,36153.480000338,00000077,-515,73,64168,82,0,-566*2485230b
%RAWIMUSA,2283,36153.490;2283,36153.490000338,00000077,-503,19,64181,-92,-1,-2423*873c7606
%RAWIMUSA,2283,36153.500;2283,36153.500000338,00000077,-487,135,64159,100,-20,-2496*b4cc9401
%RAWIMUSA,2283,36153.510;2283,36153.510000338,00000077,-506,23,64184,18,0,-1124*e4e26f41
%RAWIMUSA,2283,36153.520;2283,36153.520000338,00000077,-517,100,64167,-27,8,-832*16e11fb6
%RAWIMUSA,2283,36153.530;2283,36153.530000338,00000077,-499,74,64165,82,-1,-1846*8ae3acac
%RAWIMUSA,2283,36153.540;2283,36153.540000338,00000077,-495,28,64183,-65,-11,-2825*c397ada8
%RAWIMUSA,2283,36153.550;2283,36153.550000338,00000077,-497,145,64160,91,-11,-2422*d0d3c2ec
%RAWIMUSA,2283,36153.560;2283,36153.560000338,00000077,-516,19,64187,18,0,-1115*f3b75436
%RAWIMUSA,2283,36153.570;2283,36153.570000338,00000077,-507,75,64163,-46,8,-1252*ba68433e
%RAWIMUSA,2283,36153.580;2283,36153.580000338,00000077,-484,89,64162,100,-11,-3145*a5c153e4
%RAWIMUSA,2283,36153.590;2283,36153.590000338,00000077,-500,38,64183,-46,-11,-3200*3b421a0a
%RAWIMUSA,2283,36153.600;2283,36153.600000338,00000077,-515,145,64166,91,-1,-1929*f250dcb5
%RAWIMUSA,2283,36153.610;2283,36153.610000338,00000077,-503,12,64177,18,-1,-1545*c00895c2
%RAWIMUSA,2283,36153.620;2283,36153.620000338,00000077,-494,89,64165,-46,7,-2532*ed8fa949
%RAWIMUSA,2283,36153.630;2283,36153.630000338,00000077,-498,103,64167,119,-21,-3575*fec4113a
%RAWIMUSA,2283,36153.640;2283,36153.640000338,00000077,-515,17,64181,-46,-2,-3172*8407dac2
%RAWIMUSA,2283,36153.650;2283,36153.650000338,00000077,-506,131,64160,73,-1,-1846*a9781286
%RAWIMUSA,2283,36153.660;2283,36153.660000338,00000077,-495,16,64181,27,-1,-1938*c622a5d4
%RAWIMUSA,2283,36153.670;2283,36153.670000338,00000077,-493,92,64172,-56,-12,-3822*41390c7a
%RAWIMUSA,2283,36153.680;2283,36153.680000338,00000077,-518,120,64162,146,-12,-3931*6ba47a6a
%RAWIMUSA,2283,36153.690;2283,36153.690000338,00000077,-509,0,64185,-28,-2,-2697*f5898700
%RAWIMUSA,2283,36153.700;2283,36153.700000338,00000077,-489,132,64154,36,-1,-2240*eb01f0cc
%RAWIMUSA,2283,36153.710;2283,36153.710000338,00000077,-503,41,64177,54,-11,-3227*89262a13
%RAWIMUSA,2283,36153.720;2283,36153.720000338,00000077,-507,69,64179,-46,-3,-4279*682205ac
%RAWIMUSA,2283,36153.730;2283,36153.730000338,00000077,-509,116,64169,137,-21,-3950*dae6db2b
%RAWIMUSA,2283,36153.740;2283,36153.740000338,00000077,-496,-2,64185,-28,7,-2605*74b22c50
%RAWIMUSA,2283,36153.750;2283,36153.750000338,00000077,-498,137,64161,27,-2,-2651*4da7aebb
%RAWIMUSA,2283,36153.760;2283,36153.760000338,00000077,-511,47,64178,72,-12,-4498*fb18cd56
%RAWIMUSA,2283,36153.770;2283,36153.770000338,00000077,-507,56,64177,-37,-12,-4681*5a263834
%RAWIMUSA,2283,36153.780;2283,36153.780000338,00000077,-497,128,64154,146,-12,-3447*ed02014a
%RAWIMUSA,2283,36153.790;2283,36153.790000338,00000077,-498,5,64188,-37,-2,-2989*e2206df4
%RAWIMUSA,2283,36153.800;2283,36153.800000338,00000077,-500,127,64162,8,-3,-3886*35fc2f7a
%RAWIMUSA,2283,36153.810;2283,36153.810000338,00000077,-508,64,64175,109,-13,-4974*2f5128a0
%RAWIMUSA,2283,36153.820;2283,36153.820000338,00000077,-507,40,64182,-37,-12,-4727*1d0a08a1
%RAWIMUSA,2283,36153.830;2283,36153.830000338,00000077,-493,136,64156,119,-2,-3309*f2e2835b
%RAWIMUSA,2283,36153.840;2283,36153.840000338,00000077,-502,8,64184,-9,-2,-3373*a8c3b99f
%RAWIMUSA,2283,36153.850;2283,36153.850000338,00000077,-512,106,64163,-1,-13,-5184*38f72925
%RAWIMUSA,2283,36153.860;2283,36153.860000338,00000077,-503,80,64172,137,-22,-5385*6a058754
%RAWIMUSA,2283,36153.870;2283,36153.870000338,00000077,-498,29,64180,-37,-3,-4206*b5425b32
%RAWIMUSA,2283,36153.880;2283,36153.880000338,00000077,-496,141,64159,82,-3,-3721*74b1a067
%RAWIMUSA,2283,36153.890;2283,36153.890000338,00000077,-509,21,64182,26,-12,-4544*471c2af0
%RAWIMUSA,2283,36153.900;2283,36153.900000338,00000077,-503,92,64167,-10,-13,-5714*c86770fd
%RAWIMUSA,2283,36153.910;2283,36153.910000338,00000077,-495,102,64164,146,-13,-5495*922b4dfb
%RAWIMUSA,2283,36153.920;2283,36153.920000338,00000077,-494,24,64184,-37,6,-3986*f8acc2f3
%RAWIMUSA,2283,36153.930;2283,36153.930000338,00000077,-515,120,64162,63,-12,-4114*b0004240
%RAWIMUSA,2283,36153.940;2283,36153.940000338,00000077,-506,33,64181,54,-13,-5851*c18dc6b5
%RAWIMUSA,2283,36153.950;2283,36153.950000338,00000077,-489,85,64179,-1,-23,-6108*d272afd6
%RAWIMUSA,2283,36153.960;2283,36153.960000338,00000077,-505,101,64161,155,-4,-5019*208d0b3c
%RAWIMUSA,2283,36153.970;2283,36153.970000338,00000077,-515,18,64183,-46,5,-4416*e60ec20b
%RAWIMUSA,2283,36153.980;2283,36153.980000338,00000077,-499,125,64156,44,-13,-5230*4891ce2c
%RAWIMUSA,2283,36153.990;2283,36153.990000338,00000077,-495,33,64175,99,-23,-6446*3319a451
%RAWIMUSA,2283,36154.000;2283,36154.000000338,00000077,-499,76,64179,-19,-4,-6236*b9484101
%RAWIMUSA,2283,36154.010;2283,36154.010000338,00000077,-509,120,64162,137,-13,-4745*58ca2886
%RAWIMUSA,2283,36154.020;2283,36154.020000338,00000077,-508,3,64186,-28,-3,-4846*5cafd6ff
%RAWIMUSA,2283,36154.030;2283,36154.030000338,00000077,-494,123,64159,44,-14,-6519*b4e05b58
