%RAWIMUSA,2283,35807.530;2283,35807.530000519,00000077,-495,120,64171,-55,8,-923*c01622c0
%RAWIMUSA,2283,35807.540;2283,35807.540000519,00000077,-507,90,64166,73,9,-9*8a832de9
%RAWIMUSA,2283,35807.550;2283,35807.550000519,00000077,-504,18,64182,-73,0,923*08c4807a
%RAWIMUSA,2283,35807.560;2283,35807.560000519,00000077,-494,148,64155,83,-8,484*4ffafe3f
%RAWIMUSA,2283,35807.570;2283,35807.570000519,00000077,-495,26,64183,0,0,-914*d9cb6436
%RAWIMUSA,2283,35807.580;2283,35807.580000519,00000077,-505,97,64169,-73,8,-923*3c9e928a
%RAWIMUSA,2283,35807.590;2283,35807.590000519,00000077,-502,94,64162,92,9,887*566de513
%RAWIMUSA,2283,35807.600;2283,35807.600000519,00000077,-493,15,64187,-54,-8,923*605dde4f
%RAWIMUSA,2283,35807.610;2283,35807.610000519,00000077,-497,152,64160,55,-9,-411*cec7b8b6
%RAWIMUSA,2283,35807.620;2283,35807.620000519,00000077,-509,36,64179,9,8,-914*be3a0122
%RAWIMUSA,2283,35807.630;2283,35807.630000519,00000077,-502,81,64174,-82,9,-54*76665b24
%RAWIMUSA,2283,35807.640;2283,35807.640000519,00000077,-494,113,64161,120,-8,932*a632aaf0
%RAWIMUSA,2283,35807.650;2283,35807.650000519,00000077,-495,19,64184,-55,-8,530*8ae8ef13
%RAWIMUSA,2283,35807.660;2283,35807.660000519,00000077,-509,143,64160,18,0,-914*cd4a7c1d
%RAWIMUSA,2283,35807.670;2283,35807.670000519,00000077,-504,34,64175,27,8,-914*305a0ea4
%RAWIMUSA,2283,35807.680;2283,35807.680000519,00000077,-490,73,64175,-73,9,850*9494151a
%RAWIMUSA,2283,35807.690;2283,35807.690000519,00000077,-496,130,64158,110,-8,932*5b9e05f1
%RAWIMUSA,2283,35807.700;2283,35807.700000519,00000077,-509,4,64183,-55,-9,-365*1d1f5611
%RAWIMUSA,2283,35807.710;2283,35807.710000519,00000077,-502,130,64160,0,8,-923*76da5f68
%RAWIMUSA,2283,35807.720;2283,35807.720000519,00000077,-501,55,64176,46,9,-100*4398158b
%RAWIMUSA,2283,35807.730;2283,35807.730000519,00000077,-501,64,64179,-64,-8,923*ff3174d5
%RAWIMUSA,2283,35807.740;2283,35807.740000519,00000077,-499,127,64156,110,-8,585*3b371b84
%RAWIMUSA,2283,35807.750;2283,35807.750000519,00000077,-501,9,64186,-55,0,-914*a31cff90
%RAWIMUSA,2283,35807.760;2283,35807.760000519,00000077,-491,133,64166,-9,8,-914*b3e2d7a6
%RAWIMUSA,2283,35807.770;2283,35807.770000519,00000077,-505,58,64174,55,0,786*19a190be
%RAWIMUSA,2283,35807.780;2283,35807.780000519,00000077,-509,57,64175,-64,-8,914*fe59f7c1
%RAWIMUSA,2283,35807.790;2283,35807.790000519,00000077,-491,130,64158,101,-9,-310*34776d9d
%RAWIMUSA,2283,35807.800;2283,35807.800000519,00000077,-492,11,64184,-64,17,-923*4ce8e951
%RAWIMUSA,2283,35807.810;2283,35807.810000519,00000077,-505,139,64163,-18,9,-137*21fbdb37
%RAWIMUSA,2283,35807.820;2283,35807.820000519,00000077,-512,47,64175,83,-8,914*8c9ade61
%RAWIMUSA,2283,35807.830;2283,35807.830000519,00000077,-495,50,64179,-64,-8,640*fba81d8c
%RAWIMUSA,2283,35807.840;2283,35807.840000519,00000077,-485,147,64162,82,0,-923*9135389c
%RAWIMUSA,2283,35807.850;2283,35807.850000519,00000077,-503,7,64184,-55,17,-914*d06d499f
%RAWIMUSA,2283,35807.860;2283,35807.860000519,00000077,-518,127,64164,-8,0,740*0a617ddc
%RAWIMUSA,2283,35807.870;2283,35807.870000519,00000077,-499,62,64171,92,-17,914*1a71a89a
%RAWIMUSA,2283,35807.880;2283,35807.880000519,00000077,-481,40,64177,-82,0,-265*c4cfdf5f
%RAWIMUSA,2283,35807.890;2283,35807.890000519,00000077,-503,150,64156,64,8,-905*8a94ac6f
%RAWIMUSA,2283,35807.900;2283,35807.900000519,00000077,-517,6,64187,-36,8,-210*b5ef0025
%RAWIMUSA,2283,35807.910;2283,35807.910000519,00000077,-499,116,64166,-8,-8,923*b8092b2a
%RAWIMUSA,2283,35807.920;2283,35807.920000519,00000077,-482,83,64169,110,-8,676*2eec308d
%RAWIMUSA,2283,35807.930;2283,35807.930000519,00000077,-499,31,64179,-101,8,-914*5824110a
%RAWIMUSA,2283,35807.940;2283,35807.940000519,00000077,-517,142,64160,55,8,-905*2d739644
%RAWIMUSA,2283,35807.950;2283,35807.950000519,00000077,-499,11,64178,0,-8,695*baa82551
%RAWIMUSA,2283,35807.960;2283,35807.960000519,00000077,-487,111,64166,-27,-8,914*e7216293
%RAWIMUSA,2283,35807.970;2283,35807.970000519,00000077,-498,95,64165,101,0,-210*e75ed2ab
%RAWIMUSA,2283,35807.980;2283,35807.980000519,00000077,-510,21,64183,-101,17,-914*eaf8fd80
%RAWIMUSA,2283,35807.990;2283,35807.990000519,00000077,-502,143,64159,46,0,-255*c6087908
%RAWIMUSA,2283,35808.000;2283,35808.000000519,00000077,-492,21,64183,28,-8,914*dc2b8c79
%RAWIMUSA,2283,35808.010;2283,35808.010000519,00000077,-494,100,64171,-36,-8,731*4d472d9a
%RAWIMUSA,2283,35808.020;2283,35808.020000519,00000077,-512,114,64164,82,8,-914*bf4dde91
%RAWIMUSA,2283,35808.030;2283,35808.030000519,00000077,-507,11,64189,-92,8,-914*4aa82939
%RAWIMUSA,2283,35808.040;2283,35808.040000519,00000077,-487,145,64161,46,-8,640*5b0b4378
%RAWIMUSA,2283,35808.050;2283,35808.050000519,00000077,-489,36,64180,55,0,914*f8f6d4b3
%RAWIMUSA,2283,35808.060;2283,35808.060000519,00000077,-514,82,64170,-73,0,-173*b4d95c9c
%RAWIMUSA,2283,35808.070;2283,35808.070000519,00000077,-515,125,64163,82,8,-895*1ee08da3
%RAWIMUSA,2283,35808.080;2283,35808.080000519,00000077,-485,9,64187,-73,0,-310*0db22891
%RAWIMUSA,2283,35808.090;2283,35808.090000519,00000077,-483,133,64162,37,-8,923*044ee10e
%RAWIMUSA,2283,35808.100;2283,35808.100000519,00000077,-512,45,64174,64,0,786*9bce6b76
%RAWIMUSA,2283,35808.110;2283,35808.110000519,00000077,-517,76,64178,-92,8,-914*382487e9
%RAWIMUSA,2283,35808.120;2283,35808.120000519,00000077,-484,127,64163,82,0,-923*b8815d43
%RAWIMUSA,2283,35808.130;2283,35808.130000519,00000077,-486,6,64180,-54,0,585*eaa6205c
%RAWIMUSA,2283,35808.140;2283,35808.140000519,00000077,-513,139,64162,37,-8,923*f02ecedd
%RAWIMUSA,2283,35808.150;2283,35808.150000519,00000077,-510,48,64176,46,0,-109*f9727810
%RAWIMUSA,2283,35808.160;2283,35808.160000519,00000077,-493,61,64175,-92,8,-923*8fddaf00
%RAWIMUSA,2283,35808.170;2283,35808.170000519,00000077,-486,128,64161,92,0,-356*d5212396
%RAWIMUSA,2283,35808.180;2283,35808.180000519,00000077,-507,9,64184,-36,0,914*4a96a5ec
%RAWIMUSA,2283,35808.190;2283,35808.190000519,00000077,-512,140,64161,18,-8,841*c64e92ba
%RAWIMUSA,2283,35808.200;2283,35808.200000519,00000077,-495,54,64175,55,0,-923*c220cb7f
%RAWIMUSA,2283,35808.210;2283,35808.210000519,00000077,-489,41,64177,-101,8,-914*6e7a97e7
%RAWIMUSA,2283,35808.220;2283,35808.220000519,00000077,-500,146,64156,92,-8,539*641de5fa
%RAWIMUSA,2283,35808.230;2283,35808.230000519,00000077,-507,9,64183,-8,0,923*2a651154
%RAWIMUSA,2283,35808.240;2283,35808.240000519,00000077,-499,118,64166,-27,0,-63*faaadb87
%RAWIMUSA,2283,35808.250;2283,35808.250000519,00000077,-491,79,64169,64,8,-923*86060a05
%RAWIMUSA,2283,35808.260;2283,35808.260000519,00000077,-506,44,64180,-92,0,-411*2fae6d6b
%RAWIMUSA,2283,35808.270;2283,35808.270000519,00000077,-509,133,64161,92,-8,932*39956804
%RAWIMUSA,2283,35808.280;2283,35808.280000519,00000077,-498,8,64182,0,-8,877*17cc4b3a
%RAWIMUSA,2283,35808.290;2283,35808.290000519,00000077,-488,126,64166,-46,8,-914*5a1b5b97
%RAWIMUSA,2283,35808.300;2283,35808.300000519,00000077,-500,93,64171,64,8,-914*ddb6ad57
%RAWIMUSA,2283,35808.310;2283,35808.310000519,00000077,-511,33,64176,-73,-8,493*15d95d1f
%RAWIMUSA,2283,35808.320;2283,35808.320000519,00000077,-499,132,64163,92,-8,923*82c24c4c
%RAWIMUSA,2283,35808.330;2283,35808.330000519,00000077,-487,13,64183,-9,9,-9*4b51c2c9
%RAWIMUSA,2283,35808.340;2283,35808.340000519,00000077,-498,129,64164,-55,8,-914*559c720f
%RAWIMUSA,2283,35808.350;2283,35808.350000519,00000077,-513,85,64169,82,0,-447*1ff72b38
%RAWIMUSA,2283,35808.360;2283,35808.360000519,00000077,-501,19,64182,-73,-8,923*3180f347
%RAWIMUSA,2283,35808.370;2283,35808.370000519,00000077,-487,147,64158,92,-8,923*35579101
%RAWIMUSA,2283,35808.380;2283,35808.380000519,00000077,-493,25,64184,-27,8,-905*34c51549
%RAWIMUSA,2283,35808.390;2283,35808.390000519,00000077,-514,109,64165,-55,8,-923*3f9aba78
%RAWIMUSA,2283,35808.400;2283,35808.400000519,00000077,-506,82,64164,101,-9,439*bb2f4e34
%RAWIMUSA,2283,35808.410;2283,35808.410000519,00000077,-488,24,64181,-64,-8,914*9d38b6df
%RAWIMUSA,2283,35808.420;2283,35808.420000519,00000077,-491,154,64161,64,9,45*9e8569b5
%RAWIMUSA,2283,35808.430;2283,35808.430000519,00000077,-508,19,64182,-27,0,-914*71cb5b61
%RAWIMUSA,2283,35808.440;2283,35808.440000519,00000077,-510,88,64164,-46,0,-511*3b016d70
%RAWIMUSA,2283,35808.450;2283,35808.450000519,00000077,-494,100,64162,120,-8,923*17f03287
%RAWIMUSA,2283,35808.460;2283,35808.460000519,00000077,-493,27,64185,-73,9,923*5535d436
%RAWIMUSA,2283,35808.470;2283,35808.470000519,00000077,-509,146,64161,36,8,-859*af06ccce
%RAWIMUSA,2283,35808.480;2283,35808.480000519,00000077,-511,21,64181,-9,0,-914*7e7d8dc7
%RAWIMUSA,2283,35808.490;2283,35808.490000519,00000077,-488,89,64168,-36,-8,384*6ce38f5b
%RAWIMUSA,2283,35808.500;2283,35808.500000519,00000077,-491,104,64162,110,-8,923*17bf0fdf
%RAWIMUSA,2283,35808.510;2283,35808.510000519,00000077,-503,31,64186,-73,9,91*102856a1
%RAWIMUSA,2283,35808.520;2283,35808.520000519,00000077,-513,132,64162,27,0,-914*61d85198
%RAWIMUSA,2283,35808.530;2283,35808.530000519,00000077,-496,23,64183,18,0,-548*678348f0
%RAWIMUSA,2283,35808.540;2283,35808.540000519,00000077,-486,107,64165,-45,-8,923*7fbd204b
%RAWIMUSA,2283,35808.550;2283,35808.550000519,00000077,-506,109,64167,110,9,923*c1efc29c
%RAWIMUSA,2283,35808.560;2283,35808.560000519,00000077,-511,6,64182,-101,0,-804*8f13426d
%RAWIMUSA,2283,35808.570;2283,35808.570000519,00000077,-497,149,64150,36,8,-923*9ac1ba09
%RAWIMUSA,2283,35808.580;2283,35808.580000519,00000077,-484,27,64180,37,-9,347*104b4898
%RAWIMUSA,2283,35808.590;2283,35808.590000519,00000077,-501,93,64174,-45,-8,923*67267309
%RAWIMUSA,2283,35808.600;2283,35808.600000519,00000077,-523,107,64160,92,9,146*f88282ae
%RAWIMUSA,2283,35808.610;2283,35808.610000519,00000077,-491,8,64193,-83,8,-923*76c5a422
%RAWIMUSA,2283,35808.620;2283,35808.620000519,00000077,-488,150,64155,18,-9,-603*ade366cd
%RAWIMUSA,2283,35808.630;2283,35808.630000519,00000077,-502,43,64177,64,0,923*2fb254e1
%RAWIMUSA,2283,35808.640;2283,35808.640000519,00000077,-515,60,64177,-64,0,923*7e305e31
%RAWIMUSA,2283,35808.650;2283,35808.650000519,00000077,-500,131,64156,82,8,-749*2d9148a4
%RAWIMUSA,2283,35808.660;2283,35808.660000519,00000077,-482,15,64187,-73,-9,-914*33fedbd0
%RAWIMUSA,2283,35808.670;2283,35808.670000519,00000077,-499,126,64157,18,0,283*e63b103a
%RAWIMUSA,2283,35808.680;2283,35808.680000519,00000077,-510,54,64179,83,-8,923*3ed01ffc
%RAWIMUSA,2283,35808.690;2283,35808.690000519,00000077,-506,51,64180,-91,9,182*29855af0
%RAWIMUSA,2283,35808.700;2283,35808.700000519,00000077,-485,147,64157,73,8,-914*20c4f44d
%RAWIMUSA,2283,35808.710;2283,35808.710000519,00000077,-501,5,64183,-36,-9,-649*662265e7
%RAWIMUSA,2283,35808.720;2283,35808.720000519,00000077,-509,111,64163,0,0,932*79be4916
%RAWIMUSA,2283,35808.730;2283,35808.730000519,00000077,-499,75,64170,92,0,914*facfea3e
%RAWIMUSA,2283,35808.740;2283,35808.740000519,00000077,-488,46,64178,-110,8,-713*f435d07b
%RAWIMUSA,2283,35808.750;2283,35808.750000519,00000077,-501,141,64158,64,0,-905*897de76d
%RAWIMUSA,2283,35808.760;2283,35808.760000519,00000077,-513,10,64180,-8,-9,256*7dfce9b3
%RAWIMUSA,2283,35808.770;2283,35808.770000519,00000077,-494,119,64171,0,0,923*9c9a9763
%RAWIMUSA,2283,35808.780;2283,35808.780000519,00000077,-481,78,64169,64,0,247*0da46da0
%RAWIMUSA,2283,35808.790;2283,35808.790000519,00000077,-503,38,64178,-101,17,-932*95e1fbb0
%RAWIMUSA,2283,35808.800;2283,35808.800000519,00000077,-526,141,64157,73,-9,-703*6d6b5c8e
%RAWIMUSA,2283,35808.810;2283,35808.810000519,00000077,-494,12,64188,9,-8,923*cbb3fc03
%RAWIMUSA,2283,35808.820;2283,35808.820000518,00000077,-479,116,64162,-27,9,923*2baf552c
%RAWIMUSA,2283,35808.830;2283,35808.830000518,00000077,-503,89,64167,64,8,-658*868a49be
%RAWIMUSA,2283,35808.840;2283,35808.840000518,00000077,-517,27,64182,-101,0,-914*5ebd61dc
%RAWIMUSA,2283,35808.850;2283,35808.850000518,00000077,-500,140,64158,92,-9,192*e6814af6
%RAWIMUSA,2283,35808.860;2283,35808.860000518,00000077,-485,19,64182,9,-8,923*160a86bd
%RAWIMUSA,2283,35808.870;2283,35808.870000518,00000077,-499,112,64166,-55,9,292*147d650c
%RAWIMUSA,2283,35808.880;2283,35808.880000518,00000077,-515,88,64166,73,8,-914*a4451151
%RAWIMUSA,2283,35808.890;2283,35808.890000518,00000077,-497,17,64181,-73,-9,-749*c26f26a7
%RAWIMUSA,2283,35808.900;2283,35808.900000518,00000077,-482,152,64161,74,-8,914*34353725
%RAWIMUSA,2283,35808.910;2283,35808.910000518,00000077,-501,29,64182,18,9,923*f904b5db
%RAWIMUSA,2283,35808.920;2283,35808.920000518,00000077,-516,90,64166,-73,8,-603*31eebd7b
%RAWIMUSA,2283,35808.930;2283,35808.930000518,00000077,-499,94,64162,82,0,-905*a3d3772e
%RAWIMUSA,2283,35808.940;2283,35808.940000518,00000077,-483,27,64185,-64,-9,128*924f7a96
%RAWIMUSA,2283,35808.950;2283,35808.950000518,00000077,-504,144,64158,74,0,932*f7bd0f2e
%RAWIMUSA,2283,35808.960;2283,35808.960000518,00000077,-513,22,64179,0,9,347*d709ce2f
%RAWIMUSA,2283,35808.970;2283,35808.970000518,00000077,-498,91,64171,-64,0,-923*7c87471d
%RAWIMUSA,2283,35808.980;2283,35808.980000518,00000077,-482,103,64165,92,-9,-804*c4b47a7e
%RAWIMUSA,2283,35808.990;2283,35808.990000518,00000077,-500,25,64184,-54,0,914*c339d5c4
%RAWIMUSA,2283,35809.000;2283,35809.000000518,00000077,-512,142,64159,46,0,923*844b4a00
%RAWIMUSA,2283,35809.010;2283,35809.010000518,00000077,-500,21,64177,9,8,-566*c431b979
%RAWIMUSA,2283,35809.020;2283,35809.020000518,00000077,-490,98,64171,-73,-9,-905*444eb847
%RAWIMUSA,2283,35809.030;2283,35809.030000518,00000077,-493,117,64169,110,0,100*923dde50
%RAWIMUSA,2283,35809.040;2283,35809.040000518,00000077,-506,14,64183,-64,0,923*5a47c626
%RAWIMUSA,2283,35809.050;2283,35809.050000518,00000077,-508,141,64155,37,9,384*22a427d3
%RAWIMUSA,2283,35809.060;2283,35809.060000518,00000077,-491,28,64180,9,0,-914*88dbd0ef
%RAWIMUSA,2283,35809.070;2283,35809.070000518,00000077,-489,91,64170,-55,-9,-850*33348b89
%RAWIMUSA,2283,35809.080;2283,35809.080000518,00000077,-512,121,64163,120,0,923*76609cdf
%RAWIMUSA,2283,35809.090;2283,35809.090000518,00000077,-514,4,64185,-73,0,914*ca068e36
%RAWIMUSA,2283,35809.100;2283,35809.100000518,00000077,-489,145,64158,18,8,-511*8d2a53cd
%RAWIMUSA,2283,35809.110;2283,35809.110000518,00000077,-483,39,64178,27,0,-923*ab6bff1c
%RAWIMUSA,2283,35809.120;2283,35809.120000518,00000077,-508,68,64175,-55,-9,36*e074b1a7
%RAWIMUSA,2283,35809.130;2283,35809.130000518,00000077,-516,130,64161,110,0,923*0a53f8c4
%RAWIMUSA,2283,35809.140;2283,35809.140000518,00000077,-490,9,64189,-73,0,429*f5da6980
%RAWIMUSA,2283,35809.150;2283,35809.150000518,00000077,-485,137,64157,0,8,-914*d7b21182
%RAWIMUSA,2283,35809.160;2283,35809.160000518,00000077,-509,39,64179,55,-10,-895*a66b13eb
%RAWIMUSA,2283,35809.170;2283,35809.170000518,00000077,-510,65,64176,-54,0,932*b803f91c
%RAWIMUSA,2283,35809.180;2283,35809.180000518,00000077,-495,133,64160,92,0,923*abd144c8
%RAWIMUSA,2283,35809.190;2283,35809.190000518,00000077,-485,7,64186,-64,8,-457*aa67163b
%RAWIMUSA,2283,35809.200;2283,35809.200000518,00000077,-498,132,64161,0,-9,-914*251bdb19
%RAWIMUSA,2283,35809.210;2283,35809.210000518,00000077,-512,51,64176,73,-9,-9*fef88a02
%RAWIMUSA,2283,35809.220;2283,35809.220000518,00000077,-505,62,64175,-64,9,923*dc0eab61
%RAWIMUSA,2283,35809.230;2283,35809.230000518,00000077,-487,132,64157,74,0,493*a3074c13
%RAWIMUSA,2283,35809.240;2283,35809.240000518,00000077,-490,10,64185,-64,8,-923*77f812cc
%RAWIMUSA,2283,35809.250;2283,35809.250000518,00000077,-512,132,64161,18,-9,-914*ea438d4a
%RAWIMUSA,2283,35809.260;2283,35809.260000518,00000077,-507,59,64175,74,0,877*5face4f5
%RAWIMUSA,2283,35809.270;2283,35809.270000518,00000077,-488,55,64177,-82,9,932*47d17c61
%RAWIMUSA,2283,35809.280;2283,35809.280000518,00000077,-500,133,64158,73,0,-402*ca6be9cf
%RAWIMUSA,2283,35809.290;2283,35809.290000518,00000077,-507,7,64184,-55,0,-923*f60c11fa
%RAWIMUSA,2283,35809.300;2283,35809.300000518,00000077,-505,134,64160,18,-9,-54*6df9bd6a
%RAWIMUSA,2283,35809.310;2283,35809.310000518,00000077,-496,64,64174,83,0,932*b2cc66eb
%RAWIMUSA,2283,35809.320;2283,35809.320000518,00000077,-486,52,64180,-101,9,539*52a2e071
%RAWIMUSA,2283,35809.330;2283,35809.330000518,00000077,-503,145,64158,73,0,-905*b10e7390
%RAWIMUSA,2283,35809.340;2283,35809.340000518,00000077,-509,-5,64186,-27,-9,-914*7ea29ee5
%RAWIMUSA,2283,35809.350;2283,35809.350000518,00000077,-496,122,64165,0,0,841*8e9b391f
%RAWIMUSA,2283,35809.360;2283,35809.360000518,00000077,-493,91,64172,83,9,923*4ab8fc54
%RAWIMUSA,2283,35809.370;2283,35809.370000518,00000077,-505,49,64180,-110,8,-356*8c8cb634
%RAWIMUSA,2283,35809.380;2283,35809.380000518,00000077,-507,128,64158,73,-10,-914*02784267
%RAWIMUSA,2283,35809.390;2283,35809.390000518,00000077,-498,7,64180,0,-9,-100*da98fa86
%RAWIMUSA,2283,35809.400;2283,35809.400000518,00000077,-494,128,64169,-8,9,914*f89b74e1
%RAWIMUSA,2283,35809.410;2283,35809.410000518,00000077,-496,96,64170,64,9,585*f6aca967
%RAWIMUSA,2283,35809.420;2283,35809.420000518,00000077,-508,17,64182,-101,0,-914*38500908
%RAWIMUSA,2283,35809.430;2283,35809.430000518,00000077,-505,140,64159,82,-10,-914*b5778145
%RAWIMUSA,2283,35809.440;2283,35809.440000518,00000077,-498,28,64183,9,0,786*421c6421
%RAWIMUSA,2283,35809.450;2283,35809.450000518,00000077,-495,105,64166,-54,9,914*ffc84a75
%RAWIMUSA,2283,35809.460;2283,35809.460000518,00000077,-504,85,64164,73,0,-301*09a4b883
%RAWIMUSA,2283,35809.470;2283,35809.470000518,00000077,-507,22,64181,-83,-9,-923*e4b30ed7
%RAWIMUSA,2283,35809.480;2283,35809.480000518,00000077,-494,158,64158,83,-9,-146*5137446d
%RAWIMUSA,2283,35809.490;2283,35809.490000518,00000077,-491,26,64184,18,9,923*f5e7aa02
%RAWIMUSA,2283,35809.500;2283,35809.500000518,00000077,-503,85,64167,-73,9,630*8a761997
%RAWIMUSA,2283,35809.510;2283,35809.510000518,00000077,-508,100,64164,82,-10,-914*b4ccfa3d
%RAWIMUSA,2283,35809.520;2283,35809.520000518,00000077,-493,24,64186,-64,-9,-923*41192068
%RAWIMUSA,2283,35809.530;2283,35809.530000518,00000077,-494,156,64161,55,0,731*1c62f98c
%RAWIMUSA,2283,35809.540;2283,35809.540000518,00000077,-508,27,64180,28,9,923*f49b5d3d
%RAWIMUSA,2283,35809.550;2283,35809.550000518,00000077,-503,74,64174,-82,9,-246*647678be
%RAWIMUSA,2283,35809.560;2283,35809.560000518,00000077,-495,127,64160,92,-10,-923*fe3a0382
%RAWIMUSA,2283,35809.570;2283,35809.570000518,00000077,-495,12,64186,-45,-9,-210*96e5091f
%RAWIMUSA,2283,35809.580;2283,35809.580000518,00000077,-502,133,64160,28,9,923*98417df1
%RAWIMUSA,2283,35809.590;2283,35809.590000518,00000077,-501,51,64174,46,9,676*370e0528
%RAWIMUSA,2283,35809.600;2283,35809.600000518,00000077,-507,69,64175,-101,-9,-914*88234767
%RAWIMUSA,2283,35809.610;2283,35809.610000518,00000077,-494,131,64161,101,-10,-914*58cfe353
%RAWIMUSA,2283,35809.620;2283,35809.620000518,00000077,-492,-2,64185,-27,9,685*17061dd3
%RAWIMUSA,2283,35809.630;2283,35809.630000518,00000077,-504,127,64162,-8,9,923*fb79e8ea
%RAWIMUSA,2283,35809.640;2283,35809.640000518,00000077,-506,69,64174,64,-9,-201*6ec61c1b
%RAWIMUSA,2283,35809.650;2283,35809.650000518,00000077,-493,55,64180,-101,0,-932*843244f7
%RAWIMUSA,2283,35809.660;2283,35809.660000518,00000077,-492,129,64153,101,-9,-255*648ec04b
%RAWIMUSA,2283,35809.670;2283,35809.670000518,00000077,-507,3,64185,-8,9,923*29ddebcc
%RAWIMUSA,2283,35809.680;2283,35809.680000518,00000077,-509,127,64165,-45,9,740*4aa137b3
%RAWIMUSA,2283,35809.690;2283,35809.690000518,00000077,-486,90,64169,73,-10,-914*589e7bf0
%RAWIMUSA,2283,35809.700;2283,35809.700000518,00000077,-497,17,64182,-83,-9,-914*837e0071
%RAWIMUSA,2283,35809.710;2283,35809.710000518,00000077,-510,149,64156,92,9,640*2c98804c
%RAWIMUSA,2283,35809.720;2283,35809.720000518,00000077,-502,24,64182,-8,0,923*a53ca8ad
%RAWIMUSA,2283,35809.730;2283,35809.730000518,00000077,-488,101,64169,-64,0,-164*0b3854ad
%RAWIMUSA,2283,35809.740;2283,35809.740000518,00000077,-503,96,64162,101,-10,-905*84712983
%RAWIMUSA,2283,35809.750;2283,35809.750000518,00000077,-511,15,64185,-64,0,-310*fe1c73e1
%RAWIMUSA,2283,35809.760;2283,35809.760000518,00000077,-496,159,64163,55,9,923*91150e68
%RAWIMUSA,2283,35809.770;2283,35809.770000518,00000077,-488,29,64183,0,9,777*d9dfb7f3
%RAWIMUSA,2283,35809.780;2283,35809.780000518,00000077,-499,75,64167,-73,-9,-923*440a57eb
%RAWIMUSA,2283,35809.790;2283,35809.790000518,00000077,-512,111,64162,110,-10,-914*6bc6f84d
%RAWIMUSA,2283,35809.800;2283,35809.800000518,00000077,-500,25,64189,-54,9,594*0adb6305
%RAWIMUSA,2283,35809.810;2283,35809.810000518,00000077,-485,144,64161,28,9,914*06edbf80
%RAWIMUSA,2283,35809.820;2283,35809.820000518,00000077,-504,32,64179,9,0,-109*3d290c33
%RAWIMUSA,2283,35809.830;2283,35809.830000518,00000077,-508,80,64172,-64,-9,-914*a837008c
%RAWIMUSA,2283,35809.840;2283,35809.840000518,00000077,-492,122,64161,119,0,-356*dfe6bd90
%RAWIMUSA,2283,35809.850;2283,35809.850000518,00000077,-493,10,64185,-64,9,914*c666956d
%RAWIMUSA,2283,35809.860;2283,35809.860000518,00000077,-501,139,64159,9,9,832*d802a74e
%RAWIMUSA,2283,35809.870;2283,35809.870000518,00000077,-508,49,64175,36,-9,-905*c266b3e0
%RAWIMUSA,2283,35809.880;2283,35809.880000518,00000077,-502,66,64179,-64,-9,-923*915a1643
%RAWIMUSA,2283,35809.890;2283,35809.890000518,00000077,-494,132,64162,120,9,539*f5dbb9e8
%RAWIMUSA,2283,35809.900;2283,35809.900000518,00000077,-495,0,64184,-64,9,923*143d86e7
%RAWIMUSA,2283,35809.910;2283,35809.910000518,00000077,-504,130,64160,-18,-9,-63*94bb8b36
%RAWIMUSA,2283,35809.920;2283,35809.920000518,00000077,-505,71,64170,73,-10,-923*9c96866b
%RAWIMUSA,2283,35809.930;2283,35809.930000518,00000077,-495,45,64178,-64,0,-402*da0e8389
%RAWIMUSA,2283,35809.940;2283,35809.940000518,00000077,-496,137,64156,83,9,923*4e8d9ee1
%RAWIMUSA,2283,35809.950;2283,35809.950000518,00000077,-502,4,64186,-36,9,887*e4f60ae9
%RAWIMUSA,2283,35809.960;2283,35809.960000518,00000077,-501,120,64166,-36,-9,-914*5627edd3
%RAWIMUSA,2283,35809.970;2283,35809.970000518,00000077,-495,83,64169,101,-10,-914*9fe35731
%RAWIMUSA,2283,35809.980;2283,35809.980000518,00000077,-504,38,64176,-64,9,466*c62eb211
%RAWIMUSA,2283,35809.990;2283,35809.990000518,00000077,-501,137,64157,55,9,932*2f781cc0
%RAWIMUSA,2283,35810.000;2283,35810.000000518,00000077,-493,17,64182,-27,0,-9*6ec0d995
%RAWIMUSA,2283,35810.010;2283,35810.010000518,00000077,-495,115,64163,-27,-9,-923*18214fb0
%RAWIMUSA,2283,35810.020;2283,35810.020000518,00000077,-507,78,64169,101,0,-457*5b07ce5d
%RAWIMUSA,2283,35810.030;2283,35810.030000518,00000077,-500,31,64181,-82,9,923*f5b5dfce
%RAWIMUSA,2283,35810.040;2283,35810.040000518,00000077,-492,149,64159,55,0,923*2d736a59
%RAWIMUSA,2283,35810.050;2283,35810.050000518,00000077,-501,24,64184,-27,-9,-905*87226021
%RAWIMUSA,2283,35810.060;2283,35810.060000518,00000077,-506,100,64167,-9,0,-914*52c17bd5
%RAWIMUSA,2283,35810.070;2283,35810.070000518,00000077,-499,85,64165,101,0,448*7b6f1614
%RAWIMUSA,2283,35810.080;2283,35810.080000518,00000077,-497,34,64181,-91,19,923*09dbdeaf
%RAWIMUSA,2283,35810.090;2283,35810.090000518,00000077,-500,149,64162,46,-9,54*b63863f1
%RAWIMUSA,2283,35810.100;2283,35810.100000518,00000077,-498,15,64184,0,-9,-923*c9cf4864
%RAWIMUSA,2283,35810.110;2283,35810.110000518,00000077,-501,97,64166,-27,8,-502*943b4a54
%RAWIMUSA,2283,35810.120;2283,35810.120000518,00000077,-501,101,64165,101,0,932*83b9697d
%RAWIMUSA,2283,35810.130;2283,35810.130000518,00000077,-498,28,64185,-101,9,905*4868b9f6
%RAWIMUSA,2283,35810.140;2283,35810.140000518,00000077,-498,142,64159,46,-9,-850*44249948
%RAWIMUSA,2283,35810.150;2283,35810.150000518,00000077,-496,21,64183,27,-9,-914*ac7e6fac
%RAWIMUSA,2283,35810.160;2283,35810.160000518,00000077,-504,98,64167,-36,18,384*1aedc8ff
%RAWIMUSA,2283,35810.170;2283,35810.170000518,00000077,-501,111,64165,74,0,923*b38ee56f
%RAWIMUSA,2283,35810.180;2283,35810.180000518,00000077,-495,3,64185,-91,-9,82*384b02f1
%RAWIMUSA,2283,35810.190;2283,35810.190000518,00000077,-499,141,64165,55,-10,-914*43da6c6a
%RAWIMUSA,2283,35810.200;2283,35810.200000518,00000077,-504,36,64177,36,8,-557*e3eecd82
%RAWIMUSA,2283,35810.210;2283,35810.210000518,00000077,-502,91,64171,-64,9,923*b1137f4c
%RAWIMUSA,2283,35810.220;2283,35810.220000518,00000077,-496,105,64161,83,-8,923*bbffcdc1
%RAWIMUSA,2283,35810.230;2283,35810.230000518,00000077,-493,5,64187,-82,0,-813*1bf90550
%RAWIMUSA,2283,35810.240;2283,35810.240000518,00000077,-506,151,64157,55,0,-914*b54aaf22
%RAWIMUSA,2283,35810.250;2283,35810.250000518,00000077,-505,37,64180,55,9,347*7bea24bc
%RAWIMUSA,2283,35810.260;2283,35810.260000518,00000077,-496,74,64172,-101,0,905*c31c12e4
%RAWIMUSA,2283,35810.270;2283,35810.270000518,00000077,-490,125,64160,92,-9,146*754745f9
%RAWIMUSA,2283,35810.280;2283,35810.280000518,00000077,-501,7,64188,-55,0,-914*6b7df9b3
%RAWIMUSA,2283,35810.290;2283,35810.290000518,00000077,-507,141,64160,27,8,-603*23d3f7de
%RAWIMUSA,2283,35810.300;2283,35810.300000518,00000077,-499,46,64174,64,0,914*04e78066
%RAWIMUSA,2283,35810.310;2283,35810.310000518,00000077,-494,55,64179,-101,0,914*347e520c
%RAWIMUSA,2283,35810.320;2283,35810.320000518,00000077,-501,139,64157,82,-9,-749*28012f6a
%RAWIMUSA,2283,35810.330;2283,35810.330000518,00000077,-507,9,64187,-27,0,-914*1f1654cf
%RAWIMUSA,2283,35810.340;2283,35810.340000518,00000077,-494,129,64163,9,9,283*2d354222
%RAWIMUSA,2283,35810.350;2283,35810.350000518,00000077,-496,65,64174,55,0,923*f2f55662
%RAWIMUSA,2283,35810.360;2283,35810.360000518,00000077,-505,39,64176,-110,-9,192*b0d6b9f9
%RAWIMUSA,2283,35810.370;2283,35810.370000518,00000077,-503,139,64162,101,-10,-905*9d8e6767
%RAWIMUSA,2283,35810.380;2283,35810.380000518,00000077,-489,11,64185,-9,8,-658*3f43eb58
%RAWIMUSA,2283,35810.390;2283,35810.390000518,00000077,-500,130,64167,-36,9,923*8d5f0635
%RAWIMUSA,2283,35810.400;2283,35810.400000518,00000077,-510,73,64167,74,-8,914*e082d7ba
%RAWIMUSA,2283,35810.410;2283,35810.410000518,00000077,-496,15,64178,-92,0,-713*81efc320
%RAWIMUSA,2283,35810.420;2283,35810.420000518,00000077,-489,155,64159,92,-10,-905*8acdb0c0
%RAWIMUSA,2283,35810.430;2283,35810.430000518,00000077,-498,27,64185,9,9,237*b49af798
%RAWIMUSA,2283,35810.440;2283,35810.440000518,00000077,-512,99,64168,-73,9,914*22964044
%RAWIMUSA,2283,35810.450;2283,35810.450000518,00000077,-498,91,64163,83,-9,247*a716ba38
%RAWIMUSA,2283,35810.460;2283,35810.460000518,00000077,-487,25,64183,-64,-9,-914*4038fc7d
%RAWIMUSA,2283,35810.470;2283,35810.470000518,00000077,-499,151,64160,64,8,-722*7e78c00e
%RAWIMUSA,2283,35810.480;2283,35810.480000518,00000077,-507,18,64182,9,9,932*595c08b9
%RAWIMUSA,2283,35810.490;2283,35810.490000518,00000077,-503,92,64168,-64,0,923*884ff61f
%RAWIMUSA,2283,35810.500;2283,35810.500000518,00000077,-487,108,64164,92,-9,-649*f8bca56f
%RAWIMUSA,2283,35810.510;2283,35810.510000518,00000077,-498,26,64183,-64,0,-923*78a3a497
%RAWIMUSA,2283,35810.520;2283,35810.520000518,00000077,-511,140,64159,55,9,201*d2d7cd53
%RAWIMUSA,2283,35810.530;2283,35810.530000518,00000077,-501,17,64180,9,0,914*b3df27ac
%RAWIMUSA,2283,35810.540;2283,35810.540000518,00000077,-487,93,64171,-82,-8,292*900a6bb2
%RAWIMUSA,2283,35810.550;2283,35810.550000518,00000077,-495,118,64165,110,0,-914*b3f39b28
%RAWIMUSA,2283,35810.560;2283,35810.560000518,00000077,-513,16,64188,-46,8,-758*1e2ca396
%RAWIMUSA,2283,35810.570;2283,35810.570000518,00000077,-503,133,64158,28,0,914*f717396d
%RAWIMUSA,2283,35810.580;2283,35810.580000518,00000077,-488,35,64181,9,0,923*6f8da349
%RAWIMUSA,2283,35810.590;2283,35810.590000518,00000077,-499,89,64172,-64,-9,-594*e109dca4
%RAWIMUSA,2283,35810.600;2283,35810.600000518,00000077,-514,113,64164,110,0,-923*09577af5
%RAWIMUSA,2283,35810.610;2283,35810.610000518,00000077,-498,15,64189,-55,9,146*6c0d98a0
%RAWIMUSA,2283,35810.620;2283,35810.620000518,00000077,-486,140,64159,18,0,923*b7b79933
%RAWIMUSA,2283,35810.630;2283,35810.630000518,00000077,-498,35,64179,18,0,338*0d016cb1
%RAWIMUSA,2283,35810.640;2283,35810.640000518,00000077,-510,85,64171,-55,0,-914*47e71b6b
%RAWIMUSA,2283,35810.650;2283,35810.650000518,00000077,-502,113,64165,119,0,-813*7457b8d9
%RAWIMUSA,2283,35810.660;2283,35810.660000518,00000077,-489,8,64184,-82,9,923*dc7081ae
%RAWIMUSA,2283,35810.670;2283,35810.670000518,00000077,-497,147,64158,18,-8,914*b6fc6a47
%RAWIMUSA,2283,35810.680;2283,35810.680000518,00000077,-515,41,64176,36,-9,-548*8d93f934
%RAWIMUSA,2283,35810.690;2283,35810.690000518,00000077,-502,67,64173,-55,8,-914*db4abec7
%RAWIMUSA,2283,35810.700;2283,35810.700000518,00000077,-482,109,64163,101,9,91*0969a0e4
%RAWIMUSA,2283,35810.710;2283,35810.710000518,00000077,-494,26,64181,-73,0,923*01b1c6e5
%RAWIMUSA,2283,35810.720;2283,35810.720000518,00000077,-517,146,64159,9,-8,393*c0e91422
%RAWIMUSA,2283,35810.730;2283,35810.730000517,00000077,-510,29,64177,55,0,-914*09e70c66
%RAWIMUSA,2283,35810.740;2283,35810.740000517,00000077,-485,67,64177,-55,8,-859*b2dc889a
%RAWIMUSA,2283,35810.750;2283,35810.750000517,00000077,-492,135,64163,92,0,923*d97f0ee2
%RAWIMUSA,2283,35810.760;2283,35810.760000517,00000077,-516,14,64183,-82,0,923*45d68a51
%RAWIMUSA,2283,35810.770;2283,35810.770000517,00000077,-505,129,64160,27,-9,-502*07e9da95
%RAWIMUSA,2283,35810.780;2283,35810.780000517,00000077,-481,48,64180,64,0,-914*e2f49908
%RAWIMUSA,2283,35810.790;2283,35810.790000517,00000077,-493,72,64177,-73,9,27*2d414243
%RAWIMUSA,2283,35810.800;2283,35810.800000517,00000077,-517,135,64162,83,0,941*3ed99d7a
%RAWIMUSA,2283,35810.810;2283,35810.810000517,00000077,-503,-4,64182,-64,-8,448*1b13bc37
%RAWIMUSA,2283,35810.820;2283,35810.820000517,00000077,-483,130,64160,18,0,-914*94441e2b
%RAWIMUSA,2283,35810.830;2283,35810.830000517,00000077,-495,75,64175,82,8,-914*78376738
%RAWIMUSA,2283,35810.840;2283,35810.840000517,00000077,-514,54,64178,-100,9,923*ff0cc1d4
%RAWIMUSA,2283,35810.850;2283,35810.850000517,00000077,-506,130,64158,83,-8,923*ba04e054
%RAWIMUSA,2283,35810.860;2283,35810.860000517,00000077,-487,4,64180,-36,-9,-447*11f10626
%RAWIMUSA,2283,35810.870;2283,35810.870000517,00000077,-495,139,64165,0,8,-914*eca86643
%RAWIMUSA,2283,35810.880;2283,35810.880000517,00000077,-509,78,64174,83,9,-18*863ca738
%RAWIMUSA,2283,35810.890;2283,35810.890000517,00000077,-506,26,64179,-100,0,923*2b3fcb49
%RAWIMUSA,2283,35810.900;2283,35810.900000517,00000077,-489,145,64156,74,-8,493*921e1d19
%RAWIMUSA,2283,35810.910;2283,35810.910000517,00000077,-496,18,64184,-9,0,-923*13867c96
%RAWIMUSA,2283,35810.920;2283,35810.920000517,00000077,-508,113,64167,-18,8,-914*e573f97b
%RAWIMUSA,2283,35810.930;2283,35810.930000517,00000077,-500,75,64167,83,0,877*a2b15c72
%RAWIMUSA,2283,35810.940;2283,35810.940000517,00000077,-496,32,64182,-110,-8,914*7a9137ff
%RAWIMUSA,2283,35810.950;2283,35810.950000517,00000077,-495,158,64157,83,-9,-393*a48c07a3
%RAWIMUSA,2283,35810.960;2283,35810.960000517,00000077,-503,11,64184,9,17,-914*3a966319
%RAWIMUSA,2283,35810.970;2283,35810.970000517,00000077,-504,93,64168,-45,0,-73*0387f229
%RAWIMUSA,2283,35810.980;2283,35810.980000517,00000077,-494,100,64164,83,-8,923*0f8e8cf6
%RAWIMUSA,2283,35810.990;2283,35810.990000517,00000077,-500,27,64183,-91,0,548*59695389
%RAWIMUSA,2283,35811.000;2283,35811.000000517,00000077,-508,149,64159,64,0,-914*f8a885f6
%RAWIMUSA,2283,35811.010;2283,35811.010000517,00000077,-496,20,64180,46,8,-932*c2ff345a
%RAWIMUSA,2283,35811.020;2283,35811.020000517,00000077,-490,84,64172,-82,0,841*b8361f0e
%RAWIMUSA,2283,35811.030;2283,35811.030000517,00000077,-501,121,64165,83,-8,914*963fd404
%RAWIMUSA,2283,35811.040;2283,35811.040000517,00000077,-508,9,64186,-64,0,-356*5be8652e
%RAWIMUSA,2283,35811.050;2283,35811.050000517,00000077,-500,145,64158,55,0,-914*4ea6012b
%RAWIMUSA,2283,35811.060;2283,35811.060000517,00000077,-493,40,64179,36,9,-109*561f1e2a
%RAWIMUSA,2283,35811.070;2283,35811.070000517,00000077,-500,77,64175,-91,0,923*48562ffb
%RAWIMUSA,2283,35811.080;2283,35811.080000517,00000077,-507,123,64160,92,-18,594*2ea5e758
%RAWIMUSA,2283,35811.090;2283,35811.090000517,00000077,-498,1,64185,-46,8,-914*c5e8fb0a
%RAWIMUSA,2283,35811.100;2283,35811.100000517,00000077,-495,142,64159,36,8,-923*8c9748fc
%RAWIMUSA,2283,35811.110;2283,35811.110000517,00000077,-505,60,64176,37,-8,786*d047db86
%RAWIMUSA,2283,35811.120;2283,35811.120000517,00000077,-504,54,64176,-100,0,923*25ba7b2e
%RAWIMUSA,2283,35811.130;2283,35811.130000517,00000077,-492,127,64158,101,-9,-301*f4fa8dcf
%RAWIMUSA,2283,35811.140;2283,35811.140000517,00000077,-497,11,64182,-27,8,-914*c2457045
%RAWIMUSA,2283,35811.150;2283,35811.150000517,00000077,-505,134,64162,0,8,-164*ed22da17
%RAWIMUSA,2283,35811.160;2283,35811.160000517,00000077,-499,54,64175,46,-8,932*4dcf4be7
%RAWIMUSA,2283,35811.170;2283,35811.170000517,00000077,-491,52,64178,-91,0,630*880241d1
%RAWIMUSA,2283,35811.180;2283,35811.180000517,00000077,-505,144,64160,110,0,-914*bf19b733
%RAWIMUSA,2283,35811.190;2283,35811.190000517,00000077,-507,7,64182,-27,8,-923*ddf9d9f7
%RAWIMUSA,2283,35811.200;2283,35811.200000517,00000077,-498,121,64165,-27,0,731*efa81500
%RAWIMUSA,2283,35811.210;2283,35811.210000517,00000077,-492,67,64172,64,-8,923*598f1288
%RAWIMUSA,2283,35811.220;2283,35811.220000517,00000077,-498,52,64183,-73,8,-255*f20cc244
%RAWIMUSA,2283,35811.230;2283,35811.230000517,00000077,-507,145,64158,101,8,-914*4f29c29f
%RAWIMUSA,2283,35811.240;2283,35811.240000517,00000077,-499,-2,64185,-36,0,-210*56d8d585
%RAWIMUSA,2283,35811.250;2283,35811.250000517,00000077,-496,117,64166,-36,-8,914*71acb5a6
%RAWIMUSA,2283,35811.260;2283,35811.260000517,00000077,-496,87,64170,83,-8,685*29ea0811
%RAWIMUSA,2283,35811.270;2283,35811.270000517,00000077,-504,36,64180,-73,8,-914*3c86756a
%RAWIMUSA,2283,35811.280;2283,35811.280000517,00000077,-505,144,64157,82,8,-914*252b868e
%RAWIMUSA,2283,35811.290;2283,35811.290000517,00000077,-497,15,64184,-27,0,676*6ca8cd3e
%RAWIMUSA,2283,35811.300;2283,35811.300000517,00000077,-493,107,64165,-54,-8,914*d2854f62
%RAWIMUSA,2283,35811.310;2283,35811.310000517,00000077,-500,98,64166,101,0,-191*30e4752a
%RAWIMUSA,2283,35811.320;2283,35811.320000517,00000077,-507,17,64183,-64,8,-932*5292b08d
%RAWIMUSA,2283,35811.330;2283,35811.330000517,00000077,-498,149,64157,55,0,-255*7266d6ab
%RAWIMUSA,2283,35811.340;2283,35811.340000517,00000077,-494,26,64182,0,-8,932*015aa2da
%RAWIMUSA,2283,35811.350;2283,35811.350000517,00000077,-500,85,64171,-73,-8,740*791b24a1
%RAWIMUSA,2283,35811.360;2283,35811.360000517,00000077,-504,112,64162,119,8,-914*43754203
%RAWIMUSA,2283,35811.370;2283,35811.370000517,00000077,-499,13,64188,-64,8,-914*2767a6f7
%RAWIMUSA,2283,35811.380;2283,35811.380000517,00000077,-497,143,64161,18,-8,621*55253d9a
%RAWIMUSA,2283,35811.390;2283,35811.390000517,00000077,-503,41,64174,18,-8,914*25793bf6
%RAWIMUSA,2283,35811.400;2283,35811.400000517,00000077,-504,69,64175,-55,9,-155*c3fd1257
%RAWIMUSA,2283,35811.410;2283,35811.410000517,00000077,-495,116,64163,119,0,-905*6e93aa65
%RAWIMUSA,2283,35811.420;2283,35811.420000517,00000077,-497,18,64184,-73,8,-329*5aa3cb23
%RAWIMUSA,2283,35811.430;2283,35811.430000517,00000077,-508,139,64158,9,-8,923*2bbbb086
%RAWIMUSA,2283,35811.440;2283,35811.440000517,00000077,-504,35,64180,37,-8,777*68ed908d
%RAWIMUSA,2283,35811.450;2283,35811.450000517,00000077,-494,75,64173,-55,8,-923*83e3517f
%RAWIMUSA,2283,35811.460;2283,35811.460000517,00000077,-495,125,64164,110,0,-914*03a6ecc5
%RAWIMUSA,2283,35811.470;2283,35811.470000517,00000077,-507,12,64187,-82,0,576*0ba34c97
%RAWIMUSA,2283,35811.480;2283,35811.480000517,00000077,-500,138,64157,0,-8,923*f26a366c
%RAWIMUSA,2283,35811.490;2283,35811.490000517,00000077,-493,40,64176,73,8,-100*8d7b0e5b
%RAWIMUSA,2283,35811.500;2283,35811.500000517,00000077,-495,66,64176,-73,8,-914*dbb7e0a3
%RAWIMUSA,2283,35811.510;2283,35811.510000517,00000077,-510,143,64160,92,0,-356*e9ba7686
%RAWIMUSA,2283,35811.520;2283,35811.520000517,00000077,-499,0,64183,-64,-8,914*849fbeb7
%RAWIMUSA,2283,35811.530;2283,35811.530000517,00000077,-490,130,64164,-8,-8,841*18e230b1
%RAWIMUSA,2283,35811.540;2283,35811.540000517,00000077,-497,65,64173,92,8,-905*d4836666
%RAWIMUSA,2283,35811.550;2283,35811.550000517,00000077,-509,54,64180,-83,8,-914*5a9f1135
%RAWIMUSA,2283,35811.560;2283,35811.560000517,00000077,-500,141,64156,74,-8,521*660edda7
%RAWIMUSA,2283,35811.570;2283,35811.570000517,00000077,-492,2,64187,-36,-8,923*98ae734d
%RAWIMUSA,2283,35811.580;2283,35811.580000517,00000077,-504,121,64165,-18,9,-54*420e9982
%RAWIMUSA,2283,35811.590;2283,35811.590000517,00000077,-506,90,64169,110,0,-914*2e5aca94
%RAWIMUSA,2283,35811.600;2283,35811.600000517,00000077,-497,23,64179,-101,8,-411*e36d3695
%RAWIMUSA,2283,35811.610;2283,35811.610000517,00000077,-495,140,64157,55,-8,923*1132f0c9
%RAWIMUSA,2283,35811.620;2283,35811.620000517,00000077,-505,23,64182,0,0,896*663e7a91
%RAWIMUSA,2283,35811.630;2283,35811.630000517,00000077,-501,109,64169,-36,8,-923*8354ae81
%RAWIMUSA,2283,35811.640;2283,35811.640000517,00000077,-499,91,64163,101,0,-914*611e0dbd
%RAWIMUSA,2283,35811.650;2283,35811.650000517,00000077,-501,15,64185,-101,-8,475*605f514c
%RAWIMUSA,2283,35811.660;2283,35811.660000517,00000077,-504,145,64159,37,0,932*cceb2de6
%RAWIMUSA,2283,35811.670;2283,35811.670000517,00000077,-495,29,64181,37,9,-9*14674578
%RAWIMUSA,2283,35811.680;2283,35811.680000517,00000077,-497,89,64168,-46,8,-914*c20bc735
%RAWIMUSA,2283,35811.690;2283,35811.690000517,00000077,-503,106,64163,82,-9,-466*8e301b5d
%RAWIMUSA,2283,35811.700;2283,35811.700000517,00000077,-503,17,64186,-82,0,914*75fad412
%RAWIMUSA,2283,35811.710;2283,35811.710000517,00000077,-496,143,64160,37,-8,923*5bf86942
%RAWIMUSA,2283,35811.720;2283,35811.720000517,00000077,-497,29,64176,55,8,-895*ff5ef4a2
%RAWIMUSA,2283,35811.730;2283,35811.730000517,00000077,-502,84,64171,-64,8,-905*1bb649f7
%RAWIMUSA,2283,35811.740;2283,35811.740000517,00000077,-503,125,64162,83,-9,429*f3d83184
%RAWIMUSA,2283,35811.750;2283,35811.750000517,00000077,-497,10,64188,-91,0,914*8cdb1e01
%RAWIMUSA,2283,35811.760;2283,35811.760000517,00000077,-498,140,64158,46,0,45*e3bd1266
%RAWIMUSA,2283,35811.770;2283,35811.770000517,00000077,-504,42,64176,64,8,-905*f64c90d6
%RAWIMUSA,2283,35811.780;2283,35811.780000517,00000077,-501,71,64175,-92,0,-511*fb2b150d
%RAWIMUSA,2283,35811.790;2283,35811.790000517,00000077,-500,133,64163,83,-8,923*2ac39f45
%RAWIMUSA,2283,35811.800;2283,35811.800000517,00000077,-500,3,64186,-54,0,923*f1c1e445
%RAWIMUSA,2283,35811.810;2283,35811.810000517,00000077,-499,136,64161,27,17,-850*0808cbd0
%RAWIMUSA,2283,35811.820;2283,35811.820000517,00000077,-501,58,64175,64,0,-914*d8a84445
%RAWIMUSA,2283,35811.830;2283,35811.830000517,00000077,-502,54,64179,-101,-8,365*1a33c7c4
%RAWIMUSA,2283,35811.840;2283,35811.840000517,00000077,-502,136,64160,83,-8,923*1242901b
%RAWIMUSA,2283,35811.850;2283,35811.850000517,00000077,-494,6,64183,-27,9,91*36271e1f
%RAWIMUSA,2283,35811.860;2283,35811.860000517,00000077,-500,129,64163,9,8,-914*493346be
%RAWIMUSA,2283,35811.870;2283,35811.870000517,00000077,-502,65,64176,55,-9,-566*d99e75b2
%RAWIMUSA,2283,35811.880;2283,35811.880000517,00000077,-500,40,64176,-101,0,914*ffdedbf5
%RAWIMUSA,2283,35811.890;2283,35811.890000517,00000077,-493,140,64158,92,0,923*335a3dd1
%RAWIMUSA,2283,35811.900;2283,35811.900000517,00000077,-498,11,64184,-9,8,-786*b166beab
%RAWIMUSA,2283,35811.910;2283,35811.910000517,00000077,-508,125,64169,-18,0,-914*59424f30
%RAWIMUSA,2283,35811.920;2283,35811.920000517,00000077,-500,73,64171,64,-9,329*f324e1e8
%RAWIMUSA,2283,35811.930;2283,35811.930000517,00000077,-495,32,64179,-100,-8,923*73ac7b7d
%RAWIMUSA,2283,35811.940;2283,35811.940000517,00000077,-495,149,64157,92,18,137*85c0cb20
%RAWIMUSA,2283,35811.950;2283,35811.950000517,00000077,-504,14,64186,9,0,-914*9180aa9d
%RAWIMUSA,2283,35811.960;2283,35811.960000517,00000077,-508,107,64166,-55,0,-621*ed6af787
%RAWIMUSA,2283,35811.970;2283,35811.970000517,00000077,-497,95,64164,74,-8,923*b9b83fe8
%RAWIMUSA,2283,35811.980;2283,35811.980000517,00000077,-491,27,64183,-73,9,923*607fde02
%RAWIMUSA,2283,35811.990;2283,35811.990000517,00000077,-503,149,64159,82,0,-731*f606a444
%RAWIMUSA,2283,35812.000;2283,35812.000000517,00000077,-510,19,64183,0,0,-914*1a442abd
%RAWIMUSA,2283,35812.010;2283,35812.010000517,00000077,-497,95,64169,-64,0,283*b02e4684
%RAWIMUSA,2283,35812.020;2283,35812.020000517,00000077,-486,103,64167,92,-8,923*38a9b37f
%RAWIMUSA,2283,35812.030;2283,35812.030000517,00000077,-501,25,64185,-64,18,182*1e04c46a
%RAWIMUSA,2283,35812.040;2283,35812.040000517,00000077,-508,146,64158,64,0,-914*cfb4d24d
%RAWIMUSA,2283,35812.050;2283,35812.050000517,00000077,-499,17,64179,0,0,-658*d1101032
%RAWIMUSA,2283,35812.060;2283,35812.060000517,00000077,-491,89,64171,-73,-8,914*03d37655
%RAWIMUSA,2283,35812.070;2283,35812.070000517,00000077,-498,122,64163,101,9,932*9b7cad85
%RAWIMUSA,2283,35812.080;2283,35812.080000517,00000077,-508,13,64185,-55,8,-704*0ecc46dd
%RAWIMUSA,2283,35812.090;2283,35812.090000517,00000077,-500,135,64162,36,-9,-905*519e9ef2
%RAWIMUSA,2283,35812.100;2283,35812.100000517,00000077,-489,40,64177,18,-9,237*9d51c277
%RAWIMUSA,2283,35812.110;2283,35812.110000517,00000077,-501,81,64173,-73,0,923*3a79df4d
%RAWIMUSA,2283,35812.120;2283,35812.120000517,00000077,-506,113,64164,110,9,256*319672de
%RAWIMUSA,2283,35812.130;2283,35812.130000517,00000077,-500,7,64184,-46,0,-923*b46b6551
%RAWIMUSA,2283,35812.140;2283,35812.140000517,00000077,-495,144,64159,9,0,-713*1728f6d1
%RAWIMUSA,2283,35812.150;2283,35812.150000517,00000077,-503,45,64180,18,-8,923*edb6d8a4
%RAWIMUSA,2283,35812.160;2283,35812.160000517,00000077,-503,72,64174,-54,9,923*53e59aad
%RAWIMUSA,2283,35812.170;2283,35812.170000517,00000077,-498,115,64164,110,0,-649*c4fc3b6b
%RAWIMUSA,2283,35812.180;2283,35812.180000517,00000077,-495,14,64181,-64,0,-923*c341ccf4
%RAWIMUSA,2283,35812.190;2283,35812.190000517,00000077,-497,145,64161,9,-9,182*a0bd2e1e
%RAWIMUSA,2283,35812.200;2283,35812.200000517,00000077,-509,37,64177,28,9,923*ffec7aec
%RAWIMUSA,2283,35812.210;2283,35812.210000517,00000077,-499,70,64174,-45,0,292*367d54c5
%RAWIMUSA,2283,35812.220;2283,35812.220000517,00000077,-498,117,64162,119,0,-914*c6eb7b9b
%RAWIMUSA,2283,35812.230;2283,35812.230000517,00000077,-495,18,64186,-92,0,-777*0906d681
%RAWIMUSA,2283,35812.240;2283,35812.240000517,00000077,-503,135,64158,9,-8,932*93ccc66b
%RAWIMUSA,2283,35812.250;2283,35812.250000517,00000077,-499,44,64180,55,9,932*3032f446
%RAWIMUSA,2283,35812.260;2283,35812.260000517,00000077,-498,74,64174,-55,8,-603*90b82789
%RAWIMUSA,2283,35812.270;2283,35812.270000517,00000077,-499,120,64161,92,-10,-923*9d58c650
%RAWIMUSA,2283,35812.280;2283,35812.280000517,00000077,-501,11,64182,-73,0,128*cd37733c
%RAWIMUSA,2283,35812.290;2283,35812.290000517,00000077,-499,147,64158,9,0,932*3eec51cf
%RAWIMUSA,2283,35812.300;2283,35812.300000517,00000077,-498,52,64178,73,9,347*80cb9aec
%RAWIMUSA,2283,35812.310;2283,35812.310000517,00000077,-498,62,64177,-64,0,-923*89680671
%RAWIMUSA,2283,35812.320;2283,35812.320000517,00000077,-501,126,64161,73,-9,-813*03fce8c3
%RAWIMUSA,2283,35812.330;2283,35812.330000517,00000077,-503,12,64182,-64,-8,923*2db2e0a9
%RAWIMUSA,2283,35812.340;2283,35812.340000517,00000077,-496,130,64161,18,9,923*6b2f66a1
%RAWIMUSA,2283,35812.350;2283,35812.350000517,00000077,-502,57,64179,73,8,-539*b2524e8d
%RAWIMUSA,2283,35812.360;2283,35812.360000517,00000077,-502,64,64176,-83,-9,-914*19659585
%RAWIMUSA,2283,35812.370;2283,35812.370000517,00000077,-500,127,64158,83,-9,82*e0b888c3
%RAWIMUSA,2283,35812.380;2283,35812.380000517,00000077,-497,9,64185,-54,9,914*6c4a89c4
%RAWIMUSA,2283,35812.390;2283,35812.390000517,00000077,-498,132,64161,27,9,402*94e33e70
%RAWIMUSA,2283,35812.400;2283,35812.400000517,00000077,-504,55,64176,73,0,-914*d70bfd77
%RAWIMUSA,2283,35812.410;2283,35812.410000517,00000077,-502,52,64182,-101,-9,-859*9337e14f
%RAWIMUSA,2283,35812.420;2283,35812.420000517,00000077,-495,137,64161,74,-8,923*1c5a5207
%RAWIMUSA,2283,35812.430;2283,35812.430000517,00000077,-496,0,64184,-27,9,923*cd4d7f62
%RAWIMUSA,2283,35812.440;2283,35812.440000517,00000077,-503,130,64163,0,8,-502*e8a109b6
%RAWIMUSA,2283,35812.450;2283,35812.450000517,00000077,-503,75,64172,73,-10,-923*40131659
%RAWIMUSA,2283,35812.460;2283,35812.460000517,00000077,-493,38,64179,-110,-9,36*c0e24f39
%RAWIMUSA,2283,35812.470;2283,35812.470000517,00000077,-497,140,64156,83,9,914*a209fb8a
%RAWIMUSA,2283,35812.480;2283,35812.480000517,00000077,-505,11,64185,-8,9,457*0b694b90
%RAWIMUSA,2283,35812.490;2283,35812.490000517,00000077,-502,121,64166,-18,0,-914*3cf073b6
%RAWIMUSA,2283,35812.500;2283,35812.500000517,00000077,-495,75,64167,73,-10,-914*64873552
%RAWIMUSA,2283,35812.510;2283,35812.510000517,00000077,-496,29,64182,-110,0,923*38768b09
%RAWIMUSA,2283,35812.520;2283,35812.520000517,00000077,-509,153,64156,92,9,932*25ee394f
%RAWIMUSA,2283,35812.530;2283,35812.530000517,00000077,-502,17,64185,9,0,-447*0c305bf5
%RAWIMUSA,2283,35812.540;2283,35812.540000517,00000077,-491,103,64170,-46,0,-932*cfa079e5
%RAWIMUSA,2283,35812.550;2283,35812.550000517,00000077,-500,94,64165,73,-9,-27*2af83da8
%RAWIMUSA,2283,35812.560;2283,35812.560000517,00000077,-501,28,64187,-82,9,923*d780dbef
%RAWIMUSA,2283,35812.570;2283,35812.570000517,00000077,-501,150,64160,64,9,503*7fab72c2
%RAWIMUSA,2283,35812.580;2283,35812.580000517,00000077,-498,17,64175,18,0,-923*0c31f8f6
%RAWIMUSA,2283,35812.590;2283,35812.590000517,00000077,-501,89,64172,-64,-9,-923*1e36bc62
%RAWIMUSA,2283,35812.600;2283,35812.600000517,00000077,-498,113,64162,83,-8,887*c1772ff0
%RAWIMUSA,2283,35812.610;2283,35812.610000517,00000077,-501,16,64184,-64,9,923*2740c04c
%RAWIMUSA,2283,35812.620;2283,35812.620000517,00000077,-505,138,64163,55,8,-402*7d77ae87
%RAWIMUSA,2283,35812.630;2283,35812.630000517,00000077,-492,31,64177,18,-9,-914*60bde549
%RAWIMUSA,2283,35812.640;2283,35812.640000516,00000077,-499,92,64171,-82,-9,-63*a35ec9cf
%RAWIMUSA,2283,35812.650;2283,35812.650000516,00000077,-505,114,64163,101,9,932*00344a45
%RAWIMUSA,2283,35812.660;2283,35812.660000516,00000077,-491,0,64188,-55,9,539*33a96173
%RAWIMUSA,2283,35812.670;2283,35812.670000516,00000077,-493,137,64157,46,-10,-914*0a0bbddb
%RAWIMUSA,2283,35812.680;2283,35812.680000516,00000077,-506,50,64179,18,-9,-914*ce746a8a
%RAWIMUSA,2283,35812.690;2283,35812.690000516,00000077,-510,73,64175,-82,0,823*0bef14e0
%RAWIMUSA,2283,35812.700;2283,35812.700000516,00000077,-494,126,64157,110,9,923*685378ec
%RAWIMUSA,2283,35812.710;2283,35812.710000516,00000077,-495,0,64188,-36,0,-347*d97b3d26
%RAWIMUSA,2283,35812.720;2283,35812.720000516,00000077,-499,140,64159,-9,0,-923*ce2c9c7c
%RAWIMUSA,2283,35812.730;2283,35812.730000516,00000077,-510,62,64174,46,-9,-118*eedf492d
%RAWIMUSA,2283,35812.740;2283,35812.740000516,00000077,-502,54,64180,-82,9,914*2cccdd3d
%RAWIMUSA,2283,35812.750;2283,35812.750000516,00000077,-488,127,64159,110,9,603*9687d27a
%RAWIMUSA,2283,35812.760;2283,35812.760000516,00000077,-497,16,64180,-36,-9,-914*da64fff9
%RAWIMUSA,2283,35812.770;2283,35812.770000516,00000077,-513,138,64161,-18,0,-905*974fc35f
%RAWIMUSA,2283,35812.780;2283,35812.780000516,00000077,-501,51,64178,46,-8,768*86f90dd9
%RAWIMUSA,2283,35812.790;2283,35812.790000516,00000077,-483,54,64178,-64,9,923*248f9409
%RAWIMUSA,2283,35812.800;2283,35812.800000516,00000077,-501,143,64156,110,8,-301*10d89ae5
%RAWIMUSA,2283,35812.810;2283,35812.810000516,00000077,-514,16,64186,-55,-9,-914*b227591c
%RAWIMUSA,2283,35812.820;2283,35812.820000516,00000077,-499,118,64164,-27,-9,-173*154be165
%RAWIMUSA,2283,35812.830;2283,35812.830000516,00000077,-483,56,64172,83,9,932*19b867de
%RAWIMUSA,2283,35812.840;2283,35812.840000516,00000077,-498,59,64176,-73,9,649*7f5cb975
%RAWIMUSA,2283,35812.850;2283,35812.850000516,00000077,-514,144,64160,92,-10,-914*5ca0f676
%RAWIMUSA,2283,35812.860;2283,35812.860000516,00000077,-501,2,64184,-55,-9,-914*5db98ed1
%RAWIMUSA,2283,35812.870;2283,35812.870000516,00000077,-484,121,64164,-18,9,722*6084be64
%RAWIMUSA,2283,35812.880;2283,35812.880000516,00000077,-494,73,64174,92,9,932*02e09be9
%RAWIMUSA,2283,35812.890;2283,35812.890000516,00000077,-514,38,64179,-73,0,-246*153f8d56
%RAWIMUSA,2283,35812.900;2283,35812.900000516,00000077,-508,138,64154,64,-10,-914*02136781
%RAWIMUSA,2283,35812.910;2283,35812.910000516,00000077,-486,10,64185,-36,-9,-228*ffb7ba8c
%RAWIMUSA,2283,35812.920;2283,35812.920000516,00000077,-489,121,64166,-18,9,923*d2396b63
%RAWIMUSA,2283,35812.930;2283,35812.930000516,00000077,-512,84,64169,101,9,713*a498aa9f
%RAWIMUSA,2283,35812.940;2283,35812.940000516,00000077,-505,22,64181,-92,-9,-914*02703d64
%RAWIMUSA,2283,35812.950;2283,35812.950000516,00000077,-490,148,64159,55,-10,-914*b1c4eb7c
%RAWIMUSA,2283,35812.960;2283,35812.960000516,00000077,-494,22,64182,-8,9,658*fa7f5c77
%RAWIMUSA,2283,35812.970;2283,35812.970000516,00000077,-508,101,64167,-27,9,923*e103e101
%RAWIMUSA,2283,35812.980;2283,35812.980000516,00000077,-507,98,64165,110,0,-182*015e61a4
%RAWIMUSA,2283,35812.990;2283,35812.990000516,00000077,-492,25,64185,-101,-9,-914*8e4a810d
%RAWIMUSA,2283,35813.000;2283,35813.000000516,00000077,-489,148,64160,36,0,-265*ef83bc46
%RAWIMUSA,2283,35813.010;2283,35813.010000516,00000077,-509,21,64181,37,0,932*6ac6077a
%RAWIMUSA,2283,35813.020;2283,35813.020000516,00000077,-512,89,64168,-45,9,740*6a9fa7c6
%RAWIMUSA,2283,35813.030;2283,35813.030000516,00000077,-491,118,64164,101,-10,-914*de89e8fd
%RAWIMUSA,2283,35813.040;2283,35813.040000516,00000077,-491,11,64186,-92,0,-923*b410396e
%RAWIMUSA,2283,35813.050;2283,35813.050000516,00000077,-511,140,64159,27,0,631*1828e71d
%RAWIMUSA,2283,35813.060;2283,35813.060000516,00000077,-509,31,64176,55,9,914*0fc674c9
%RAWIMUSA,2283,35813.070;2283,35813.070000516,00000077,-490,82,64174,-55,0,-146*0152b486
%RAWIMUSA,2283,35813.080;2283,35813.080000516,00000077,-492,124,64164,82,-10,-914*8362fa75
%RAWIMUSA,2283,35813.090;2283,35813.090000516,00000077,-511,5,64184,-82,0,-319*c0c24cd9
%RAWIMUSA,2283,35813.100;2283,35813.100000516,00000077,-506,139,64158,37,9,932*0b8b7b75
%RAWIMUSA,2283,35813.110;2283,35813.110000516,00000077,-492,46,64176,64,0,795*6e219552
%RAWIMUSA,2283,35813.120;2283,35813.120000516,00000077,-492,65,64177,-83,-9,-905*410d9de5
%RAWIMUSA,2283,35813.130;2283,35813.130000516,00000077,-506,134,64161,82,-10,-914*d78e1c09
%RAWIMUSA,2283,35813.140;2283,35813.140000516,00000077,-508,2,64182,-64,18,566*77c0fb56
%RAWIMUSA,2283,35813.150;2283,35813.150000516,00000077,-494,133,64163,18,0,923*bbff5215
%RAWIMUSA,2283,35813.160;2283,35813.160000516,00000077,-486,61,64178,83,0,-100*2e0c37e4
%RAWIMUSA,2283,35813.170;2283,35813.170000516,00000077,-513,49,64176,-101,-9,-923*df22639d
%RAWIMUSA,2283,35813.180;2283,35813.180000516,00000077,-504,138,64159,73,0,-374*335472a7
%RAWIMUSA,2283,35813.190;2283,35813.190000516,00000077,-492,12,64183,-27,9,932*98488777
%RAWIMUSA,2283,35813.200;2283,35813.200000516,00000077,-499,126,64155,9,9,850*96319d8a
%RAWIMUSA,2283,35813.210;2283,35813.210000516,00000077,-512,69,64175,73,-19,-923*e394884e
%RAWIMUSA,2283,35813.220;2283,35813.220000516,00000077,-494,41,64177,-101,0,-914*18b492e0
%RAWIMUSA,2283,35813.230;2283,35813.230000516,00000077,-493,142,64156,74,0,530*6215b25d
%RAWIMUSA,2283,35813.240;2283,35813.240000516,00000077,-502,14,64185,0,19,923*32b7a9ef
%RAWIMUSA,2283,35813.250;2283,35813.250000516,00000077,-508,114,64165,-18,-9,-45*bbd3afd7
%RAWIMUSA,2283,35813.260;2283,35813.260000516,00000077,-499,90,64168,73,-10,-914*29a4304b
%RAWIMUSA,2283,35813.270;2283,35813.270000516,00000077,-491,29,64182,-101,0,-411*d7319981
%RAWIMUSA,2283,35813.280;2283,35813.280000516,00000077,-499,145,64157,74,9,914*124c3dc9
%RAWIMUSA,2283,35813.290;2283,35813.290000516,00000077,-501,17,64185,18,0,896*a3c1a646
%RAWIMUSA,2283,35813.300;2283,35813.300000516,00000077,-500,100,64166,-55,-9,-923*d55dc566
%RAWIMUSA,2283,35813.310;2283,35813.310000516,00000077,-495,104,64164,82,0,-914*7c2b9d3b
%RAWIMUSA,2283,35813.320;2283,35813.320000516,00000077,-500,17,64185,-82,9,475*7ec4e3bd
%RAWIMUSA,2283,35813.330;2283,35813.330000516,00000077,-504,148,64160,64,0,914*07665f67
%RAWIMUSA,2283,35813.340;2283,35813.340000516,00000077,-500,22,64179,37,0,0*ca18ef39
%RAWIMUSA,2283,35813.350;2283,35813.350000516,00000077,-496,85,64169,-83,-9,-923*1f0efacd
%RAWIMUSA,2283,35813.360;2283,35813.360000516,00000077,-503,114,64166,82,0,-466*3bbdf645
%RAWIMUSA,2283,35813.370;2283,35813.370000516,00000077,-502,13,64186,-54,9,905*74c673ac
%RAWIMUSA,2283,35813.380;2283,35813.380000516,00000077,-499,144,64158,46,9,932*36f97022
%RAWIMUSA,2283,35813.390;2283,35813.390000516,00000077,-496,36,64181,27,-19,-895*9ebb49dc
%RAWIMUSA,2283,35813.400;2283,35813.400000516,00000077,-500,70,64169,-83,8,-914*da68d94c
%RAWIMUSA,2283,35813.410;2283,35813.410000516,00000077,-503,119,64165,92,0,429*1717798f
%RAWIMUSA,2283,35813.420;2283,35813.420000516,00000077,-495,12,64186,-45,9,923*01dc13d1
%RAWIMUSA,2283,35813.430;2283,35813.430000516,00000077,-496,142,64157,46,-9,54*21b3ebf6
%RAWIMUSA,2283,35813.440;2283,35813.440000516,00000077,-504,42,64178,27,0,-914*836e3a91
%RAWIMUSA,2283,35813.450;2283,35813.450000516,00000077,-501,68,64177,-101,0,-521*7e0579bf
%RAWIMUSA,2283,35813.460;2283,35813.460000516,00000077,-498,125,64160,120,9,923*8059b8f0
%RAWIMUSA,2283,35813.470;2283,35813.470000516,00000077,-499,1,64186,-45,0,914*db18c195
%RAWIMUSA,2283,35813.480;2283,35813.480000516,00000077,-503,138,64160,0,0,-841*afb5c731
%RAWIMUSA,2283,35813.490;2283,35813.490000516,00000077,-500,65,64175,55,-10,-923*fa8d6358
%RAWIMUSA,2283,35813.500;2283,35813.500000516,00000077,-499,49,64182,-91,9,384*bcf2b75f
%RAWIMUSA,2283,35813.510;2283,35813.510000516,00000077,-499,136,64159,110,9,923*b6d969c1
%RAWIMUSA,2283,35813.520;2283,35813.520000516,00000077,-499,3,64185,-27,-9,91*ba95e9c1
%RAWIMUSA,2283,35813.530;2283,35813.530000516,00000077,-499,136,64165,-36,-9,-914*df119388
%RAWIMUSA,2283,35813.540;2283,35813.540000516,00000077,-496,75,64172,64,8,-575*62ffb7e4
%RAWIMUSA,2283,35813.550;2283,35813.550000516,00000077,-505,28,64179,-64,9,932*03d94d60
%RAWIMUSA,2283,35813.560;2283,35813.560000516,00000077,-501,142,64159,92,-8,914*78532708
%RAWIMUSA,2283,35813.570;2283,35813.570000516,00000077,-494,23,64183,-27,-9,-786*8b0622f7
%RAWIMUSA,2283,35813.580;2283,35813.580000516,00000077,-500,116,64166,-46,0,-923*63486124
%RAWIMUSA,2283,35813.590;2283,35813.590000516,00000077,-502,79,64167,92,9,329*712715c7
%RAWIMUSA,2283,35813.600;2283,35813.600000516,00000077,-498,30,64182,-73,9,914*1689c2fb
%RAWIMUSA,2283,35813.610;2283,35813.610000516,00000077,-494,150,64159,83,-9,155*8ca811d4
%RAWIMUSA,2283,35813.620;2283,35813.620000516,00000077,-502,15,64187,-27,-9,-914*dbad35ff
%RAWIMUSA,2283,35813.630;2283,35813.630000516,00000077,-504,97,64165,-55,8,-630*bb828cfd
%RAWIMUSA,2283,35813.640;2283,35813.640000516,00000077,-495,91,64165,110,9,932*f33f6895
%RAWIMUSA,2283,35813.650;2283,35813.650000516,00000077,-492,26,64183,-64,-8,923*0bfe809e
%RAWIMUSA,2283,35813.660;2283,35813.660000516,00000077,-508,152,64161,46,-9,-740*9721c0c7
%RAWIMUSA,2283,35813.670;2283,35813.670000516,00000077,-506,19,64182,-9,0,-923*36f08f69
%RAWIMUSA,2283,35813.680;2283,35813.680000516,00000077,-490,86,64168,-45,9,274*acaf23bf
%RAWIMUSA,2283,35813.690;2283,35813.690000516,00000077,-493,107,64162,110,9,932*fadc8fa7
%RAWIMUSA,2283,35813.700;2283,35813.700000516,00000077,-507,25,64186,-73,-9,201*0eca2271
%RAWIMUSA,2283,35813.710;2283,35813.710000516,00000077,-501,141,64161,27,-9,-905*62997433
%RAWIMUSA,2283,35813.720;2283,35813.720000516,00000077,-493,23,64177,9,8,-676*99fafb08
%RAWIMUSA,2283,35813.730;2283,35813.730000516,00000077,-499,87,64171,-45,9,923*61ae2e00
%RAWIMUSA,2283,35813.740;2283,35813.740000516,00000077,-508,118,64165,120,-8,923*71f78492
%RAWIMUSA,2283,35813.750;2283,35813.750000516,00000077,-497,17,64190,-82,-9,-694*e279240d
%RAWIMUSA,2283,35813.760;2283,35813.760000516,00000077,-497,134,64159,18,0,-905*30553d03
%RAWIMUSA,2283,35813.770;2283,35813.770000516,00000077,-496,46,64180,27,9,228*f37fc73d
%RAWIMUSA,2283,35813.780;2283,35813.780000516,00000077,-499,87,64173,-45,9,932*53f81779
%RAWIMUSA,2283,35813.790;2283,35813.790000516,00000077,-506,98,64158,101,-9,256*ebcadd61
%RAWIMUSA,2283,35813.800;2283,35813.800000516,00000077,-503,18,64188,-92,-9,-914*539b352d
%RAWIMUSA,2283,35813.810;2283,35813.810000516,00000077,-484,156,64154,36,8,-722*e9c750fb
%RAWIMUSA,2283,35813.820;2283,35813.820000516,00000077,-505,35,64179,37,9,932*d9cf2196
%RAWIMUSA,2283,35813.830;2283,35813.830000516,00000077,-511,74,64175,-45,-8,923*224b57d3
%RAWIMUSA,2283,35813.840;2283,35813.840000516,00000077,-502,108,64163,82,-9,-639*8dbb939b
%RAWIMUSA,2283,35813.850;2283,35813.850000516,00000077,-484,23,64187,-92,8,-914*9d12a209
%RAWIMUSA,2283,35813.860;2283,35813.860000516,00000077,-500,140,64159,46,9,173*098ba966
%RAWIMUSA,2283,35813.870;2283,35813.870000516,00000077,-511,30,64174,46,0,932*ae0d8f80
%RAWIMUSA,2283,35813.880;2283,35813.880000516,00000077,-501,80,64173,-55,-8,292*c0bd9f8c
%RAWIMUSA,2283,35813.890;2283,35813.890000516,00000077,-487,121,64162,82,-10,-914*b8ac817b
%RAWIMUSA,2283,35813.900;2283,35813.900000516,00000077,-498,8,64186,-73,8,-768*9437ae9f
%RAWIMUSA,2283,35813.910;2283,35813.910000516,00000077,-513,140,64156,37,9,914*bee18984
%RAWIMUSA,2283,35813.920;2283,35813.920000516,00000077,-501,41,64176,64,-8,923*f3aaede0
%RAWIMUSA,2283,35813.930;2283,35813.930000516,00000077,-493,68,64178,-92,0,-594*a14b878e
%RAWIMUSA,2283,35813.940;2283,35813.940000516,00000077,-496,139,64159,82,0,-914*0444c1ae
%RAWIMUSA,2283,35813.950;2283,35813.950000516,00000077,-507,2,64187,-45,9,118*25e786b8
%RAWIMUSA,2283,35813.960;2283,35813.960000516,00000077,-502,131,64161,18,0,923*18b2f0fa
%RAWIMUSA,2283,35813.970;2283,35813.970000516,00000077,-491,60,64172,64,-9,347*98ab9d5f
%RAWIMUSA,2283,35813.980;2283,35813.980000516,00000077,-497,52,64182,-101,0,-914*6a561cd4
%RAWIMUSA,2283,35813.990;2283,35813.990000516,00000077,-510,148,64155,73,8,-822*7e972b49
%RAWIMUSA,2283,35814.000;2283,35814.000000516,00000077,-503,-1,64185,-8,9,923*9ff7e9c5
%RAWIMUSA,2283,35814.010;2283,35814.010000516,00000077,-492,121,64164,-8,-8,932*09347aff
%RAWIMUSA,2283,35814.020;2283,35814.020000516,00000077,-495,89,64167,73,-9,-548*6de1a6dd
%RAWIMUSA,2283,35814.030;2283,35814.030000516,00000077,-509,27,64182,-110,8,-914*10552b6c
%RAWIMUSA,2283,35814.040;2283,35814.040000516,00000077,-497,140,64160,83,9,82*40edb904
%RAWIMUSA,2283,35814.050;2283,35814.050000516,00000077,-494,23,64184,18,-8,923*755b6487
%RAWIMUSA,2283,35814.060;2283,35814.060000516,00000077,-508,113,64169,-45,0,393*4c947e8a
%RAWIMUSA,2283,35814.070;2283,35814.070000516,00000077,-502,86,64165,73,-10,-905*e7f98528
%RAWIMUSA,2283,35814.080;2283,35814.080000516,00000077,-493,13,64183,-82,17,-877*a966b1d7
%RAWIMUSA,2283,35814.090;2283,35814.090000516,00000077,-499,150,64159,74,0,923*07bb21a5
%RAWIMUSA,2283,35814.100;2283,35814.100000516,00000077,-504,32,64183,28,-8,932*e2fc0b3a
%RAWIMUSA,2283,35814.110;2283,35814.110000516,00000077,-503,91,64171,-73,-9,-502*07ce8a58
%RAWIMUSA,2283,35814.120;2283,35814.120000516,00000077,-499,93,64161,82,8,-923*f992d58f
%RAWIMUSA,2283,35814.130;2283,35814.130000516,00000077,-498,13,64189,-64,9,36*f7682e2d
%RAWIMUSA,2283,35814.140;2283,35814.140000516,00000077,-503,157,64159,55,0,923*092c4d1d
%RAWIMUSA,2283,35814.150;2283,35814.150000516,00000077,-503,33,64176,27,-8,448*6cdb29d3
%RAWIMUSA,2283,35814.160;2283,35814.160000516,00000077,-500,69,64174,-92,0,-914*5d959e5c
%RAWIMUSA,2283,35814.170;2283,35814.170000516,00000077,-502,124,64165,101,8,-905*56cf1fc6
%RAWIMUSA,2283,35814.180;2283,35814.180000516,00000077,-499,14,64188,-45,0,923*fa1c6285
%RAWIMUSA,2283,35814.190;2283,35814.190000516,00000077,-501,138,64158,28,-8,914*dd6736eb
%RAWIMUSA,2283,35814.200;2283,35814.200000516,00000077,-500,36,64173,36,0,-438*c4219e5c
%RAWIMUSA,2283,35814.210;2283,35814.210000516,00000077,-501,69,64177,-92,8,-914*d5e5ebd3
%RAWIMUSA,2283,35814.220;2283,35814.220000516,00000077,-496,143,64160,110,9,-27*0a9e4608
%RAWIMUSA,2283,35814.230;2283,35814.230000516,00000077,-503,4,64183,-36,-8,923*1646111f
%RAWIMUSA,2283,35814.240;2283,35814.240000516,00000077,-502,124,64163,0,-8,512*eeaf60d9
%RAWIMUSA,2283,35814.250;2283,35814.250000516,00000077,-498,60,64171,46,0,-914*2d0b9bf7
%RAWIMUSA,2283,35814.260;2283,35814.260000516,00000077,-496,65,64179,-83,17,-923*5a8ad079
%RAWIMUSA,2283,35814.270;2283,35814.270000516,00000077,-505,133,64160,101,-8,868*0f3bee1c
%RAWIMUSA,2283,35814.280;2283,35814.280000516,00000077,-502,6,64185,-27,0,923*9fdaeaa1
