%RAWIMUSA,2283,34982.940;2283,34982.940000951,00000077,2,64183,-184,9,17,-850*4b48d403
%RAWIMUSA,2283,34982.950;2283,34982.950000951,00000077,-131,64158,-165,-18,-9,-237*72ccfdf4
%RAWIMUSA,2283,34982.960;2283,34982.960000951,00000077,-8,64175,-170,-8,0,887*6cb47d4f
%RAWIMUSA,2283,34982.970;2283,34982.970000951,00000077,-56,64175,-185,9,9,777*96a350b4
%RAWIMUSA,2283,34982.980;2283,34982.980000951,00000077,-129,64158,-177,18,8,-987*af5f5b17
%RAWIMUSA,2283,34982.990;2283,34982.990000951,00000077,26,64180,-162,0,0,-859*58a910c0
%RAWIMUSA,2283,34983.000;2283,34983.000000951,00000077,-109,64162,-170,-18,0,667*43b09fba
%RAWIMUSA,2283,34983.010;2283,34983.010000951,00000077,-51,64172,-185,0,0,868*a8aca372
%RAWIMUSA,2283,34983.020;2283,34983.020000951,00000077,-27,64178,-181,18,9,-118*ec299caa
%RAWIMUSA,2283,34983.030;2283,34983.030000951,00000077,-136,64163,-169,9,17,-960*d3bd1970
%RAWIMUSA,2283,34983.040;2283,34983.040000951,00000077,31,64177,-169,-18,-9,-255*602e31e0
%RAWIMUSA,2283,34983.050;2283,34983.050000951,00000077,-93,64171,-182,-18,-8,960*a0e6bc50
%RAWIMUSA,2283,34983.060;2283,34983.060000951,00000077,-105,64168,-179,18,9,667*a45cb72f
%RAWIMUSA,2283,34983.070;2283,34983.070000951,00000077,28,64179,-170,18,17,-832*d42591d3
%RAWIMUSA,2283,34983.080;2283,34983.080000951,00000077,-137,64160,-174,-9,0,-923*e6a87de8
%RAWIMUSA,2283,34983.090;2283,34983.090000951,00000077,-26,64176,-182,-18,0,585*bf8fc1fd
%RAWIMUSA,2283,34983.100;2283,34983.100000951,00000077,-44,64172,-175,0,0,987*9acc5377
%RAWIMUSA,2283,34983.110;2283,34983.110000951,00000077,-119,64162,-168,18,8,-210*22f8f8ff
%RAWIMUSA,2283,34983.120;2283,34983.120000951,00000077,21,64183,-179,9,17,-868*7a06c7fa
%RAWIMUSA,2283,34983.130;2283,34983.130000951,00000077,-124,64161,-185,-18,-9,-301*bdee222c
%RAWIMUSA,2283,34983.140;2283,34983.140000951,00000077,-65,64171,-175,-18,0,859*67694602
%RAWIMUSA,2283,34983.150;2283,34983.150000951,00000077,0,64179,-170,18,9,868*2641dcb7
%RAWIMUSA,2283,34983.160;2283,34983.160000951,00000077,-137,64161,-173,27,8,-950*3c2ac2db
%RAWIMUSA,2283,34983.170;2283,34983.170000951,00000077,5,64179,-180,-18,0,-914*74abff97
%RAWIMUSA,2283,34983.180;2283,34983.180000951,00000077,-83,64169,-181,-18,0,621*c20451a2
%RAWIMUSA,2283,34983.190;2283,34983.190000951,00000077,-104,64167,-172,9,0,841*3f8aaaca
%RAWIMUSA,2283,34983.200;2283,34983.200000951,00000077,31,64181,-171,18,18,-27*ad3d7889
%RAWIMUSA,2283,34983.210;2283,34983.210000951,00000077,-146,64162,-180,0,8,-923*b52f9a4b
%RAWIMUSA,2283,34983.220;2283,34983.220000951,00000077,-25,64174,-179,-18,-9,-402*8905c7f3
%RAWIMUSA,2283,34983.230;2283,34983.230000951,00000077,-30,64174,-173,-8,0,996*d01a994f
%RAWIMUSA,2283,34983.240;2283,34983.240000951,00000077,-130,64163,-173,18,9,768*fb52855e
%RAWIMUSA,2283,34983.250;2283,34983.250000951,00000077,16,64181,-174,18,8,-868*25a205af
%RAWIMUSA,2283,34983.260;2283,34983.260000951,00000077,-115,64164,-175,-18,0,-886*d2a61fe8
%RAWIMUSA,2283,34983.270;2283,34983.270000951,00000077,-64,64171,-177,-18,0,457*c136b907
%RAWIMUSA,2283,34983.280;2283,34983.280000951,00000077,8,64179,-176,9,0,996*b264d2be
%RAWIMUSA,2283,34983.290;2283,34983.290000951,00000077,-148,64157,-172,18,9,-91*e67a2bfc
%RAWIMUSA,2283,34983.300;2283,34983.300000951,00000077,2,64179,-172,0,8,-905*5189536f
%RAWIMUSA,2283,34983.310;2283,34983.310000951,00000077,-74,64168,-179,-18,-9,-365*fc9545a5
%RAWIMUSA,2283,34983.320;2283,34983.320000951,00000077,-96,64163,-179,-8,0,823*4d32efc4
%RAWIMUSA,2283,34983.330;2283,34983.330000951,00000077,7,64184,-171,18,19,978*a8568519
%RAWIMUSA,2283,34983.340;2283,34983.340000951,00000077,-147,64159,-175,18,8,-932*473735c8
%RAWIMUSA,2283,34983.350;2283,34983.350000951,00000077,-4,64177,-179,-18,-9,-932*06d69188
%RAWIMUSA,2283,34983.360;2283,34983.360000951,00000077,-48,64169,-176,-18,0,548*c058bd27
%RAWIMUSA,2283,34983.370;2283,34983.370000951,00000077,-132,64160,-170,9,9,832*69cf3aa0
%RAWIMUSA,2283,34983.380;2283,34983.380000951,00000077,22,64185,-174,18,9,45*40055aec
%RAWIMUSA,2283,34983.390;2283,34983.390000951,00000077,-116,64164,-181,0,8,-886*79c0fa8a
%RAWIMUSA,2283,34983.400;2283,34983.400000951,00000077,-48,64170,-180,-18,-9,-521*8280f769
%RAWIMUSA,2283,34983.410;2283,34983.410000951,00000077,-20,64179,-172,-8,0,987*a91f1e79
%RAWIMUSA,2283,34983.420;2283,34983.420000951,00000077,-134,64161,-176,18,9,859*ff013396
%RAWIMUSA,2283,34983.430;2283,34983.430000951,00000077,13,64179,-176,18,17,-868*34754f10
%RAWIMUSA,2283,34983.440;2283,34983.440000951,00000077,-90,64168,-176,-18,-9,-877*5e5ff5c4
%RAWIMUSA,2283,34983.450;2283,34983.450000951,00000077,-95,64166,-171,-18,0,347*aa0d64db
%RAWIMUSA,2283,34983.460;2283,34983.460000951,00000077,7,64182,-180,9,9,987*fcf80258
%RAWIMUSA,2283,34983.470;2283,34983.470000951,00000077,-128,64160,-182,9,9,27*148a182d
%RAWIMUSA,2283,34983.480;2283,34983.480000951,00000077,-4,64177,-173,0,8,-932*0a975191
%RAWIMUSA,2283,34983.490;2283,34983.490000951,00000077,-73,64172,-167,-18,-9,-438*da91d4ed
%RAWIMUSA,2283,34983.500;2283,34983.500000951,00000077,-127,64163,-175,0,0,841*233e9055
%RAWIMUSA,2283,34983.510;2283,34983.510000951,00000077,38,64183,-181,9,19,969*c7c1e999
%RAWIMUSA,2283,34983.520;2283,34983.520000951,00000077,-130,64162,-179,18,8,-831*b314d60e
%RAWIMUSA,2283,34983.530;2283,34983.530000951,00000077,-39,64174,-166,-18,-9,-950*30968cfe
%RAWIMUSA,2283,34983.540;2283,34983.540000951,00000077,-38,64170,-178,-18,0,438*74648bc7
%RAWIMUSA,2283,34983.550;2283,34983.550000951,00000077,-132,64160,-186,9,9,841*2e6b24c9
%RAWIMUSA,2283,34983.560;2283,34983.560000951,00000077,33,64189,-169,18,9,155*780062b2
%RAWIMUSA,2283,34983.570;2283,34983.570000951,00000077,-129,64162,-166,0,0,-886*b110f55d
%RAWIMUSA,2283,34983.580;2283,34983.580000951,00000077,-49,64169,-178,-18,0,-630*96f8c17e
%RAWIMUSA,2283,34983.590;2283,34983.590000951,00000077,-2,64181,-188,-8,0,1015*b8b331d7
%RAWIMUSA,2283,34983.600;2283,34983.600000951,00000077,-149,64155,-171,18,9,841*d75fa99b
%RAWIMUSA,2283,34983.610;2283,34983.610000951,00000077,16,64185,-162,9,8,-749*6b088a52
%RAWIMUSA,2283,34983.620;2283,34983.620000951,00000077,-111,64168,-175,-9,0,-877*95ad5cde
%RAWIMUSA,2283,34983.630;2283,34983.630000951,00000077,-65,64169,-187,-18,-9,256*b070e770
%RAWIMUSA,2283,34983.640;2283,34983.640000951,00000077,15,64181,-175,9,19,996*74cc672a
%RAWIMUSA,2283,34983.650;2283,34983.650000951,00000077,-156,64160,-159,18,9,100*f3617945
%RAWIMUSA,2283,34983.660;2283,34983.660000951,00000077,17,64182,-178,-9,0,-896*555d9634
%RAWIMUSA,2283,34983.670;2283,34983.670000951,00000077,-90,64164,-186,-9,0,-557*ba2f5492
%RAWIMUSA,2283,34983.680;2283,34983.680000951,00000077,-84,64172,-176,-8,0,832*f5b39e22
%RAWIMUSA,2283,34983.690;2283,34983.690000951,00000077,9,64178,-159,18,9,987*69173bb5
%RAWIMUSA,2283,34983.700;2283,34983.700000951,00000077,-150,64159,-173,9,8,-767*2e0ddbfa
%RAWIMUSA,2283,34983.710;2283,34983.710000951,00000077,8,64184,-187,-18,0,-923*b938252a
%RAWIMUSA,2283,34983.720;2283,34983.720000951,00000077,-77,64167,-178,-18,-8,329*65efef46
%RAWIMUSA,2283,34983.730;2283,34983.730000951,00000077,-105,64164,-163,18,9,832*23e5947b
%RAWIMUSA,2283,34983.740;2283,34983.740000951,00000077,22,64185,-178,18,18,292*760b832d
%RAWIMUSA,2283,34983.750;2283,34983.750000951,00000077,-160,64158,-179,-9,0,-941*0c7a26b9
%RAWIMUSA,2283,34983.760;2283,34983.760000951,00000077,11,64181,-173,-18,0,-685*ed7f54a5
%RAWIMUSA,2283,34983.770;2283,34983.770000951,00000077,-66,64172,-176,0,0,987*c9e0f393
%RAWIMUSA,2283,34983.780;2283,34983.780000951,00000077,-125,64159,-178,9,9,813*b983aa46
%RAWIMUSA,2283,34983.790;2283,34983.790000951,00000077,29,64187,-178,9,8,-603*a1a98cc1
%RAWIMUSA,2283,34983.800;2283,34983.800000951,00000077,-141,64159,-176,-9,0,-923*2c787e46
%RAWIMUSA,2283,34983.810;2283,34983.810000951,00000077,-8,64174,-177,-18,-9,182*524e3688
%RAWIMUSA,2283,34983.820;2283,34983.820000951,00000077,-48,64175,-179,9,19,996*76c89ed4
%RAWIMUSA,2283,34983.830;2283,34983.830000951,00000077,-128,64158,-174,18,9,173*b938e142
%RAWIMUSA,2283,34983.840;2283,34983.840000951,00000077,30,64186,-175,-9,0,-850*5851cca0
%RAWIMUSA,2283,34983.850;2283,34983.850000951,00000077,-144,64161,-169,-9,-9,-722*52a3eb7e
%RAWIMUSA,2283,34983.860;2283,34983.860000951,00000077,-15,64177,-176,-8,9,868*193fc1b7
%RAWIMUSA,2283,34983.870;2283,34983.870000951,00000077,-40,64171,-181,18,9,1015*8017edc2
%RAWIMUSA,2283,34983.880;2283,34983.880000951,00000077,-137,64163,-172,9,8,-722*035c16bc
%RAWIMUSA,2283,34983.890;2283,34983.890000951,00000077,38,64182,-164,-18,-9,-859*f5fc0700
%RAWIMUSA,2283,34983.900;2283,34983.900000951,00000077,-134,64158,-179,-18,0,173*3514907f
%RAWIMUSA,2283,34983.910;2283,34983.910000951,00000077,-49,64176,-187,18,9,859*cbcfec90
%RAWIMUSA,2283,34983.920;2283,34983.920000951,00000077,-10,64177,-173,18,18,393*a574bbd1
%RAWIMUSA,2283,34983.930;2283,34983.930000951,00000077,-147,64154,-162,-9,-10,-978*fd63b984
%RAWIMUSA,2283,34983.940;2283,34983.940000951,00000077,35,64187,-180,-18,-9,-758*4b150387
%RAWIMUSA,2283,34983.950;2283,34983.950000951,00000077,-120,64163,-185,0,9,951*f4c1211c
%RAWIMUSA,2283,34983.960;2283,34983.960000951,00000077,-73,64172,-170,18,9,850*141bf922
%RAWIMUSA,2283,34983.970;2283,34983.970000951,00000077,10,64177,-164,9,8,-493*1cc44b37
%RAWIMUSA,2283,34983.980;2283,34983.980000951,00000077,-149,64152,-181,-18,-9,-960*1e9fce68
%RAWIMUSA,2283,34983.990;2283,34983.990000951,00000077,13,64187,-186,-18,0,128*430f55ee
%RAWIMUSA,2283,34984.000;2283,34984.000000951,00000077,-92,64168,-168,18,19,969*6362e0e7
%RAWIMUSA,2283,34984.010;2283,34984.010000951,00000077,-90,64164,-166,18,0,274*126469bd
%RAWIMUSA,2283,34984.020;2283,34984.020000951,00000077,20,64184,-180,-9,0,-831*e900b7ec
%RAWIMUSA,2283,34984.030;2283,34984.030000951,00000077,-163,64157,-187,-18,0,-841*784356b6
%RAWIMUSA,2283,34984.040;2283,34984.040000951,00000077,12,64181,-164,0,9,896*2e9db09d
%RAWIMUSA,2283,34984.050;2283,34984.050000951,00000077,-68,64171,-168,18,9,987*1716a69d
%RAWIMUSA,2283,34984.060;2283,34984.060000951,00000077,-117,64160,-183,9,0,-630*1e8573eb
%RAWIMUSA,2283,34984.070;2283,34984.070000951,00000077,26,64189,-184,-18,0,-822*452188be
%RAWIMUSA,2283,34984.080;2283,34984.080000951,00000077,-152,64154,-167,-9,0,54*ac94c59e
%RAWIMUSA,2283,34984.090;2283,34984.090000951,00000077,0,64181,-167,18,9,877*29bc8706
%RAWIMUSA,2283,34984.100;2283,34984.100000951,00000077,-49,64173,-186,18,9,484*ff8d50e8
%RAWIMUSA,2283,34984.110;2283,34984.110000951,00000077,-130,64162,-180,-18,-10,-996*ced58726
%RAWIMUSA,2283,34984.120;2283,34984.120000951,00000077,29,64187,-166,-18,0,-795*2d8dcdd3
%RAWIMUSA,2283,34984.130;2283,34984.130000951,00000077,-136,64159,-166,9,9,905*6ba8e694
%RAWIMUSA,2283,34984.140;2283,34984.140000951,00000077,-16,64180,-182,18,9,877*190e3074
%RAWIMUSA,2283,34984.150;2283,34984.150000951,00000077,-48,64173,-184,0,0,-393*486b3634
%RAWIMUSA,2283,34984.160;2283,34984.160000951,00000077,-125,64156,-170,-18,0,-996*fe09a7ee
%RAWIMUSA,2283,34984.170;2283,34984.170000951,00000077,36,64188,-166,-9,0,82*baa22a0e
%RAWIMUSA,2283,34984.180;2283,34984.180000951,00000077,-147,64157,-178,18,9,905*1a8a6bdd
%RAWIMUSA,2283,34984.190;2283,34984.190000950,00000077,-22,64181,-180,9,9,402*78c0b914
%RAWIMUSA,2283,34984.200;2283,34984.200000950,00000077,-38,64175,-172,-9,0,-822*954d8c33
%RAWIMUSA,2283,34984.210;2283,34984.210000950,00000077,-128,64158,-168,-18,-10,-996*fd0ad22c
%RAWIMUSA,2283,34984.220;2283,34984.220000950,00000077,33,64186,-179,0,19,969*cbb0ea4c
%RAWIMUSA,2283,34984.230;2283,34984.230000950,00000077,-148,64156,-183,18,9,914*ee8a77c5
%RAWIMUSA,2283,34984.240;2283,34984.240000950,00000077,-39,64173,-173,9,0,-493*19884664
%RAWIMUSA,2283,34984.250;2283,34984.250000950,00000077,-12,64178,-166,-18,-9,-813*ae72c922
%RAWIMUSA,2283,34984.260;2283,34984.260000950,00000077,-144,64155,-177,-9,9,-109*bd4c71be
%RAWIMUSA,2283,34984.270;2283,34984.270000950,00000077,28,64187,-183,18,9,951*af1866c1
%RAWIMUSA,2283,34984.280;2283,34984.280000950,00000077,-124,64161,-175,9,9,521*c7f6424b
%RAWIMUSA,2283,34984.290;2283,34984.290000950,00000077,-55,64173,-168,-9,-10,-978*aadf3d7a
%RAWIMUSA,2283,34984.300;2283,34984.300000950,00000077,-1,64181,-179,-18,0,-813*effa2db0
%RAWIMUSA,2283,34984.310;2283,34984.310000950,00000077,-161,64159,-180,9,9,786*8df3826d
%RAWIMUSA,2283,34984.320;2283,34984.320000950,00000077,34,64184,-173,18,9,951*2df4bccd
%RAWIMUSA,2283,34984.330;2283,34984.330000950,00000077,-98,64160,-174,0,0,-347*f8c6a91a
%RAWIMUSA,2283,34984.340;2283,34984.340000950,00000077,-87,64169,-178,-18,-10,-996*b47209db
%RAWIMUSA,2283,34984.350;2283,34984.350000950,00000077,5,64180,-178,-9,9,27*210a86bf
%RAWIMUSA,2283,34984.360;2283,34984.360000950,00000077,-158,64157,-175,18,18,859*6a022520
%RAWIMUSA,2283,34984.370;2283,34984.370000950,00000077,30,64182,-169,18,0,557*f3fab365
%RAWIMUSA,2283,34984.380;2283,34984.380000950,00000077,-84,64167,-179,-18,0,-850*fb672b71
%RAWIMUSA,2283,34984.390;2283,34984.390000950,00000077,-108,64162,-183,-18,-10,-987*39efb3c7
%RAWIMUSA,2283,34984.400;2283,34984.400000950,00000077,24,64183,-171,9,18,887*5e9aeb96
%RAWIMUSA,2283,34984.410;2283,34984.410000950,00000077,-150,64158,-168,18,9,868*582dde09
%RAWIMUSA,2283,34984.420;2283,34984.420000950,00000077,8,64182,-179,0,-9,-347*a10cde9d
%RAWIMUSA,2283,34984.430;2283,34984.430000950,00000077,-78,64172,-184,-18,0,-841*bf3f3b2c
%RAWIMUSA,2283,34984.440;2283,34984.440000950,00000077,-106,64158,-175,-9,0,-219*b5b4451e
%RAWIMUSA,2283,34984.450;2283,34984.450000950,00000077,34,64185,-162,18,19,996*0352bcfd
%RAWIMUSA,2283,34984.460;2283,34984.460000950,00000077,-161,64161,-176,9,0,567*f5d25097
%RAWIMUSA,2283,34984.470;2283,34984.470000950,00000077,-9,64179,-182,-9,-9,-941*42108f9c
%RAWIMUSA,2283,34984.480;2283,34984.480000950,00000077,-50,64175,-175,-18,8,-832*b83bd4fc
%RAWIMUSA,2283,34984.490;2283,34984.490000950,00000077,-124,64161,-170,9,9,676*ba3fa073
%RAWIMUSA,2283,34984.500;2283,34984.500000950,00000077,30,64186,-178,18,9,987*a2c56c70
%RAWIMUSA,2283,34984.510;2283,34984.510000950,00000077,-148,64156,-181,-9,0,-283*d461f159
%RAWIMUSA,2283,34984.520;2283,34984.520000950,00000077,-24,64178,-173,-18,-9,-950*81c1417d
%RAWIMUSA,2283,34984.530;2283,34984.530000950,00000077,-29,64181,-168,0,9,-82*b11dbd68
%RAWIMUSA,2283,34984.540;2283,34984.540000950,00000077,-136,64156,-179,18,18,823*0c1c2eae
%RAWIMUSA,2283,34984.550;2283,34984.550000950,00000077,28,64184,-185,9,0,704*48a16b5a
%RAWIMUSA,2283,34984.560;2283,34984.560000950,00000077,-127,64160,-173,-18,-9,-886*ecfeae19
%RAWIMUSA,2283,34984.570;2283,34984.570000950,00000077,-44,64171,-164,-9,0,-969*e87f5ea1
%RAWIMUSA,2283,34984.580;2283,34984.580000950,00000077,-12,64182,-175,9,18,804*c8253432
%RAWIMUSA,2283,34984.590;2283,34984.590000950,00000077,-148,64160,-183,18,9,841*acd39fe2
%RAWIMUSA,2283,34984.600;2283,34984.600000950,00000077,33,64185,-178,-9,-9,-201*f5ce8aec
%RAWIMUSA,2283,34984.610;2283,34984.610000950,00000077,-107,64162,-166,-9,0,-886*f757aef8
%RAWIMUSA,2283,34984.620;2283,34984.620000950,00000077,-64,64172,-175,-9,8,-292*a2760f07
%RAWIMUSA,2283,34984.630;2283,34984.630000950,00000077,-4,64180,-183,18,9,1005*e444b426
%RAWIMUSA,2283,34984.640;2283,34984.640000950,00000077,-151,64157,-180,9,0,640*d355333c
%RAWIMUSA,2283,34984.650;2283,34984.650000950,00000077,31,64183,-167,-18,0,-896*a243c211
%RAWIMUSA,2283,34984.660;2283,34984.660000950,00000077,-102,64164,-173,-18,0,-859*603e35a7
%RAWIMUSA,2283,34984.670;2283,34984.670000950,00000077,-91,64164,-181,18,9,585*9243298e
%RAWIMUSA,2283,34984.680;2283,34984.680000950,00000077,25,64185,-179,9,19,1005*2f7a7669
%RAWIMUSA,2283,34984.690;2283,34984.690000950,00000077,-157,64155,-170,0,-9,-237*ae64a7bc
%RAWIMUSA,2283,34984.700;2283,34984.700000950,00000077,10,64181,-171,-18,0,-914*1e107672
%RAWIMUSA,2283,34984.710;2283,34984.710000950,00000077,-86,64167,-182,0,8,-210*8cee930b
%RAWIMUSA,2283,34984.720;2283,34984.720000950,00000077,-99,64162,-181,9,9,832*1d3b51c2
%RAWIMUSA,2283,34984.730;2283,34984.730000950,00000077,30,64184,-167,18,0,823*b75a186c
%RAWIMUSA,2283,34984.740;2283,34984.740000950,00000077,-169,64157,-171,-18,0,-941*0af70b34
%RAWIMUSA,2283,34984.750;2283,34984.750000950,00000077,0,64179,-180,-18,0,-923*7eff6e2d
%RAWIMUSA,2283,34984.760;2283,34984.760000950,00000077,-63,64175,-180,9,9,685*e2f7f544
%RAWIMUSA,2283,34984.770;2283,34984.770000950,00000077,-105,64160,-173,18,9,823*87e21e24
%RAWIMUSA,2283,34984.780;2283,34984.780000950,00000077,32,64188,-173,0,-9,-54*7116dea1
%RAWIMUSA,2283,34984.790;2283,34984.790000950,00000077,-163,64160,-181,-18,0,-932*3fc3035f
%RAWIMUSA,2283,34984.800;2283,34984.800000950,00000077,-3,64178,-177,0,8,-356*6548305c
%RAWIMUSA,2283,34984.810;2283,34984.810000950,00000077,-48,64169,-170,18,19,996*ef64b0e1
%RAWIMUSA,2283,34984.820;2283,34984.820000950,00000077,-128,64157,-178,9,-8,722*fc9d1407
%RAWIMUSA,2283,34984.830;2283,34984.830000950,00000077,29,64187,-180,-18,0,-841*94b7ea80
%RAWIMUSA,2283,34984.840;2283,34984.840000950,00000077,-135,64156,-175,-18,0,-914*52eaae9d
%RAWIMUSA,2283,34984.850;2283,34984.850000950,00000077,-24,64179,-168,18,18,512*319cdfdc
%RAWIMUSA,2283,34984.860;2283,34984.860000950,00000077,-39,64176,-174,18,0,1005*2b4fab29
%RAWIMUSA,2283,34984.870;2283,34984.870000950,00000077,-132,64158,-183,-18,0,-164*29c43fba
%RAWIMUSA,2283,34984.880;2283,34984.880000950,00000077,38,64188,-176,-9,0,-859*b75926ce
%RAWIMUSA,2283,34984.890;2283,34984.890000950,00000077,-129,64160,-164,0,8,-374*25a06eff
%RAWIMUSA,2283,34984.900;2283,34984.900000950,00000077,-32,64175,-171,18,9,868*e106b010
%RAWIMUSA,2283,34984.910;2283,34984.910000950,00000077,-44,64179,-184,9,0,923*00d5131c
%RAWIMUSA,2283,34984.920;2283,34984.920000950,00000077,-125,64158,-182,-18,-10,-987*2f165f30
%RAWIMUSA,2283,34984.930;2283,34984.930000950,00000077,27,64182,-166,-18,8,-868*32dc3f23
%RAWIMUSA,2283,34984.940;2283,34984.940000950,00000077,-141,64160,-166,18,9,512*e9764cf2
%RAWIMUSA,2283,34984.950;2283,34984.950000950,00000077,-34,64170,-183,18,0,859*77e1acae
%RAWIMUSA,2283,34984.960;2283,34984.960000950,00000077,-25,64179,-185,-9,9,54*595647dc
%RAWIMUSA,2283,34984.970;2283,34984.970000950,00000077,-144,64159,-167,-27,-9,-987*eae31953
%RAWIMUSA,2283,34984.980;2283,34984.980000950,00000077,28,64184,-167,9,8,-383*da4ef577
%RAWIMUSA,2283,34984.990;2283,34984.990000950,00000077,-123,64165,-182,18,9,932*d2f518e8
%RAWIMUSA,2283,34985.000;2283,34985.000000950,00000077,-50,64172,-180,0,0,841*5bf9a189
%RAWIMUSA,2283,34985.010;2283,34985.010000950,00000077,-5,64177,-173,-18,-9,-813*92ca2ac2
%RAWIMUSA,2283,34985.020;2283,34985.020000950,00000077,-161,64156,-171,-18,8,-978*79a8fc6d
%RAWIMUSA,2283,34985.030;2283,34985.030000950,00000077,26,64188,-177,18,9,493*9d003679
%RAWIMUSA,2283,34985.040;2283,34985.040000950,00000077,-105,64167,-180,18,9,951*9d0e7623
%RAWIMUSA,2283,34985.050;2283,34985.050000950,00000077,-71,64165,-174,-9,-9,-54*07f300a9
%RAWIMUSA,2283,34985.060;2283,34985.060000950,00000077,9,64183,-177,-18,8,-832*ed8b7aa5
%RAWIMUSA,2283,34985.070;2283,34985.070000950,00000077,-159,64156,-173,9,0,-530*142f2145
%RAWIMUSA,2283,34985.080;2283,34985.080000950,00000077,24,64182,-177,9,9,932*a92a19da
%RAWIMUSA,2283,34985.090;2283,34985.090000950,00000077,-87,64166,-177,9,0,969*b3be10c3
%RAWIMUSA,2283,34985.100;2283,34985.100000950,00000077,-103,64165,-175,-18,-9,-960*ee5e46d6
%RAWIMUSA,2283,34985.110;2283,34985.110000950,00000077,40,64184,-173,-18,17,-832*9e46468c
%RAWIMUSA,2283,34985.120;2283,34985.120000950,00000077,-155,64159,-178,18,9,384*741d9494
%RAWIMUSA,2283,34985.130;2283,34985.130000950,00000077,1,64179,-176,18,0,877*9bf855d8
%RAWIMUSA,2283,34985.140;2283,34985.140000950,00000077,-53,64170,-177,-9,-9,146*f646cf0f
%RAWIMUSA,2283,34985.150;2283,34985.150000950,00000077,-138,64160,-175,-18,0,-996*ab956d6d
%RAWIMUSA,2283,34985.160;2283,34985.160000950,00000077,44,64187,-177,0,27,-466*3da88623
%RAWIMUSA,2283,34985.170;2283,34985.170000950,00000077,-132,64160,-174,18,9,914*c49533a1
%RAWIMUSA,2283,34985.180;2283,34985.180000950,00000077,-34,64177,-176,0,-17,859*87c3a9ff
%RAWIMUSA,2283,34985.190;2283,34985.190000950,00000077,-33,64175,-177,-9,0,-731*e509d091
%RAWIMUSA,2283,34985.200;2283,34985.200000950,00000077,-142,64156,-174,-18,8,-996*63ad4866
%RAWIMUSA,2283,34985.210;2283,34985.210000950,00000077,34,64185,-176,27,9,402*52a9f261
%RAWIMUSA,2283,34985.220;2283,34985.220000950,00000077,-125,64162,-174,9,0,923*914f8d26
%RAWIMUSA,2283,34985.230;2283,34985.230000950,00000077,-63,64173,-176,-9,0,36*cc5b3c8e
%RAWIMUSA,2283,34985.240;2283,34985.240000950,00000077,11,64180,-177,-18,8,-813*4611651c
%RAWIMUSA,2283,34985.250;2283,34985.250000950,00000077,-166,64157,-177,9,8,-621*e2a51cdf
%RAWIMUSA,2283,34985.260;2283,34985.260000950,00000077,23,64186,-172,9,0,914*6183440c
%RAWIMUSA,2283,34985.270;2283,34985.270000950,00000077,-84,64168,-173,0,9,978*64efab13
%RAWIMUSA,2283,34985.280;2283,34985.280000950,00000077,-107,64164,-178,-9,0,-868*a3b8b475
%RAWIMUSA,2283,34985.290;2283,34985.290000950,00000077,39,64186,-179,-9,8,-822*f5b73f66
%RAWIMUSA,2283,34985.300;2283,34985.300000950,00000077,-155,64154,-175,9,9,283*74210dcf
%RAWIMUSA,2283,34985.310;2283,34985.310000950,00000077,-10,64181,-171,18,-8,887*09848334
%RAWIMUSA,2283,34985.320;2283,34985.320000950,00000077,-52,64176,-175,-18,0,246*56cdde61
%RAWIMUSA,2283,34985.330;2283,34985.330000950,00000077,-121,64153,-182,-9,0,-996*58dbff8c
%RAWIMUSA,2283,34985.340;2283,34985.340000950,00000077,38,64194,-180,9,17,-557*03b25092
%RAWIMUSA,2283,34985.350;2283,34985.350000950,00000077,-138,64162,-171,9,9,896*7192bc53
%RAWIMUSA,2283,34985.360;2283,34985.360000950,00000077,-26,64169,-173,0,0,877*16b08314
%RAWIMUSA,2283,34985.370;2283,34985.370000950,00000077,-39,64179,-176,-9,-9,-639*9cc461e9
%RAWIMUSA,2283,34985.380;2283,34985.380000950,00000077,-133,64162,-175,-9,8,-978*a617de23
%RAWIMUSA,2283,34985.390;2283,34985.390000950,00000077,23,64182,-172,18,18,310*f2afcc61
%RAWIMUSA,2283,34985.400;2283,34985.400000950,00000077,-133,64161,-175,9,-8,923*aeea2e08
%RAWIMUSA,2283,34985.410;2283,34985.410000950,00000077,-28,64176,-178,-18,0,173*1518ee9a
%RAWIMUSA,2283,34985.420;2283,34985.420000950,00000077,-29,64176,-179,-18,17,-832*0d588495
%RAWIMUSA,2283,34985.430;2283,34985.430000950,00000077,-141,64158,-175,9,0,-749*4f0c6b87
%RAWIMUSA,2283,34985.440;2283,34985.440000950,00000077,29,64189,-174,18,9,960*e14fece7
%RAWIMUSA,2283,34985.450;2283,34985.450000950,00000077,-121,64162,-172,0,-8,951*22ead014
%RAWIMUSA,2283,34985.460;2283,34985.460000950,00000077,-53,64174,-175,-18,0,-749*36bda601
%RAWIMUSA,2283,34985.470;2283,34985.470000950,00000077,-7,64177,-177,-9,17,-813*301e2a24
%RAWIMUSA,2283,34985.480;2283,34985.480000950,00000077,-148,64155,-179,18,18,146*a9aad32b
%RAWIMUSA,2283,34985.490;2283,34985.490000950,00000077,26,64184,-175,18,-8,941*2a656917
%RAWIMUSA,2283,34985.500;2283,34985.500000950,00000077,-112,64167,-177,-18,-9,301*550f4644
%RAWIMUSA,2283,34985.510;2283,34985.510000950,00000077,-74,64165,-175,-18,8,-996*505d9032
%RAWIMUSA,2283,34985.520;2283,34985.520000950,00000077,14,64181,-171,9,17,-630*fc4e16aa
%RAWIMUSA,2283,34985.530;2283,34985.530000950,00000077,-162,64155,-178,18,9,868*74d72b06
%RAWIMUSA,2283,34985.540;2283,34985.540000950,00000077,23,64182,-181,0,-8,914*9ff5ee6e
%RAWIMUSA,2283,34985.550;2283,34985.550000950,00000077,-82,64172,-177,-18,0,-566*28fb3fd2
%RAWIMUSA,2283,34985.560;2283,34985.560000950,00000077,-116,64159,-172,-9,8,-996*4b3dc822
%RAWIMUSA,2283,34985.570;2283,34985.570000950,00000077,39,64187,-175,18,9,237*a2aa93a5
%RAWIMUSA,2283,34985.580;2283,34985.580000950,00000077,-148,64156,-178,9,0,896*c6247065
%RAWIMUSA,2283,34985.590;2283,34985.590000950,00000077,-7,64179,-177,-18,0,274*0e1c0c8e
%RAWIMUSA,2283,34985.600;2283,34985.600000950,00000077,-57,64174,-177,-18,8,-832*4f747f44
%RAWIMUSA,2283,34985.610;2283,34985.610000950,00000077,-125,64157,-174,18,8,-859*9383414b
%RAWIMUSA,2283,34985.620;2283,34985.620000950,00000077,36,64183,-174,18,0,969*00b56b17
%RAWIMUSA,2283,34985.630;2283,34985.630000950,00000077,-141,64159,-173,-8,-8,905*71c817fa
%RAWIMUSA,2283,34985.640;2283,34985.640000950,00000077,-35,64173,-174,-9,0,-630*f4e090bb
%RAWIMUSA,2283,34985.650;2283,34985.650000950,00000077,-27,64178,-182,-9,17,-822*c34d7ddc
%RAWIMUSA,2283,34985.660;2283,34985.660000950,00000077,-141,64157,-173,18,9,36*29f52c44
%RAWIMUSA,2283,34985.670;2283,34985.670000950,00000077,34,64185,-176,9,0,969*18c3d22c
%RAWIMUSA,2283,34985.680;2283,34985.680000950,00000077,-124,64163,-176,-18,-8,384*40d9ac9f
%RAWIMUSA,2283,34985.690;2283,34985.690000950,00000077,-58,64171,-175,-18,0,-987*3c9d21e9
%RAWIMUSA,2283,34985.700;2283,34985.700000950,00000077,0,64176,-175,18,17,-722*def578a4
%RAWIMUSA,2283,34985.710;2283,34985.710000950,00000077,-154,64160,-174,18,0,832*98ad4fd8
%RAWIMUSA,2283,34985.720;2283,34985.720000950,00000077,16,64183,-167,-8,0,932*306f4c8b
%RAWIMUSA,2283,34985.730;2283,34985.730000950,00000077,-95,64168,-181,-18,8,-475*0de53fc1
%RAWIMUSA,2283,34985.740;2283,34985.740000950,00000077,-82,64165,-190,0,8,-996*080b56bf
%RAWIMUSA,2283,34985.750;2283,34985.750000950,00000077,22,64183,-171,18,0,164*725a847c
%RAWIMUSA,2283,34985.760;2283,34985.760000950,00000077,-160,64157,-161,9,-8,877*1306eefc
%RAWIMUSA,2283,34985.770;2283,34985.770000950,00000077,5,64181,-176,-8,0,393*087e9d81
%RAWIMUSA,2283,34985.780;2283,34985.780000950,00000077,-63,64175,-193,-18,8,-822*5da84ce1
%RAWIMUSA,2283,34985.790;2283,34985.790000950,00000077,-112,64161,-175,9,17,-969*f260b6a3
%RAWIMUSA,2283,34985.800;2283,34985.800000950,00000077,37,64185,-158,18,0,987*d64d2211
%RAWIMUSA,2283,34985.810;2283,34985.810000950,00000077,-149,64156,-174,-8,-8,896*1b615c27
%RAWIMUSA,2283,34985.820;2283,34985.820000950,00000077,-17,64176,-194,-9,0,-511*82ed4f19
%RAWIMUSA,2283,34985.830;2283,34985.830000950,00000077,-44,64174,-176,-9,17,-832*a781dbeb
%RAWIMUSA,2283,34985.840;2283,34985.840000950,00000077,-128,64159,-161,18,0,-63*df3b4d3d
%RAWIMUSA,2283,34985.850;2283,34985.850000950,00000077,28,64190,-171,9,0,978*d53c25b2
%RAWIMUSA,2283,34985.860;2283,34985.860000950,00000077,-132,64161,-185,-18,0,448*fd4ad32d
%RAWIMUSA,2283,34985.870;2283,34985.870000950,00000077,-27,64173,-187,-18,8,-969*955c25df
%RAWIMUSA,2283,34985.880;2283,34985.880000950,00000077,-36,64173,-171,18,8,-822*2e07f404
%RAWIMUSA,2283,34985.890;2283,34985.890000950,00000077,-153,64156,-163,18,0,823*3472ee21
%RAWIMUSA,2283,34985.900;2283,34985.900000950,00000077,36,64189,-178,-8,0,960*8a7fae95
%RAWIMUSA,2283,34985.910;2283,34985.910000950,00000077,-112,64163,-189,-18,8,-402*f66b5664
%RAWIMUSA,2283,34985.920;2283,34985.920000950,00000077,-59,64171,-174,0,8,-978*1d472e33
%RAWIMUSA,2283,34985.930;2283,34985.930000950,00000077,-12,64179,-163,18,-9,54*0259e36a
%RAWIMUSA,2283,34985.940;2283,34985.940000950,00000077,-151,64160,-175,9,0,850*1a4fc63c
%RAWIMUSA,2283,34985.950;2283,34985.950000950,00000077,36,64184,-189,-18,9,521*f9769a09
%RAWIMUSA,2283,34985.960;2283,34985.960000950,00000077,-106,64165,-182,-18,8,-859*5146e3c7
%RAWIMUSA,2283,34985.970;2283,34985.970000950,00000077,-85,64167,-164,18,0,-996*8a4d42f5
%RAWIMUSA,2283,34985.980;2283,34985.980000950,00000077,23,64183,-164,18,0,951*6ae85727
%RAWIMUSA,2283,34985.990;2283,34985.990000950,00000077,-145,64154,-186,-18,-8,877*ee35b392
%RAWIMUSA,2283,34986.000;2283,34986.000000950,00000077,10,64180,-189,-9,18,-393*b936c5b3
%RAWIMUSA,2283,34986.010;2283,34986.010000950,00000077,-92,64175,-171,0,8,-841*ec2b0ba2
%RAWIMUSA,2283,34986.020;2283,34986.020000950,00000077,-105,64160,-158,18,0,-173*476ff412
%RAWIMUSA,2283,34986.030;2283,34986.030000950,00000077,53,64187,-176,0,0,996*031c49cb
%RAWIMUSA,2283,34986.040;2283,34986.040000950,00000077,-153,64160,-190,-8,0,521*a1a4960c
%RAWIMUSA,2283,34986.050;2283,34986.050000950,00000077,-25,64178,-178,-18,8,-941*cf5f2da7
%RAWIMUSA,2283,34986.060;2283,34986.060000950,00000077,-48,64175,-160,18,8,-822*a09b964d
%RAWIMUSA,2283,34986.070;2283,34986.070000950,00000077,-117,64158,-170,18,-8,713*7ef9ecc9
%RAWIMUSA,2283,34986.080;2283,34986.080000950,00000077,30,64184,-188,-8,0,978*974401ae
%RAWIMUSA,2283,34986.090;2283,34986.090000950,00000077,-147,64166,-180,-27,18,-319*99f77278
%RAWIMUSA,2283,34986.100;2283,34986.100000949,00000077,-26,64172,-164,9,0,-950*06e37192
%RAWIMUSA,2283,34986.110;2283,34986.110000949,00000077,-16,64179,-175,18,0,-45*6133ffa8
%RAWIMUSA,2283,34986.120;2283,34986.120000949,00000077,-167,64157,-189,9,0,823*1d375f8d
%RAWIMUSA,2283,34986.130;2283,34986.130000949,00000077,31,64187,-172,-18,0,649*fe87d2c8
%RAWIMUSA,2283,34986.140;2283,34986.140000949,00000077,-110,64160,-163,-18,8,-877*6cc52a0d
%RAWIMUSA,2283,34986.150;2283,34986.150000949,00000077,-57,64168,-179,18,8,-978*99ad8eaa
%RAWIMUSA,2283,34986.160;2283,34986.160000949,00000077,-6,64181,-181,18,0,841*17f115f8
%RAWIMUSA,2283,34986.170;2283,34986.170000949,00000077,-158,64155,-169,-8,-8,859*a8c8f0dc
%RAWIMUSA,2283,34986.180;2283,34986.180000949,00000077,30,64184,-171,-18,18,-265*2fc662f2
%RAWIMUSA,2283,34986.190;2283,34986.190000949,00000077,-97,64167,-186,9,8,-850*0badc4f5
%RAWIMUSA,2283,34986.200;2283,34986.200000949,00000077,-88,64161,-181,18,-9,-265*8f486422
%RAWIMUSA,2283,34986.210;2283,34986.210000949,00000077,28,64182,-168,0,0,996*80b02bf6
%RAWIMUSA,2283,34986.220;2283,34986.220000949,00000077,-161,64158,-170,-18,9,621*57298bf3
%RAWIMUSA,2283,34986.230;2283,34986.230000949,00000077,9,64181,-177,-9,8,-923*2d2213f4
%RAWIMUSA,2283,34986.240;2283,34986.240000949,00000077,-69,64175,-181,18,8,-841*9e9ce05b
%RAWIMUSA,2283,34986.250;2283,34986.250000949,00000077,-108,64158,-177,18,-8,621*2c8ba854
%RAWIMUSA,2283,34986.260;2283,34986.260000949,00000077,33,64180,-172,-18,0,996*87cdb82f
%RAWIMUSA,2283,34986.270;2283,34986.270000949,00000077,-152,64158,-172,-18,8,-255*0d3d4b25
%RAWIMUSA,2283,34986.280;2283,34986.280000949,00000077,-12,64179,-174,9,8,-941*6043dd86
%RAWIMUSA,2283,34986.290;2283,34986.290000949,00000077,-48,64177,-176,18,8,-155*570a97c2
%RAWIMUSA,2283,34986.300;2283,34986.300000949,00000077,-116,64158,-178,0,-8,823*b31b5e99
%RAWIMUSA,2283,34986.310;2283,34986.310000949,00000077,30,64186,-182,-18,9,759*b8b92a17
%RAWIMUSA,2283,34986.320;2283,34986.320000949,00000077,-150,64159,-172,-9,8,-905*750cbe19
%RAWIMUSA,2283,34986.330;2283,34986.330000949,00000077,-21,64175,-172,18,0,-960*f39b70aa
%RAWIMUSA,2283,34986.340;2283,34986.340000949,00000077,-20,64177,-181,18,9,740*88e082c6
%RAWIMUSA,2283,34986.350;2283,34986.350000949,00000077,-151,64153,-181,-18,-8,841*1c1709a3
%RAWIMUSA,2283,34986.360;2283,34986.360000949,00000077,25,64190,-173,-18,18,-137*8bd267b7
%RAWIMUSA,2283,34986.370;2283,34986.370000949,00000077,-118,64161,-164,9,8,-886*95cba1ef
%RAWIMUSA,2283,34986.380;2283,34986.380000949,00000077,-49,64172,-183,18,-9,-356*61e6c170
%RAWIMUSA,2283,34986.390;2283,34986.390000949,00000077,-12,64179,-186,-8,0,1005*c429e6ea
%RAWIMUSA,2283,34986.400;2283,34986.400000949,00000077,-152,64161,-169,-8,9,695*2f81079f
%RAWIMUSA,2283,34986.410;2283,34986.410000949,00000077,28,64178,-164,-9,8,-886*01d52f47
%RAWIMUSA,2283,34986.420;2283,34986.420000949,00000077,-93,64167,-180,18,8,-859*a6b4b00e
%RAWIMUSA,2283,34986.430;2283,34986.430000949,00000077,-92,64165,-187,18,-8,521*9111fa0d
%RAWIMUSA,2283,34986.440;2283,34986.440000949,00000077,21,64186,-170,-18,0,1015*dbd09219
%RAWIMUSA,2283,34986.450;2283,34986.450000949,00000077,-154,64160,-165,-18,18,-173*c3f40ed6
%RAWIMUSA,2283,34986.460;2283,34986.460000949,00000077,20,64178,-183,9,8,-923*81af32e5
%RAWIMUSA,2283,34986.470;2283,34986.470000949,00000077,-70,64171,-189,18,-9,-265*f4bd89e1
%RAWIMUSA,2283,34986.480;2283,34986.480000949,00000077,-126,64161,-170,0,0,823*88cfedc2
%RAWIMUSA,2283,34986.490;2283,34986.490000949,00000077,34,64187,-164,-18,9,887*49748a2c
%RAWIMUSA,2283,34986.500;2283,34986.500000949,00000077,-136,64158,-178,0,8,-932*a0a82e86
%RAWIMUSA,2283,34986.510;2283,34986.510000949,00000077,-7,64176,-188,18,0,-950*e70509e2
%RAWIMUSA,2283,34986.520;2283,34986.520000949,00000077,-57,64171,-177,9,0,640*87cac1ad
%RAWIMUSA,2283,34986.530;2283,34986.530000949,00000077,-134,64159,-159,-18,0,823*49886778
%RAWIMUSA,2283,34986.540;2283,34986.540000949,00000077,43,64187,-173,-9,18,-18*9c6fffe2
%RAWIMUSA,2283,34986.550;2283,34986.550000949,00000077,-138,64156,-194,9,0,-896*eb4f2848
%RAWIMUSA,2283,34986.560;2283,34986.560000949,00000077,-35,64175,-178,18,0,-429*dd39ae18
%RAWIMUSA,2283,34986.570;2283,34986.570000949,00000077,-22,64181,-160,-8,-8,1005*9a8327a6
%RAWIMUSA,2283,34986.580;2283,34986.580000949,00000077,-150,64154,-173,-18,18,786*6eff70ea
%RAWIMUSA,2283,34986.590;2283,34986.590000949,00000077,29,64187,-187,0,8,-877*dc338bff
%RAWIMUSA,2283,34986.600;2283,34986.600000949,00000077,-108,64167,-174,9,0,-877*ddc6d1d5
%RAWIMUSA,2283,34986.610;2283,34986.610000949,00000077,-78,64164,-166,18,-8,420*a89dbaba
%RAWIMUSA,2283,34986.620;2283,34986.620000949,00000077,19,64184,-174,-18,9,1005*5279ba48
%RAWIMUSA,2283,34986.630;2283,34986.630000949,00000077,-159,64155,-178,-18,9,-73*7339e74f
%RAWIMUSA,2283,34986.640;2283,34986.640000949,00000077,11,64183,-180,18,0,-905*1bc84724
%RAWIMUSA,2283,34986.650;2283,34986.650000949,00000077,-79,64170,-173,18,0,-365*0ed38914
%RAWIMUSA,2283,34986.660;2283,34986.660000949,00000077,-96,64164,-165,-8,-8,823*574325e8
%RAWIMUSA,2283,34986.670;2283,34986.670000949,00000077,27,64185,-175,-18,19,978*115b6759
%RAWIMUSA,2283,34986.680;2283,34986.680000949,00000077,-150,64154,-180,0,8,-932*3b0ec039
%RAWIMUSA,2283,34986.690;2283,34986.690000949,00000077,-5,64179,-176,18,-9,-932*2cefb01c
%RAWIMUSA,2283,34986.700;2283,34986.700000949,00000077,-57,64174,-171,9,0,539*b5230232
%RAWIMUSA,2283,34986.710;2283,34986.710000949,00000077,-127,64158,-176,-18,0,823*a74952d2
%RAWIMUSA,2283,34986.720;2283,34986.720000949,00000077,41,64186,-181,-18,18,91*53f463ee
%RAWIMUSA,2283,34986.730;2283,34986.730000949,00000077,-139,64158,-170,18,0,-932*c4d85a60
%RAWIMUSA,2283,34986.740;2283,34986.740000949,00000077,-21,64176,-172,18,0,-530*037781ed
%RAWIMUSA,2283,34986.750;2283,34986.750000949,00000077,-46,64176,-186,-8,0,1005*fd0d4b4b
%RAWIMUSA,2283,34986.760;2283,34986.760000949,00000077,-137,64156,-179,-27,9,832*b5a540df
%RAWIMUSA,2283,34986.770;2283,34986.770000949,00000077,38,64185,-166,0,8,-822*54f54921
%RAWIMUSA,2283,34986.780;2283,34986.780000949,00000077,-127,64161,-174,18,-9,-895*14135a00
%RAWIMUSA,2283,34986.790;2283,34986.790000949,00000077,-52,64170,-185,9,0,347*bbceaeac
%RAWIMUSA,2283,34986.800;2283,34986.800000949,00000077,-14,64181,-178,-18,9,1005*0fadc7c9
%RAWIMUSA,2283,34986.810;2283,34986.810000949,00000077,-151,64156,-171,-18,9,0*d55dcc95
%RAWIMUSA,2283,34986.820;2283,34986.820000949,00000077,30,64185,-173,18,0,-877*46c4a09b
%RAWIMUSA,2283,34986.830;2283,34986.830000949,00000077,-111,64166,-179,18,0,-493*7897278f
%RAWIMUSA,2283,34986.840;2283,34986.840000949,00000077,-75,64165,-174,-8,0,832*6c6b412a
%RAWIMUSA,2283,34986.850;2283,34986.850000949,00000077,13,64185,-173,-18,9,1005*942f794f
%RAWIMUSA,2283,34986.860;2283,34986.860000949,00000077,-154,64158,-178,0,8,-877*54f002f1
%RAWIMUSA,2283,34986.870;2283,34986.870000949,00000077,15,64181,-177,18,0,-914*dfc8a590
%RAWIMUSA,2283,34986.880;2283,34986.880000949,00000077,-85,64167,-174,9,-8,420*d70c5d74
%RAWIMUSA,2283,34986.890;2283,34986.890000949,00000077,-97,64161,-175,-18,9,832*a1e35ef6
%RAWIMUSA,2283,34986.900;2283,34986.900000949,00000077,26,64183,-169,-18,18,192*6d369a75
%RAWIMUSA,2283,34986.910;2283,34986.910000949,00000077,-161,64155,-178,18,0,-941*be47cce6
%RAWIMUSA,2283,34986.920;2283,34986.920000949,00000077,10,64180,-177,18,-9,-603*ba3a1125
%RAWIMUSA,2283,34986.930;2283,34986.930000949,00000077,-62,64174,-172,-8,0,996*e8e40b23
%RAWIMUSA,2283,34986.940;2283,34986.940000949,00000077,-129,64157,-175,-18,9,823*6aff3ca0
%RAWIMUSA,2283,34986.950;2283,34986.950000949,00000077,38,64189,-179,0,8,-703*3f5b360d
%RAWIMUSA,2283,34986.960;2283,34986.960000949,00000077,-140,64156,-178,18,0,-914*410221ef
%RAWIMUSA,2283,34986.970;2283,34986.970000949,00000077,-31,64171,-168,0,-9,246*56283287
%RAWIMUSA,2283,34986.980;2283,34986.980000949,00000077,-29,64181,-171,-8,19,1005*2e14de46
%RAWIMUSA,2283,34986.990;2283,34986.990000949,00000077,-149,64157,-181,-18,9,91*d96c9d13
%RAWIMUSA,2283,34987.000;2283,34987.000000949,00000077,40,64186,-179,18,0,-859*9149016f
%RAWIMUSA,2283,34987.010;2283,34987.010000949,00000077,-125,64161,-171,18,0,-603*a8b03982
%RAWIMUSA,2283,34987.020;2283,34987.020000949,00000077,-58,64172,-169,-8,0,841*e28e908c
%RAWIMUSA,2283,34987.030;2283,34987.030000949,00000077,-4,64181,-180,-18,9,1005*217b8a0a
%RAWIMUSA,2283,34987.040;2283,34987.040000949,00000077,-155,64158,-181,0,8,-786*f0b1f3d1
%RAWIMUSA,2283,34987.050;2283,34987.050000949,00000077,21,64179,-174,18,-9,-895*3b13aa35
%RAWIMUSA,2283,34987.060;2283,34987.060000949,00000077,-98,64168,-167,9,0,310*8fbc31a2
%RAWIMUSA,2283,34987.070;2283,34987.070000949,00000077,-87,64166,-176,-18,9,841*6065dc81
%RAWIMUSA,2283,34987.080;2283,34987.080000949,00000077,24,64181,-186,-8,9,301*fa809f5d
%RAWIMUSA,2283,34987.090;2283,34987.090000949,00000077,-155,64156,-179,18,0,-960*600199d9
%RAWIMUSA,2283,34987.100;2283,34987.100000949,00000077,12,64182,-166,9,-9,-685*351ef9d5
%RAWIMUSA,2283,34987.110;2283,34987.110000949,00000077,-75,64173,-171,-8,9,996*54d0a57a
%RAWIMUSA,2283,34987.120;2283,34987.120000949,00000077,-112,64161,-183,-18,9,823*5e47ce08
%RAWIMUSA,2283,34987.130;2283,34987.130000949,00000077,41,64187,-182,0,8,-594*7f975fc9
%RAWIMUSA,2283,34987.140;2283,34987.140000949,00000077,-154,64153,-172,18,-9,-923*5ae1874e
%RAWIMUSA,2283,34987.150;2283,34987.150000949,00000077,-10,64176,-168,9,0,173*efa16b43
%RAWIMUSA,2283,34987.160;2283,34987.160000949,00000077,-41,64175,-175,-18,19,987*b3772add
%RAWIMUSA,2283,34987.170;2283,34987.170000949,00000077,-131,64159,-179,-9,9,173*1ca1fafc
%RAWIMUSA,2283,34987.180;2283,34987.180000949,00000077,34,64187,-181,9,0,-850*d1e1a629
%RAWIMUSA,2283,34987.190;2283,34987.190000949,00000077,-136,64159,-171,18,-9,-722*dc563d07
%RAWIMUSA,2283,34987.200;2283,34987.200000949,00000077,-31,64172,-172,-18,0,859*1ce58cba
%RAWIMUSA,2283,34987.210;2283,34987.210000949,00000077,-26,64179,-181,-18,19,1005*521053b6
%RAWIMUSA,2283,34987.220;2283,34987.220000949,00000077,-146,64157,-182,9,0,-703*50b783c3
%RAWIMUSA,2283,34987.230;2283,34987.230000949,00000077,29,64182,-170,18,0,-868*4c1f080c
%RAWIMUSA,2283,34987.240;2283,34987.240000949,00000077,-119,64163,-168,0,0,182*79d634db
%RAWIMUSA,2283,34987.250;2283,34987.250000949,00000077,-57,64174,-175,-18,9,841*d1e90544
%RAWIMUSA,2283,34987.260;2283,34987.260000949,00000077,-1,64181,-174,-8,9,411*918c9da5
%RAWIMUSA,2283,34987.270;2283,34987.270000949,00000077,-156,64158,-181,18,-10,-978*06948d7c
%RAWIMUSA,2283,34987.280;2283,34987.280000949,00000077,17,64186,-174,18,0,-758*b1f7e725
%RAWIMUSA,2283,34987.290;2283,34987.290000949,00000077,-95,64166,-166,-18,9,960*fefd2560
%RAWIMUSA,2283,34987.300;2283,34987.300000949,00000077,-82,64166,-175,-18,9,823*863d2d66
%RAWIMUSA,2283,34987.310;2283,34987.310000949,00000077,15,64186,-179,9,0,-484*ee4afe19
%RAWIMUSA,2283,34987.320;2283,34987.320000949,00000077,-155,64154,-182,18,0,-950*204f7101
%RAWIMUSA,2283,34987.330;2283,34987.330000949,00000077,11,64183,-174,0,0,100*0bd4419a
%RAWIMUSA,2283,34987.340;2283,34987.340000949,00000077,-77,64171,-169,-18,9,987*27cafaff
%RAWIMUSA,2283,34987.350;2283,34987.350000949,00000077,-101,64160,-181,0,9,283*819cfb86
%RAWIMUSA,2283,34987.360;2283,34987.360000949,00000077,28,64182,-182,9,0,-822*9026e9a4
%RAWIMUSA,2283,34987.370;2283,34987.370000949,00000077,-155,64158,-174,18,-9,-850*5b887a19
%RAWIMUSA,2283,34987.380;2283,34987.380000949,00000077,0,64179,-163,-8,9,887*0a0e2ab5
%RAWIMUSA,2283,34987.390;2283,34987.390000949,00000077,-54,64172,-179,-18,19,1005*abcc377c
%RAWIMUSA,2283,34987.400;2283,34987.400000949,00000077,-133,64162,-185,9,0,-612*abadfc63
%RAWIMUSA,2283,34987.410;2283,34987.410000949,00000077,39,64187,-172,18,-9,-850*82bb7be2
%RAWIMUSA,2283,34987.420;2283,34987.420000949,00000077,-135,64158,-168,0,9,64*4930dc49
%RAWIMUSA,2283,34987.430;2283,34987.430000949,00000077,-27,64174,-180,-18,9,850*c5fc43c0
%RAWIMUSA,2283,34987.440;2283,34987.440000949,00000077,-32,64178,-185,0,9,512*434725c3
%RAWIMUSA,2283,34987.450;2283,34987.450000949,00000077,-149,64158,-170,9,-10,-987*1907be66
%RAWIMUSA,2283,34987.460;2283,34987.460000949,00000077,41,64186,-167,18,0,-841*8330eaa9
%RAWIMUSA,2283,34987.470;2283,34987.470000949,00000077,-118,64162,-180,-18,9,951*76f1bff1
%RAWIMUSA,2283,34987.480;2283,34987.480000949,00000077,-67,64169,-184,-18,9,832*9ec88429
%RAWIMUSA,2283,34987.490;2283,34987.490000949,00000077,3,64180,-171,18,0,-374*55cdd34e
%RAWIMUSA,2283,34987.500;2283,34987.500000949,00000077,-162,64157,-166,9,-10,-969*c7b22c16
%RAWIMUSA,2283,34987.510;2283,34987.510000949,00000077,26,64185,-173,0,0,18*0ab9748c
%RAWIMUSA,2283,34987.520;2283,34987.520000949,00000077,-90,64164,-188,-18,19,978*3594ba45
%RAWIMUSA,2283,34987.530;2283,34987.530000949,00000077,-98,64166,-176,-8,0,384*04b88446
%RAWIMUSA,2283,34987.540;2283,34987.540000949,00000077,24,64183,-161,18,0,-822*f12bd85d
%RAWIMUSA,2283,34987.550;2283,34987.550000949,00000077,-154,64158,-171,18,0,-941*64285b9d
%RAWIMUSA,2283,34987.560;2283,34987.560000949,00000077,5,64180,-191,-27,9,887*562656c5
%RAWIMUSA,2283,34987.570;2283,34987.570000949,00000077,-67,64170,-179,-18,19,978*ba303d9e
%RAWIMUSA,2283,34987.580;2283,34987.580000949,00000077,-114,64161,-161,18,-9,-511*b5581f51
%RAWIMUSA,2283,34987.590;2283,34987.590000949,00000077,39,64185,-176,18,0,-841*e274a5e5
%RAWIMUSA,2283,34987.600;2283,34987.600000949,00000077,-154,64156,-189,-9,0,-54*2b499c6a
%RAWIMUSA,2283,34987.610;2283,34987.610000949,00000077,-15,64177,-171,-18,9,868*9193c54a
%RAWIMUSA,2283,34987.620;2283,34987.620000949,00000077,-32,64176,-165,0,9,594*1eaba410
%RAWIMUSA,2283,34987.630;2283,34987.630000949,00000077,-142,64157,-172,18,-10,-996*d8773809
%RAWIMUSA,2283,34987.640;2283,34987.640000949,00000077,29,64185,-188,9,0,-859*0fd97c65
%RAWIMUSA,2283,34987.650;2283,34987.650000949,00000077,-129,64157,-183,-18,19,868*785b254f
%RAWIMUSA,2283,34987.660;2283,34987.660000949,00000077,-51,64174,-167,-18,9,850*285ab3c2
%RAWIMUSA,2283,34987.670;2283,34987.670000949,00000077,-3,64181,-162,18,0,-283*a98fdb75
%RAWIMUSA,2283,34987.680;2283,34987.680000949,00000077,-159,64157,-187,18,-10,-969*ec72eaf5
%RAWIMUSA,2283,34987.690;2283,34987.690000949,00000077,22,64184,-188,-18,9,-73*1b3ee0d8
%RAWIMUSA,2283,34987.700;2283,34987.700000949,00000077,-91,64166,-167,-8,9,969*1dc8244a
%RAWIMUSA,2283,34987.710;2283,34987.710000949,00000077,-85,64165,-161,0,0,466*e50bb542
%RAWIMUSA,2283,34987.720;2283,34987.720000949,00000077,15,64183,-179,9,0,-813*b721f3fe
%RAWIMUSA,2283,34987.730;2283,34987.730000949,00000077,-164,64155,-188,9,0,-960*635efb12
%RAWIMUSA,2283,34987.740;2283,34987.740000949,00000077,14,64183,-168,-18,9,786*0088b0fa
%RAWIMUSA,2283,34987.750;2283,34987.750000949,00000077,-74,64171,-162,-8,19,978*97e2d03c
%RAWIMUSA,2283,34987.760;2283,34987.760000949,00000077,-114,64163,-182,18,-9,-420*45e47842
%RAWIMUSA,2283,34987.770;2283,34987.770000949,00000077,30,64185,-189,9,-9,-822*996a150d
%RAWIMUSA,2283,34987.780;2283,34987.780000949,00000077,-147,64156,-172,-9,9,-164*40b5078b
%RAWIMUSA,2283,34987.790;2283,34987.790000949,00000077,-8,64176,-163,-18,19,877*76c33f88
%RAWIMUSA,2283,34987.800;2283,34987.800000949,00000077,-47,64178,-177,0,0,713*5ef30a77
%RAWIMUSA,2283,34987.810;2283,34987.810000949,00000077,-137,64156,-185,18,-10,-1005*34ac6d87
%RAWIMUSA,2283,34987.820;2283,34987.820000949,00000077,42,64191,-176,9,0,-850*fb01ed60
%RAWIMUSA,2283,34987.830;2283,34987.830000949,00000077,-135,64159,-165,-18,18,749*de63aef8
%RAWIMUSA,2283,34987.840;2283,34987.840000949,00000077,-38,64172,-181,-8,0,868*0665ddb8
%RAWIMUSA,2283,34987.850;2283,34987.850000949,00000077,-29,64178,-182,18,0,-191*fd9c6be6
%RAWIMUSA,2283,34987.860;2283,34987.860000949,00000077,-140,64155,-175,9,-10,-996*21c82323
%RAWIMUSA,2283,34987.870;2283,34987.870000949,00000077,32,64185,-170,-9,9,-137*ed94ae1d
%RAWIMUSA,2283,34987.880;2283,34987.880000949,00000077,-126,64163,-175,-18,19,941*a6a4053a
%RAWIMUSA,2283,34987.890;2283,34987.890000949,00000077,-50,64171,-180,9,0,603*aa48c6b2
%RAWIMUSA,2283,34987.900;2283,34987.900000949,00000077,-3,64181,-178,9,-9,-822*6162ddc3
%RAWIMUSA,2283,34987.910;2283,34987.910000949,00000077,-161,64158,-171,9,0,-969*ee481ef6
%RAWIMUSA,2283,34987.920;2283,34987.920000949,00000077,25,64183,-173,-8,9,722*5089d327
%RAWIMUSA,2283,34987.930;2283,34987.930000949,00000077,-98,64168,-177,-18,9,951*36f43ecb
%RAWIMUSA,2283,34987.940;2283,34987.940000949,00000077,-85,64164,-180,9,0,-301*d54708b5
%RAWIMUSA,2283,34987.950;2283,34987.950000949,00000077,16,64185,-172,18,-9,-813*db27ef7f
%RAWIMUSA,2283,34987.960;2283,34987.960000949,00000077,-158,64158,-174,-9,8,-283*6250ad66
%RAWIMUSA,2283,34987.970;2283,34987.970000949,00000077,14,64184,-178,-18,19,914*5f8955d7
%RAWIMUSA,2283,34987.980;2283,34987.980000949,00000077,-81,64168,-183,0,0,777*ed6db4d1
%RAWIMUSA,2283,34987.990;2283,34987.990000949,00000077,-103,64163,-176,18,-10,-996*fad4cfd4
%RAWIMUSA,2283,34988.000;2283,34988.000000949,00000077,30,64183,-167,0,8,-832*56507a4c
%RAWIMUSA,2283,34988.010;2283,34988.010000948,00000077,-153,64160,-177,-8,9,621*2303e3fb
%RAWIMUSA,2283,34988.020;2283,34988.020000948,00000077,-5,64175,-183,-18,9,896*d08865c2
%RAWIMUSA,2283,34988.030;2283,34988.030000948,00000077,-59,64174,-177,18,-9,-100*c02b685b
%RAWIMUSA,2283,34988.040;2283,34988.040000948,00000077,-113,64158,-168,18,0,-1005*b4e49a51
%RAWIMUSA,2283,34988.050;2283,34988.050000948,00000077,33,64187,-174,-18,8,-210*a7ccd0f3
%RAWIMUSA,2283,34988.060;2283,34988.060000948,00000077,-145,64158,-177,-18,9,905*c9f537a4
%RAWIMUSA,2283,34988.070;2283,34988.070000948,00000077,-17,64176,-179,9,0,713*e98d1bab
%RAWIMUSA,2283,34988.080;2283,34988.080000948,00000077,-39,64179,-172,18,-9,-813*0d127585
%RAWIMUSA,2283,34988.090;2283,34988.090000948,00000077,-142,64161,-171,0,8,-996*59c1a0f5
%RAWIMUSA,2283,34988.100;2283,34988.100000948,00000077,37,64184,-180,-8,9,658*97a9105b
%RAWIMUSA,2283,34988.110;2283,34988.110000948,00000077,-128,64160,-180,-18,9,923*14ccce1b
%RAWIMUSA,2283,34988.120;2283,34988.120000948,00000077,-50,64176,-168,18,-9,-191*c8aa58be
%RAWIMUSA,2283,34988.130;2283,34988.130000948,00000077,-14,64179,-169,18,0,-813*82cf04b7
%RAWIMUSA,2283,34988.140;2283,34988.140000948,00000077,-148,64161,-182,-9,8,-402*b0e3d5cc
%RAWIMUSA,2283,34988.150;2283,34988.150000948,00000077,30,64181,-181,-18,9,941*0b5ab653
%RAWIMUSA,2283,34988.160;2283,34988.160000948,00000077,-106,64160,-170,9,0,850*13ccb603
%RAWIMUSA,2283,34988.170;2283,34988.170000948,00000077,-80,64171,-173,18,-10,-996*3776b63f
%RAWIMUSA,2283,34988.180;2283,34988.180000948,00000077,13,64183,-178,0,8,-813*04c5ebcd
%RAWIMUSA,2283,34988.190;2283,34988.190000948,00000077,-157,64154,-178,-18,9,493*7498a61a
%RAWIMUSA,2283,34988.200;2283,34988.200000948,00000077,18,64179,-176,-18,9,905*561e1b3c
%RAWIMUSA,2283,34988.210;2283,34988.210000948,00000077,-85,64171,-169,18,-9,0*609fee4c
%RAWIMUSA,2283,34988.220;2283,34988.220000948,00000077,-116,64159,-178,18,0,-996*0de06f65
%RAWIMUSA,2283,34988.230;2283,34988.230000948,00000077,50,64190,-183,-18,18,-301*ca50414f
%RAWIMUSA,2283,34988.240;2283,34988.240000948,00000077,-154,64157,-174,-8,9,896*4df0f09b
%RAWIMUSA,2283,34988.250;2283,34988.250000948,00000077,-20,64175,-168,9,-8,813*9967619e
%RAWIMUSA,2283,34988.260;2283,34988.260000948,00000077,-36,64178,-175,9,0,-813*e76ee25d
%RAWIMUSA,2283,34988.270;2283,34988.270000948,00000077,-132,64160,-186,0,0,-987*826587a1
%RAWIMUSA,2283,34988.280;2283,34988.280000948,00000077,43,64184,-174,-18,9,567*aa302e0c
%RAWIMUSA,2283,34988.290;2283,34988.290000948,00000077,-137,64161,-167,-8,9,923*0948cabe
%RAWIMUSA,2283,34988.300;2283,34988.300000948,00000077,-43,64169,-173,18,-9,-82*9b242581
%RAWIMUSA,2283,34988.310;2283,34988.310000948,00000077,-10,64179,-187,18,0,-822*8afd557f
%RAWIMUSA,2283,34988.320;2283,34988.320000948,00000077,-138,64162,-174,-18,8,-521*b5942128
%RAWIMUSA,2283,34988.330;2283,34988.330000948,00000077,14,64182,-174,-18,9,941*68addbd9
%RAWIMUSA,2283,34988.340;2283,34988.340000948,00000077,-124,64156,-184,9,0,941*8f632aa4
%RAWIMUSA,2283,34988.350;2283,34988.350000948,00000077,-53,64173,-174,18,-10,-987*5fad0cf9
%RAWIMUSA,2283,34988.360;2283,34988.360000948,00000077,15,64179,-160,0,17,-822*c55fcf7b
%RAWIMUSA,2283,34988.370;2283,34988.370000948,00000077,-171,64157,-180,-18,9,393*cbba5426
%RAWIMUSA,2283,34988.380;2283,34988.380000948,00000077,12,64190,-185,-8,0,932*c74f150f
%RAWIMUSA,2283,34988.390;2283,34988.390000948,00000077,-90,64163,-177,18,0,64*e0195e77
%RAWIMUSA,2283,34988.400;2283,34988.400000948,00000077,-75,64157,-170,9,0,-996*3fb430fd
%RAWIMUSA,2283,34988.410;2283,34988.410000948,00000077,16,64190,-169,-18,18,-402*a7d25486
%RAWIMUSA,2283,34988.420;2283,34988.420000948,00000077,-169,64156,-176,-8,0,877*8ab04bfa
%RAWIMUSA,2283,34988.430;2283,34988.430000948,00000077,21,64179,-184,9,0,896*16ac04fc
%RAWIMUSA,2283,34988.440;2283,34988.440000948,00000077,-72,64175,-183,9,-9,-795*f9626a56
%RAWIMUSA,2283,34988.450;2283,34988.450000948,00000077,-124,64156,-164,0,17,-996*cf81a55d
%RAWIMUSA,2283,34988.460;2283,34988.460000948,00000077,37,64188,-167,-18,9,484*91c032fa
%RAWIMUSA,2283,34988.470;2283,34988.470000948,00000077,-141,64161,-184,0,0,887*a804d4f6
%RAWIMUSA,2283,34988.480;2283,34988.480000948,00000077,-5,64171,-188,18,-9,36*e2073d1c
%RAWIMUSA,2283,34988.490;2283,34988.490000948,00000077,-54,64171,-173,9,8,-813*a123276e
%RAWIMUSA,2283,34988.500;2283,34988.500000948,00000077,-138,64163,-166,-18,8,-621*2bfdb8c5
%RAWIMUSA,2283,34988.510;2283,34988.510000948,00000077,42,64186,-171,-18,9,978*65193aaf
%RAWIMUSA,2283,34988.520;2283,34988.520000948,00000077,-135,64157,-182,9,-8,923*339a82c8
%RAWIMUSA,2283,34988.530;2283,34988.530000948,00000077,-30,64178,-182,18,0,-868*b8402b7a
%RAWIMUSA,2283,34988.540;2283,34988.540000948,00000077,-28,64178,-166,-9,8,-813*eb1c96df
%RAWIMUSA,2283,34988.550;2283,34988.550000948,00000077,-145,64153,-170,-8,9,265*cd2ea2ed
%RAWIMUSA,2283,34988.560;2283,34988.560000948,00000077,38,64188,-190,-8,0,941*c0d48fd2
%RAWIMUSA,2283,34988.570;2283,34988.570000948,00000077,-128,64158,-175,18,-9,146*e8c81d19
%RAWIMUSA,2283,34988.580;2283,34988.580000948,00000077,-61,64172,-162,9,8,-978*a6121249
%RAWIMUSA,2283,34988.590;2283,34988.590000948,00000077,4,64180,-173,-18,8,-484*a045a20d
%RAWIMUSA,2283,34988.600;2283,34988.600000948,00000077,-150,64157,-192,-18,9,841*1193c5a7
%RAWIMUSA,2283,34988.610;2283,34988.610000948,00000077,13,64182,-181,18,-8,923*84ccfe4a
%RAWIMUSA,2283,34988.620;2283,34988.620000948,00000077,-99,64169,-157,18,0,-722*1d39381e
%RAWIMUSA,2283,34988.630;2283,34988.630000948,00000077,-77,64165,-167,-9,17,-987*f91b16f8
%RAWIMUSA,2283,34988.640;2283,34988.640000948,00000077,26,64184,-188,-18,9,393*da635161
%RAWIMUSA,2283,34988.650;2283,34988.650000948,00000077,-171,64157,-188,0,0,859*16a47c7c
%RAWIMUSA,2283,34988.660;2283,34988.660000948,00000077,4,64182,-165,18,0,173*f37e4b38
%RAWIMUSA,2283,34988.670;2283,34988.670000948,00000077,-71,64165,-166,9,8,-850*c59db515
%RAWIMUSA,2283,34988.680;2283,34988.680000948,00000077,-101,64162,-186,-18,8,-731*40cc2984
%RAWIMUSA,2283,34988.690;2283,34988.690000948,00000077,32,64186,-180,-18,0,1005*68ef84c8
%RAWIMUSA,2283,34988.700;2283,34988.700000948,00000077,-157,64158,-169,18,0,887*af57ee74
%RAWIMUSA,2283,34988.710;2283,34988.710000948,00000077,-1,64178,-176,18,0,-749*55832242
%RAWIMUSA,2283,34988.720;2283,34988.720000948,00000077,-51,64174,-185,-9,17,-822*7634f5c9
%RAWIMUSA,2283,34988.730;2283,34988.730000948,00000077,-131,64158,-171,-18,9,155*51f6f9c4
%RAWIMUSA,2283,34988.740;2283,34988.740000948,00000077,43,64185,-168,0,-8,978*abb9575f
%RAWIMUSA,2283,34988.750;2283,34988.750000948,00000077,-130,64160,-178,18,0,228*29c6888b
%RAWIMUSA,2283,34988.760;2283,34988.760000948,00000077,-34,64176,-185,9,0,-969*e13a1c1c
%RAWIMUSA,2283,34988.770;2283,34988.770000948,00000077,-28,64180,-173,-18,17,-594*c659095a
%RAWIMUSA,2283,34988.780;2283,34988.780000948,00000077,-154,64153,-166,-18,0,841*7b9d6271
%RAWIMUSA,2283,34988.790;2283,34988.790000948,00000077,43,64185,-177,18,-8,951*a137bb9f
%RAWIMUSA,2283,34988.800;2283,34988.800000948,00000077,-113,64164,-185,18,0,-639*2f668e85
%RAWIMUSA,2283,34988.810;2283,34988.810000948,00000077,-82,64170,-172,-9,17,-996*8cc63cf9
%RAWIMUSA,2283,34988.820;2283,34988.820000948,00000077,13,64185,-169,-18,0,301*ecdce719
%RAWIMUSA,2283,34988.830;2283,34988.830000948,00000077,-160,64152,-183,0,0,859*553769ca
%RAWIMUSA,2283,34988.840;2283,34988.840000948,00000077,10,64181,-177,18,-9,265*c849caaf
%RAWIMUSA,2283,34988.850;2283,34988.850000948,00000077,-74,64177,-162,0,17,-841*4ba3bdf9
%RAWIMUSA,2283,34988.860;2283,34988.860000948,00000077,-110,64157,-175,-18,8,-822*e9aa30bb
%RAWIMUSA,2283,34988.870;2283,34988.870000948,00000077,31,64188,-191,-8,0,996*67092425
%RAWIMUSA,2283,34988.880;2283,34988.880000948,00000077,-148,64156,-177,18,-8,887*38514331
%RAWIMUSA,2283,34988.890;2283,34988.890000948,00000077,-10,64173,-159,18,8,-649*21c573bd
%RAWIMUSA,2283,34988.900;2283,34988.900000948,00000077,-46,64179,-173,-18,8,-822*d21f9635
%RAWIMUSA,2283,34988.910;2283,34988.910000948,00000077,-129,64160,-189,-9,9,64*8ade6532
%RAWIMUSA,2283,34988.920;2283,34988.920000948,00000077,37,64186,-183,0,-8,978*6f4e1f1f
%RAWIMUSA,2283,34988.930;2283,34988.930000948,00000077,-136,64158,-163,18,0,329*17c5ac20
%RAWIMUSA,2283,34988.940;2283,34988.940000948,00000077,-35,64171,-176,9,8,-960*d791b910
%RAWIMUSA,2283,34988.950;2283,34988.950000948,00000077,-20,64176,-191,-18,17,-676*56509ce8
%RAWIMUSA,2283,34988.960;2283,34988.960000948,00000077,-151,64153,-175,-18,-8,832*664e3172
%RAWIMUSA,2283,34988.970;2283,34988.970000948,00000077,34,64185,-162,18,0,951*82ace374
%RAWIMUSA,2283,34988.980;2283,34988.980000948,00000077,-107,64163,-174,18,8,-530*1c5d3dd6
%RAWIMUSA,2283,34988.990;2283,34988.990000948,00000077,-76,64166,-187,-9,8,-987*44030a5f
%RAWIMUSA,2283,34989.000;2283,34989.000000948,00000077,13,64185,-182,-18,9,201*95c321ac
%RAWIMUSA,2283,34989.010;2283,34989.010000948,00000077,-167,64156,-166,0,-8,859*8dae6df0
%RAWIMUSA,2283,34989.020;2283,34989.020000948,00000077,18,64183,-167,18,-8,365*8e985dd7
%RAWIMUSA,2283,34989.030;2283,34989.030000948,00000077,-68,64169,-184,9,17,-832*cd122183
%RAWIMUSA,2283,34989.040;2283,34989.040000948,00000077,-124,64162,-183,-18,8,-932*da3188e4
%RAWIMUSA,2283,34989.050;2283,34989.050000948,00000077,39,64186,-167,-8,0,987*52890f43
%RAWIMUSA,2283,34989.060;2283,34989.060000948,00000077,-150,64157,-169,9,-8,914*0b8ba31c
%RAWIMUSA,2283,34989.070;2283,34989.070000948,00000077,-22,64177,-176,18,8,-566*9aeb553e
%RAWIMUSA,2283,34989.080;2283,34989.080000948,00000077,-27,64177,-178,-18,17,-813*4165609c
%RAWIMUSA,2283,34989.090;2283,34989.090000948,00000077,-145,64157,-175,-18,0,-18*236b3e8a
%RAWIMUSA,2283,34989.100;2283,34989.100000948,00000077,38,64187,-174,9,0,969*b419d20c
%RAWIMUSA,2283,34989.110;2283,34989.110000948,00000077,-123,64160,-178,18,0,439*e100f295
%RAWIMUSA,2283,34989.120;2283,34989.120000948,00000077,-62,64170,-175,0,8,-978*708991c8
%RAWIMUSA,2283,34989.130;2283,34989.130000948,00000077,5,64184,-175,-18,17,-795*6a4c603f
%RAWIMUSA,2283,34989.140;2283,34989.140000948,00000077,-153,64156,-176,-8,-8,850*ed8f846a
%RAWIMUSA,2283,34989.150;2283,34989.150000948,00000077,29,64180,-177,18,-8,932*af31c88c
%RAWIMUSA,2283,34989.160;2283,34989.160000948,00000077,-94,64167,-179,9,8,-420*71a8071e
%RAWIMUSA,2283,34989.170;2283,34989.170000948,00000077,-90,64164,-169,-9,8,-996*61dc8c85
%RAWIMUSA,2283,34989.180;2283,34989.180000948,00000077,20,64185,-174,-18,9,100*4d7d3a12
%RAWIMUSA,2283,34989.190;2283,34989.190000948,00000077,-151,64155,-182,9,-8,868*8a7702f2
%RAWIMUSA,2283,34989.200;2283,34989.200000948,00000077,3,64180,-175,18,9,466*09bdd573
%RAWIMUSA,2283,34989.210;2283,34989.210000948,00000077,-72,64170,-170,0,8,-841*0689c118
%RAWIMUSA,2283,34989.220;2283,34989.220000948,00000077,-105,64161,-174,-18,0,-1005*4fe238bc
%RAWIMUSA,2283,34989.230;2283,34989.230000948,00000077,32,64188,-180,-8,0,978*ef9f665f
%RAWIMUSA,2283,34989.240;2283,34989.240000948,00000077,-158,64155,-178,18,-8,896*dc848d37
%RAWIMUSA,2283,34989.250;2283,34989.250000948,00000077,-8,64179,-173,18,8,-457*25a0478b
%RAWIMUSA,2283,34989.260;2283,34989.260000948,00000077,-47,64178,-173,-18,17,-822*93325452
%RAWIMUSA,2283,34989.270;2283,34989.270000948,00000077,-142,64158,-173,-18,0,-137*fd1153a9
%RAWIMUSA,2283,34989.280;2283,34989.280000948,00000077,41,64186,-175,9,0,987*8e43339f
%RAWIMUSA,2283,34989.290;2283,34989.290000948,00000077,-131,64157,-183,18,0,521*078f5c9a
%RAWIMUSA,2283,34989.300;2283,34989.300000948,00000077,-39,64176,-181,0,8,-969*2b3ac7fc
%RAWIMUSA,2283,34989.310;2283,34989.310000948,00000077,-34,64177,-164,-18,8,-813*453b6bdb
%RAWIMUSA,2283,34989.320;2283,34989.320000948,00000077,-138,64159,-173,0,-8,759*f5f8735d
%RAWIMUSA,2283,34989.330;2283,34989.330000948,00000077,46,64187,-184,9,0,960*5c5b5ed4
%RAWIMUSA,2283,34989.340;2283,34989.340000948,00000077,-125,64159,-179,18,8,-347*cd0491f7
%RAWIMUSA,2283,34989.350;2283,34989.350000948,00000077,-56,64174,-164,-18,8,-978*bc13407f
%RAWIMUSA,2283,34989.360;2283,34989.360000948,00000077,-12,64180,-171,-18,0,0*ef737319
%RAWIMUSA,2283,34989.370;2283,34989.370000948,00000077,-144,64156,-184,18,0,841*0840b4fa
%RAWIMUSA,2283,34989.380;2283,34989.380000948,00000077,30,64184,-183,9,0,594*e5f3d0e3
%RAWIMUSA,2283,34989.390;2283,34989.390000948,00000077,-105,64165,-167,0,17,-859*a3faed5d
%RAWIMUSA,2283,34989.400;2283,34989.400000948,00000077,-84,64164,-170,-18,0,-1005*dc0674a8
%RAWIMUSA,2283,34989.410;2283,34989.410000948,00000077,22,64183,-183,-8,0,887*4af23113
%RAWIMUSA,2283,34989.420;2283,34989.420000948,00000077,-158,64158,-180,18,0,859*c85834f2
%RAWIMUSA,2283,34989.430;2283,34989.430000948,00000077,8,64183,-168,18,8,-319*dc21d052
%RAWIMUSA,2283,34989.440;2283,34989.440000948,00000077,-77,64167,-169,-18,8,-850*ff8a4578
%RAWIMUSA,2283,34989.450;2283,34989.450000948,00000077,-96,64161,-178,-18,0,-228*4a440386
%RAWIMUSA,2283,34989.460;2283,34989.460000948,00000077,28,64187,-184,9,0,987*0fa16e5d
%RAWIMUSA,2283,34989.470;2283,34989.470000948,00000077,-163,64159,-174,18,0,585*0aa93a27
%RAWIMUSA,2283,34989.480;2283,34989.480000948,00000077,-3,64180,-162,0,17,-923*cb5bbc8d
%RAWIMUSA,2283,34989.490;2283,34989.490000948,00000077,-61,64172,-177,-18,0,-832*bc19919c
%RAWIMUSA,2283,34989.500;2283,34989.500000948,00000077,-116,64160,-190,-8,-8,658*42224991
%RAWIMUSA,2283,34989.510;2283,34989.510000948,00000077,35,64189,-175,18,0,996*7c9ce6ee
%RAWIMUSA,2283,34989.520;2283,34989.520000948,00000077,-155,64155,-166,9,18,-283*872b7f86
%RAWIMUSA,2283,34989.530;2283,34989.530000948,00000077,-19,64178,-182,-9,8,-941*b2dd9f17
%RAWIMUSA,2283,34989.540;2283,34989.540000948,00000077,-35,64176,-185,-18,0,-100*31934469
%RAWIMUSA,2283,34989.550;2283,34989.550000948,00000077,-139,64158,-174,9,-8,823*3c62a9d9
%RAWIMUSA,2283,34989.560;2283,34989.560000948,00000077,42,64187,-167,18,9,722*af8af1f0
%RAWIMUSA,2283,34989.570;2283,34989.570000948,00000077,-126,64158,-179,-9,8,-886*4df90c35
%RAWIMUSA,2283,34989.580;2283,34989.580000948,00000077,-56,64175,-188,-18,8,-978*c05096ae
%RAWIMUSA,2283,34989.590;2283,34989.590000948,00000077,-1,64183,-169,0,0,795*c1d22d50
%RAWIMUSA,2283,34989.600;2283,34989.600000948,00000077,-156,64155,-166,18,-8,841*149d689d
%RAWIMUSA,2283,34989.610;2283,34989.610000948,00000077,28,64183,-177,9,18,-210*80a9fd57
%RAWIMUSA,2283,34989.620;2283,34989.620000948,00000077,-97,64166,-180,-18,8,-868*f2976153
%RAWIMUSA,2283,34989.630;2283,34989.630000948,00000077,-90,64159,-167,-18,-9,-329*fc56e0e7
%RAWIMUSA,2283,34989.640;2283,34989.640000948,00000077,22,64195,-171,18,0,1015*7e00d273
%RAWIMUSA,2283,34989.650;2283,34989.650000948,00000077,-159,64154,-184,18,9,667*5134d0a9
%RAWIMUSA,2283,34989.660;2283,34989.660000948,00000077,12,64172,-175,-9,8,-914*3c81482a
%RAWIMUSA,2283,34989.670;2283,34989.670000948,00000077,-76,64176,-172,-18,0,-841*b2f35ca1
%RAWIMUSA,2283,34989.680;2283,34989.680000948,00000077,-117,64163,-171,9,0,557*5ce5aa57
