%RAWIMUSA,2283,33679.290;2283,33679.290001634,00000077,113,-64251,109,-18,-9,73*7f8626c4
%RAWIMUSA,2283,33679.300;2283,33679.300001634,00000077,-9,-64230,99,-18,-8,887*f7a15869
%RAWIMUSA,2283,33679.310;2283,33679.310001634,00000077,20,-64236,101,18,9,466*e0b0d300
%RAWIMUSA,2283,33679.320;2283,33679.320001634,00000077,72,-64252,110,18,0,-1005*d65ade0e
%RAWIMUSA,2283,33679.330;2283,33679.330001634,00000077,-46,-64225,107,-18,-9,-767*e692185e
%RAWIMUSA,2283,33679.340;2283,33679.340001634,00000077,109,-64249,101,-18,-8,914*31fd2f03
%RAWIMUSA,2283,33679.350;2283,33679.350001634,00000077,0,-64237,97,9,0,868*c10b28b7
%RAWIMUSA,2283,33679.360;2283,33679.360001634,00000077,-16,-64234,104,18,0,-420*a6800b47
%RAWIMUSA,2283,33679.370;2283,33679.370001634,00000077,107,-64251,115,0,0,-1005*340faa4b
%RAWIMUSA,2283,33679.380;2283,33679.380001634,00000077,-46,-64226,103,-18,-9,91*2bdd0b34
%RAWIMUSA,2283,33679.390;2283,33679.390001634,00000077,80,-64249,95,-8,-8,960*22003370
%RAWIMUSA,2283,33679.400;2283,33679.400001634,00000077,38,-64239,103,18,0,347*e53c5f4b
%RAWIMUSA,2283,33679.410;2283,33679.410001634,00000077,-35,-64227,107,9,8,-813*adb95a38
%RAWIMUSA,2283,33679.420;2283,33679.420001634,00000077,113,-64249,106,-9,-9,-941*4b0012b1
%RAWIMUSA,2283,33679.430;2283,33679.430001634,00000077,-42,-64228,94,-18,-17,914*0313ba47
%RAWIMUSA,2283,33679.440;2283,33679.440001634,00000077,52,-64241,108,9,9,996*05fa9c4d
%RAWIMUSA,2283,33679.450;2283,33679.450001634,00000077,73,-64246,112,18,0,-566*60194abc
%RAWIMUSA,2283,33679.460;2283,33679.460001634,00000077,-51,-64224,102,-9,-9,-831*9499765b
%RAWIMUSA,2283,33679.470;2283,33679.470001634,00000077,105,-64250,104,-9,-9,-27*2582f76f
%RAWIMUSA,2283,33679.480;2283,33679.480001634,00000077,-14,-64229,102,-8,-8,877*ce0037ad
%RAWIMUSA,2283,33679.490;2283,33679.490001634,00000077,15,-64231,107,9,9,567*09afb850
%RAWIMUSA,2283,33679.500;2283,33679.500001634,00000077,93,-64248,113,18,0,-1014*c1234459
%RAWIMUSA,2283,33679.510;2283,33679.510001634,00000077,-50,-64223,103,-18,-9,-850*00982d2e
%RAWIMUSA,2283,33679.520;2283,33679.520001634,00000077,88,-64247,103,-18,-8,905*a42d2e94
%RAWIMUSA,2283,33679.530;2283,33679.530001634,00000077,19,-64237,101,9,0,841*d0136a2b
%RAWIMUSA,2283,33679.540;2283,33679.540001634,00000077,-11,-64230,104,18,8,-319*766593ce
%RAWIMUSA,2283,33679.550;2283,33679.550001634,00000077,109,-64251,107,0,-10,-987*105a6c02
%RAWIMUSA,2283,33679.560;2283,33679.560001634,00000077,-49,-64222,97,-18,-9,-27*b6561d8f
%RAWIMUSA,2283,33679.570;2283,33679.570001634,00000077,62,-64243,104,-8,-8,969*64f7b8da
%RAWIMUSA,2283,33679.580;2283,33679.580001634,00000077,55,-64243,110,18,0,429*aca33a96
%RAWIMUSA,2283,33679.590;2283,33679.590001634,00000077,-32,-64225,103,18,8,-813*045f70f7
%RAWIMUSA,2283,33679.600;2283,33679.600001634,00000077,109,-64252,102,-18,-19,-960*71898c7f
%RAWIMUSA,2283,33679.610;2283,33679.610001634,00000077,-32,-64231,100,-18,-17,832*7499a91b
%RAWIMUSA,2283,33679.620;2283,33679.620001634,00000077,32,-64241,110,9,9,1005*cb48b91d
%RAWIMUSA,2283,33679.630;2283,33679.630001634,00000077,90,-64244,105,18,8,-466*bb507c25
%RAWIMUSA,2283,33679.640;2283,33679.640001634,00000077,-56,-64222,89,0,-9,-841*a49f7816
%RAWIMUSA,2283,33679.650;2283,33679.650001634,00000077,93,-64249,110,-18,-9,-100*13761fdb
%RAWIMUSA,2283,33679.660;2283,33679.660001634,00000077,6,-64233,112,0,-8,868*9a180609
%RAWIMUSA,2283,33679.670;2283,33679.670001634,00000077,9,-64233,101,9,9,676*b79f5bf0
%RAWIMUSA,2283,33679.680;2283,33679.680001634,00000077,89,-64250,95,18,0,-1005*e8af550d
%RAWIMUSA,2283,33679.690;2283,33679.690001634,00000077,-51,-64227,100,-18,-9,-868*a7f5d5e7
%RAWIMUSA,2283,33679.700;2283,33679.700001634,00000077,97,-64250,120,-18,-8,813*7cd16370
%RAWIMUSA,2283,33679.710;2283,33679.710001634,00000077,19,-64239,103,9,0,841*5ba54ecc
%RAWIMUSA,2283,33679.720;2283,33679.720001634,00000077,-29,-64227,86,18,8,-219*8f9d0e8c
%RAWIMUSA,2283,33679.730;2283,33679.730001634,00000077,108,-64251,106,-9,-10,-978*b13d408d
%RAWIMUSA,2283,33679.740;2283,33679.740001634,00000077,-32,-64227,116,-9,-9,-127*84b550a0
%RAWIMUSA,2283,33679.750;2283,33679.750001634,00000077,60,-64243,101,-8,0,978*4bab66b2
%RAWIMUSA,2283,33679.760;2283,33679.760001634,00000077,48,-64246,94,18,0,521*18f03242
%RAWIMUSA,2283,33679.770;2283,33679.770001634,00000077,-42,-64223,104,9,0,-822*a23dcb28
%RAWIMUSA,2283,33679.780;2283,33679.780001634,00000077,121,-64250,122,-18,-9,-950*f2d1e40a
%RAWIMUSA,2283,33679.790;2283,33679.790001634,00000077,-21,-64230,100,-18,-8,722*4b839c8b
%RAWIMUSA,2283,33679.800;2283,33679.800001634,00000077,20,-64238,91,18,9,996*af3c6465
%RAWIMUSA,2283,33679.810;2283,33679.810001634,00000077,85,-64248,104,18,0,-356*f2d08cba
%RAWIMUSA,2283,33679.820;2283,33679.820001634,00000077,-46,-64221,113,-9,-9,-841*872ea61f
%RAWIMUSA,2283,33679.830;2283,33679.830001634,00000077,100,-64247,108,-18,-9,-201*7b3e081f
%RAWIMUSA,2283,33679.840;2283,33679.840001634,00000077,0,-64236,99,0,0,859*8b25d666
%RAWIMUSA,2283,33679.850;2283,33679.850001634,00000077,-2,-64234,103,18,0,777*a96147e3
%RAWIMUSA,2283,33679.860;2283,33679.860001634,00000077,109,-64252,112,9,0,-1005*aa118918
%RAWIMUSA,2283,33679.870;2283,33679.870001634,00000077,-49,-64227,100,-18,-9,-877*2f6fd2a6
%RAWIMUSA,2283,33679.880;2283,33679.880001634,00000077,73,-64243,100,-18,-8,722*04bdc050
%RAWIMUSA,2283,33679.890;2283,33679.890001634,00000077,32,-64242,101,18,9,841*8180a6a8
%RAWIMUSA,2283,33679.900;2283,33679.900001634,00000077,-29,-64229,108,9,9,-109*814b2fcd
%RAWIMUSA,2283,33679.910;2283,33679.910001634,00000077,107,-64253,110,-9,-19,-978*4a1a2597
%RAWIMUSA,2283,33679.920;2283,33679.920001634,00000077,-39,-64226,93,-9,-9,-237*f87bd95d
%RAWIMUSA,2283,33679.930;2283,33679.930001634,00000077,59,-64243,101,0,0,987*5f82fbba
%RAWIMUSA,2283,33679.940;2283,33679.940001634,00000077,61,-64245,114,18,9,631*27f7e482
%RAWIMUSA,2283,33679.950;2283,33679.950001634,00000077,-48,-64224,107,9,-9,-822*801850a2
%RAWIMUSA,2283,33679.960;2283,33679.960001634,00000077,106,-64248,100,-18,-9,-950*ad67fa98
%RAWIMUSA,2283,33679.970;2283,33679.970001634,00000077,-16,-64229,99,-18,-8,612*5015816f
%RAWIMUSA,2283,33679.980;2283,33679.980001634,00000077,31,-64237,108,18,9,1015*346488ce
%RAWIMUSA,2283,33679.990;2283,33679.990001634,00000077,80,-64251,107,18,0,-265*3304a7f5
%RAWIMUSA,2283,33680.000;2283,33680.000001634,00000077,-50,-64222,97,-9,-9,-841*d98390df
%RAWIMUSA,2283,33680.010;2283,33680.010001634,00000077,104,-64248,100,-18,-9,-301*61365948
%RAWIMUSA,2283,33680.020;2283,33680.020001634,00000077,3,-64234,109,0,0,859*85521cfa
%RAWIMUSA,2283,33680.030;2283,33680.030001634,00000077,-3,-64232,109,9,9,877*7d5f2a35
%RAWIMUSA,2283,33680.040;2283,33680.040001634,00000077,114,-64253,108,9,-10,-1005*ebe33e6a
%RAWIMUSA,2283,33680.050;2283,33680.050001634,00000077,-53,-64223,90,-18,-9,-886*2ad2dfa2
%RAWIMUSA,2283,33680.060;2283,33680.060001634,00000077,77,-64246,108,-8,-8,640*065906d4
%RAWIMUSA,2283,33680.070;2283,33680.070001634,00000077,30,-64242,107,18,0,832*5c31c6af
%RAWIMUSA,2283,33680.080;2283,33680.080001634,00000077,-25,-64227,99,9,9,-18*5d9350a7
%RAWIMUSA,2283,33680.090;2283,33680.090001634,00000077,117,-64251,101,-9,-10,-978*2b49325c
%RAWIMUSA,2283,33680.100;2283,33680.100001634,00000077,-36,-64226,104,-9,-18,-347*35b360e2
%RAWIMUSA,2283,33680.110;2283,33680.110001634,00000077,40,-64239,111,0,9,1005*fdaa62eb
%RAWIMUSA,2283,33680.120;2283,33680.120001634,00000077,80,-64246,101,9,0,713*9f8d55e3
%RAWIMUSA,2283,33680.130;2283,33680.130001634,00000077,-56,-64226,86,9,0,-831*f1637907
%RAWIMUSA,2283,33680.140;2283,33680.140001634,00000077,101,-64248,113,-18,-9,-923*84bfc2ad
%RAWIMUSA,2283,33680.150;2283,33680.150001634,00000077,0,-64234,117,-8,-8,484*36f20fb2
%RAWIMUSA,2283,33680.160;2283,33680.160001634,00000077,5,-64233,103,9,9,1024*32783347
%RAWIMUSA,2283,33680.170;2283,33680.170001634,00000077,102,-64253,97,27,0,-155*ff014e74
%RAWIMUSA,2283,33680.180;2283,33680.180001634,00000077,-53,-64227,99,-18,-19,-886*04b4aed7
%RAWIMUSA,2283,33680.190;2283,33680.190001634,00000077,82,-64244,115,-18,0,-356*48f4a612
%RAWIMUSA,2283,33680.200;2283,33680.200001634,00000077,44,-64240,105,9,0,823*e9f208de
%RAWIMUSA,2283,33680.210;2283,33680.210001634,00000077,-36,-64225,91,18,9,978*a5611a0a
%RAWIMUSA,2283,33680.220;2283,33680.220001634,00000077,105,-64252,109,0,-19,-969*922e5f33
%RAWIMUSA,2283,33680.230;2283,33680.230001634,00000077,-17,-64229,109,-18,-9,-923*c2ef4d82
%RAWIMUSA,2283,33680.240;2283,33680.240001634,00000077,41,-64239,102,-8,0,576*a82357fd
%RAWIMUSA,2283,33680.250;2283,33680.250001634,00000077,67,-64250,95,18,9,804*2b7ded08
%RAWIMUSA,2283,33680.260;2283,33680.260001634,00000077,-53,-64225,101,9,-9,54*f66cfc3a
%RAWIMUSA,2283,33680.270;2283,33680.270001634,00000077,109,-64249,112,-9,-9,-914*b0162d03
%RAWIMUSA,2283,33680.280;2283,33680.280001634,00000077,11,-64232,106,-18,-9,-493*6df6d0a2
%RAWIMUSA,2283,33680.290;2283,33680.290001634,00000077,-9,-64229,96,0,0,1024*c0ae6e12
%RAWIMUSA,2283,33680.300;2283,33680.300001634,00000077,92,-64250,101,18,9,832*a6bc4cdd
%RAWIMUSA,2283,33680.310;2283,33680.310001634,00000077,-35,-64229,113,0,-9,-877*07c583ba
%RAWIMUSA,2283,33680.320;2283,33680.320001634,00000077,76,-64244,111,-18,-9,-859*e2438a44
%RAWIMUSA,2283,33680.330;2283,33680.330001634,00000077,32,-64243,90,-8,-8,356*5c2a85ae
%RAWIMUSA,2283,33680.340;2283,33680.340001634,00000077,-36,-64225,97,18,9,1015*63b6d7e1
%RAWIMUSA,2283,33680.350;2283,33680.350001634,00000077,125,-64247,120,18,0,-18*9dae516f
%RAWIMUSA,2283,33680.360;2283,33680.360001634,00000077,-27,-64228,107,-18,-19,-914*5df4a31b
%RAWIMUSA,2283,33680.370;2283,33680.370001634,00000077,26,-64241,91,-18,0,-420*48ec9e7a
%RAWIMUSA,2283,33680.380;2283,33680.380001634,00000077,69,-64247,101,9,0,813*296430f5
%RAWIMUSA,2283,33680.390;2283,33680.390001634,00000077,-27,-64227,112,18,0,1005*89b7ff56
%RAWIMUSA,2283,33680.400;2283,33680.400001634,00000077,106,-64247,114,0,-9,-886*73c33ac2
%RAWIMUSA,2283,33680.410;2283,33680.410001634,00000077,-17,-64231,94,-18,-9,-941*5196c1ed
%RAWIMUSA,2283,33680.420;2283,33680.420001634,00000077,14,-64233,101,-8,0,484*f6319bd3
%RAWIMUSA,2283,33680.430;2283,33680.430001633,00000077,102,-64249,112,18,0,813*34a35e59
%RAWIMUSA,2283,33680.440;2283,33680.440001633,00000077,-46,-64227,106,18,0,146*fdbaea17
%RAWIMUSA,2283,33680.450;2283,33680.450001633,00000077,74,-64247,98,-18,-9,-896*bd95e352
%RAWIMUSA,2283,33680.460;2283,33680.460001633,00000077,14,-64235,98,-18,-9,-621*cc507497
%RAWIMUSA,2283,33680.470;2283,33680.470001633,00000077,-4,-64230,106,9,0,1024*947df65a
%RAWIMUSA,2283,33680.480;2283,33680.480001633,00000077,109,-64251,112,18,0,841*77b20414
%RAWIMUSA,2283,33680.490;2283,33680.490001633,00000077,-49,-64226,101,0,-9,-767*ff32ca6f
%RAWIMUSA,2283,33680.500;2283,33680.500001633,00000077,64,-64246,99,-18,-9,-868*10f700a0
%RAWIMUSA,2283,33680.510;2283,33680.510001633,00000077,54,-64242,104,0,0,246*5cbee3e9
%RAWIMUSA,2283,33680.520;2283,33680.520001633,00000077,-31,-64223,108,9,9,1015*ee5eb093
%RAWIMUSA,2283,33680.530;2283,33680.530001633,00000077,103,-64250,102,18,-9,82*869404c8
%RAWIMUSA,2283,33680.540;2283,33680.540001633,00000077,-34,-64229,99,-18,-19,-923*7e129966
%RAWIMUSA,2283,33680.550;2283,33680.550001633,00000077,42,-64239,109,-18,0,-521*a41aae54
%RAWIMUSA,2283,33680.560;2283,33680.560001633,00000077,79,-64246,107,18,9,813*73c5319b
%RAWIMUSA,2283,33680.570;2283,33680.570001633,00000077,-54,-64228,103,9,0,996*7197f87b
%RAWIMUSA,2283,33680.580;2283,33680.580001633,00000077,100,-64248,110,0,-9,-767*c5ebb93c
%RAWIMUSA,2283,33680.590;2283,33680.590001633,00000077,5,-64232,108,-18,-19,-960*8ec0dd07
%RAWIMUSA,2283,33680.600;2283,33680.600001633,00000077,2,-64233,101,0,9,393*0747654d
%RAWIMUSA,2283,33680.610;2283,33680.610001633,00000077,91,-64250,107,18,0,823*2b408c7d
%RAWIMUSA,2283,33680.620;2283,33680.620001633,00000077,-46,-64225,105,9,-9,228*3ab4197f
%RAWIMUSA,2283,33680.630;2283,33680.630001633,00000077,93,-64248,103,-18,-9,-886*c40bc602
%RAWIMUSA,2283,33680.640;2283,33680.640001633,00000077,24,-64233,97,-18,-9,-731*4b88639d
%RAWIMUSA,2283,33680.650;2283,33680.650001633,00000077,-28,-64227,102,18,9,1033*55148a48
%RAWIMUSA,2283,33680.660;2283,33680.660001633,00000077,118,-64252,111,18,0,850*3f11d453
%RAWIMUSA,2283,33680.670;2283,33680.670001633,00000077,-44,-64224,102,-9,-9,-703*b97f3347
%RAWIMUSA,2283,33680.680;2283,33680.680001633,00000077,53,-64246,102,-18,-9,-850*ab1825dd
%RAWIMUSA,2283,33680.690;2283,33680.690001633,00000077,65,-64247,106,0,0,146*2b160003
%RAWIMUSA,2283,33680.700;2283,33680.700001633,00000077,-45,-64223,109,18,9,1015*0785f36b
%RAWIMUSA,2283,33680.710;2283,33680.710001633,00000077,99,-64248,96,9,-9,201*2ee093ad
%RAWIMUSA,2283,33680.720;2283,33680.720001633,00000077,-16,-64231,98,-18,-9,-950*b122fd71
%RAWIMUSA,2283,33680.730;2283,33680.730001633,00000077,22,-64235,114,-18,0,-603*1662433e
%RAWIMUSA,2283,33680.740;2283,33680.740001633,00000077,92,-64252,114,9,0,823*4a740278
%RAWIMUSA,2283,33680.750;2283,33680.750001633,00000077,-62,-64226,88,18,0,978*a6d673a9
%RAWIMUSA,2283,33680.760;2283,33680.760001633,00000077,97,-64247,93,0,-9,-658*a448315f
%RAWIMUSA,2283,33680.770;2283,33680.770001633,00000077,22,-64233,111,-18,-9,-978*e0ea4f4e
%RAWIMUSA,2283,33680.780;2283,33680.780001633,00000077,-11,-64228,112,0,0,292*bba1c83d
%RAWIMUSA,2283,33680.790;2283,33680.790001633,00000077,90,-64251,97,18,9,841*d521d4dd
%RAWIMUSA,2283,33680.800;2283,33680.800001633,00000077,-47,-64227,95,9,-9,310*e256b91d
%RAWIMUSA,2283,33680.810;2283,33680.810001633,00000077,89,-64244,112,-18,-19,-868*490d40b8
%RAWIMUSA,2283,33680.820;2283,33680.820001633,00000077,48,-64243,118,-18,0,-822*84ccd543
%RAWIMUSA,2283,33680.830;2283,33680.830001633,00000077,-47,-64227,98,18,9,1015*6cbb351f
%RAWIMUSA,2283,33680.840;2283,33680.840001633,00000077,105,-64250,90,18,0,868*1b9b3f80
%RAWIMUSA,2283,33680.850;2283,33680.850001633,00000077,-17,-64229,101,-9,-18,-612*c0b65967
%RAWIMUSA,2283,33680.860;2283,33680.860001633,00000077,49,-64238,122,-18,0,-841*76864a19
%RAWIMUSA,2283,33680.870;2283,33680.870001633,00000077,56,-64246,105,0,0,36*bbef11e0
%RAWIMUSA,2283,33680.880;2283,33680.880001633,00000077,-46,-64222,90,18,9,996*6a2d3f14
%RAWIMUSA,2283,33680.890;2283,33680.890001633,00000077,115,-64250,103,9,-18,311*5703ab6d
%RAWIMUSA,2283,33680.900;2283,33680.900001633,00000077,-11,-64228,112,-18,-9,-950*ef65b38c
%RAWIMUSA,2283,33680.910;2283,33680.910001633,00000077,4,-64237,107,-18,0,-694*2f1242b0
%RAWIMUSA,2283,33680.920;2283,33680.920001633,00000077,92,-64247,98,18,9,823*86b62989
%RAWIMUSA,2283,33680.930;2283,33680.930001633,00000077,-38,-64224,98,18,-8,978*08ebe919
%RAWIMUSA,2283,33680.940;2283,33680.940001633,00000077,92,-64247,114,-9,-9,-539*e8eb3db5
%RAWIMUSA,2283,33680.950;2283,33680.950001633,00000077,4,-64235,104,-18,-9,-978*c5237179
%RAWIMUSA,2283,33680.960;2283,33680.960001633,00000077,-10,-64230,96,0,9,192*fb0eef19
%RAWIMUSA,2283,33680.970;2283,33680.970001633,00000077,112,-64248,99,18,0,841*accc3fb4
%RAWIMUSA,2283,33680.980;2283,33680.980001633,00000077,-44,-64227,109,9,-8,411*e94d8afe
%RAWIMUSA,2283,33680.990;2283,33680.990001633,00000077,62,-64247,111,-18,-9,-868*f56ec228
%RAWIMUSA,2283,33681.000;2283,33681.000001633,00000077,48,-64241,99,-18,0,-941*492c1772
%RAWIMUSA,2283,33681.010;2283,33681.010001633,00000077,-23,-64227,94,18,9,1033*6221a4fd
%RAWIMUSA,2283,33681.020;2283,33681.020001633,00000077,110,-64250,114,18,-8,868*df7da795
%RAWIMUSA,2283,33681.030;2283,33681.030001633,00000077,-40,-64228,110,-18,-9,-521*ee32d7d9
%RAWIMUSA,2283,33681.040;2283,33681.040001633,00000077,42,-64238,96,-9,-9,-841*845b2441
%RAWIMUSA,2283,33681.050;2283,33681.050001633,00000077,81,-64247,101,0,9,-63*5bf32db7
%RAWIMUSA,2283,33681.060;2283,33681.060001633,00000077,-42,-64225,106,18,0,1024*c3996ce7
%RAWIMUSA,2283,33681.070;2283,33681.070001633,00000077,92,-64251,109,0,-18,402*e3d6ab81
%RAWIMUSA,2283,33681.080;2283,33681.080001633,00000077,-8,-64237,101,-9,-9,-950*1db71b17
%RAWIMUSA,2283,33681.090;2283,33681.090001633,00000077,24,-64232,99,-18,8,-804*60451a17
%RAWIMUSA,2283,33681.100;2283,33681.100001633,00000077,87,-64250,106,18,0,832*6e06dd2c
%RAWIMUSA,2283,33681.110;2283,33681.110001633,00000077,-48,-64223,103,18,0,978*f735345a
%RAWIMUSA,2283,33681.120;2283,33681.120001633,00000077,87,-64244,108,-18,-18,-457*9381ebb0
%RAWIMUSA,2283,33681.130;2283,33681.130001633,00000077,17,-64236,100,-9,0,-978*4c2fe819
%RAWIMUSA,2283,33681.140;2283,33681.140001633,00000077,-9,-64230,106,0,9,109*1de83859
%RAWIMUSA,2283,33681.150;2283,33681.150001633,00000077,99,-64251,104,18,-8,841*e808b4fd
%RAWIMUSA,2283,33681.160;2283,33681.160001633,00000077,-45,-64225,98,0,-8,512*d5606db5
%RAWIMUSA,2283,33681.170;2283,33681.170001633,00000077,76,-64243,109,-18,-9,-868*bb0c356a
%RAWIMUSA,2283,33681.180;2283,33681.180001633,00000077,52,-64241,110,-9,8,-1024*63b539f1
%RAWIMUSA,2283,33681.190;2283,33681.190001633,00000077,-52,-64228,101,9,0,996*9e116154
%RAWIMUSA,2283,33681.200;2283,33681.200001633,00000077,109,-64252,99,18,-8,868*4ed18724
%RAWIMUSA,2283,33681.210;2283,33681.210001633,00000077,-16,-64226,101,-9,-9,-429*644ee851
%RAWIMUSA,2283,33681.220;2283,33681.220001633,00000077,29,-64237,109,-18,0,-822*015957b2
%RAWIMUSA,2283,33681.230;2283,33681.230001633,00000077,81,-64250,108,0,0,-146*7ec2002e
%RAWIMUSA,2283,33681.240;2283,33681.240001633,00000077,-59,-64224,98,18,0,987*4cb65bf4
%RAWIMUSA,2283,33681.250;2283,33681.250001633,00000077,100,-64248,104,0,-8,530*b6795643
%RAWIMUSA,2283,33681.260;2283,33681.260001633,00000077,16,-64235,104,-9,-19,-978*8f6fc5d8
%RAWIMUSA,2283,33681.270;2283,33681.270001633,00000077,-8,-64229,103,-18,8,-813*c973fb42
%RAWIMUSA,2283,33681.280;2283,33681.280001633,00000077,105,-64250,105,18,0,759*82951475
%RAWIMUSA,2283,33681.290;2283,33681.290001633,00000077,-46,-64224,100,18,-8,960*678383e8
%RAWIMUSA,2283,33681.300;2283,33681.300001633,00000077,78,-64245,110,-18,-9,-319*f767db9c
%RAWIMUSA,2283,33681.310;2283,33681.310001633,00000077,35,-64243,105,-9,0,-1005*7f8d6747
%RAWIMUSA,2283,33681.320;2283,33681.320001633,00000077,-34,-64227,97,0,9,0*12fb6603
%RAWIMUSA,2283,33681.330;2283,33681.330001633,00000077,111,-64250,106,18,-8,868*a4726bc9
%RAWIMUSA,2283,33681.340;2283,33681.340001633,00000077,-31,-64226,102,0,-8,576*342d589c
%RAWIMUSA,2283,33681.350;2283,33681.350001633,00000077,49,-64239,100,-18,-9,-841*efe804f5
%RAWIMUSA,2283,33681.360;2283,33681.360001633,00000077,58,-64247,103,-9,8,-1024*83ee6556
%RAWIMUSA,2283,33681.370;2283,33681.370001633,00000077,-42,-64226,105,18,0,887*5190e3b0
%RAWIMUSA,2283,33681.380;2283,33681.380001633,00000077,107,-64250,112,18,-8,896*dba58ff0
%RAWIMUSA,2283,33681.390;2283,33681.390001633,00000077,-13,-64231,98,-18,-18,-356*2278b465
%RAWIMUSA,2283,33681.400;2283,33681.400001633,00000077,12,-64233,96,-18,8,-832*d2fc1aec
%RAWIMUSA,2283,33681.410;2283,33681.410001633,00000077,98,-64247,104,9,0,-246*99a29fca
%RAWIMUSA,2283,33681.420;2283,33681.420001633,00000077,-48,-64226,106,18,0,978*620414c9
%RAWIMUSA,2283,33681.430;2283,33681.430001633,00000077,86,-64249,109,0,-8,640*c16e3cc5
%RAWIMUSA,2283,33681.440;2283,33681.440001633,00000077,12,-64239,97,-18,-10,-996*f20e79c1
%RAWIMUSA,2283,33681.450;2283,33681.450001633,00000077,-11,-64228,101,-9,0,-804*32d89ff6
%RAWIMUSA,2283,33681.460;2283,33681.460001633,00000077,116,-64249,114,18,9,667*a5c0ec7f
%RAWIMUSA,2283,33681.470;2283,33681.470001633,00000077,-42,-64227,107,9,-8,941*ad3cc4cd
%RAWIMUSA,2283,33681.480;2283,33681.480001633,00000077,54,-64243,99,-18,-9,-210*d6e11781
%RAWIMUSA,2283,33681.490;2283,33681.490001633,00000077,54,-64244,98,-9,0,-1005*fc2f39fd
%RAWIMUSA,2283,33681.500;2283,33681.500001633,00000077,-33,-64224,108,9,0,-109*30e888a2
%RAWIMUSA,2283,33681.510;2283,33681.510001633,00000077,105,-64250,112,18,0,887*56c5e84d
%RAWIMUSA,2283,33681.520;2283,33681.520001633,00000077,-25,-64228,96,-8,-17,658*de38411a
%RAWIMUSA,2283,33681.530;2283,33681.530001633,00000077,38,-64237,101,-18,0,-822*85be162d
%RAWIMUSA,2283,33681.540;2283,33681.540001633,00000077,82,-64250,111,0,8,-1005*0e33bace
%RAWIMUSA,2283,33681.550;2283,33681.550001633,00000077,-64,-64223,102,18,0,768*f91fd6d3
%RAWIMUSA,2283,33681.560;2283,33681.560001633,00000077,96,-64249,105,9,-8,905*ec25f8a8
%RAWIMUSA,2283,33681.570;2283,33681.570001633,00000077,15,-64234,104,-9,-18,-274*80f1980c
%RAWIMUSA,2283,33681.580;2283,33681.580001633,00000077,1,-64234,107,-27,8,-813*fd0d688d
%RAWIMUSA,2283,33681.590;2283,33681.590001633,00000077,86,-64250,103,9,0,-338*8e09d054
%RAWIMUSA,2283,33681.600;2283,33681.600001633,00000077,-47,-64228,97,18,-8,960*5faf3004
%RAWIMUSA,2283,33681.610;2283,33681.610001633,00000077,83,-64244,111,0,-8,749*a07bc25e
%RAWIMUSA,2283,33681.620;2283,33681.620001633,00000077,26,-64238,107,-18,0,-996*c28aaa5b
%RAWIMUSA,2283,33681.630;2283,33681.630001633,00000077,-30,-64229,96,0,8,-804*e5cf5cdb
%RAWIMUSA,2283,33681.640;2283,33681.640001633,00000077,116,-64251,108,18,-8,557*39f1c99a
%RAWIMUSA,2283,33681.650;2283,33681.650001633,00000077,-31,-64228,106,9,-8,932*44c6cb23
%RAWIMUSA,2283,33681.660;2283,33681.660001633,00000077,55,-64242,103,-18,-9,-100*87444c91
%RAWIMUSA,2283,33681.670;2283,33681.670001633,00000077,49,-64245,101,-18,0,-1014*b9d77ec8
%RAWIMUSA,2283,33681.680;2283,33681.680001633,00000077,-36,-64225,106,18,8,-210*f36705ee
%RAWIMUSA,2283,33681.690;2283,33681.690001633,00000077,121,-64249,110,18,-8,887*29bc7233
%RAWIMUSA,2283,33681.700;2283,33681.700001633,00000077,-23,-64228,94,-8,-8,749*145618fd
%RAWIMUSA,2283,33681.710;2283,33681.710001633,00000077,15,-64234,104,-18,0,-822*c5864824
%RAWIMUSA,2283,33681.720;2283,33681.720001633,00000077,97,-64250,113,0,0,-1014*239dfb09
%RAWIMUSA,2283,33681.730;2283,33681.730001633,00000077,-49,-64226,101,18,0,658*c22ed738
%RAWIMUSA,2283,33681.740;2283,33681.740001633,00000077,86,-64251,101,9,-8,932*3c867bee
%RAWIMUSA,2283,33681.750;2283,33681.750001633,00000077,10,-64236,103,-18,-9,-182*75320db6
%RAWIMUSA,2283,33681.760;2283,33681.760001633,00000077,-4,-64227,110,-18,8,-813*c008ae6b
%RAWIMUSA,2283,33681.770;2283,33681.770001633,00000077,114,-64254,106,18,0,-429*51ef07b5
%RAWIMUSA,2283,33681.780;2283,33681.780001633,00000077,-54,-64228,97,18,-8,951*17f0e14c
%RAWIMUSA,2283,33681.790;2283,33681.790001633,00000077,55,-64245,104,-8,-8,859*f69ee7fc
%RAWIMUSA,2283,33681.800;2283,33681.800001633,00000077,53,-64239,111,-18,0,-1005*97fa1f8b
%RAWIMUSA,2283,33681.810;2283,33681.810001633,00000077,-23,-64227,102,0,0,-813*aed1830b
%RAWIMUSA,2283,33681.820;2283,33681.820001633,00000077,106,-64251,102,9,0,484*fc2756fe
%RAWIMUSA,2283,33681.830;2283,33681.830001633,00000077,-36,-64230,101,9,-8,905*4fce0862
%RAWIMUSA,2283,33681.840;2283,33681.840001633,00000077,43,-64239,107,-18,-9,18*bc9edb31
%RAWIMUSA,2283,33681.850;2283,33681.850001633,00000077,77,-64247,107,-18,8,-1005*fa12397f
%RAWIMUSA,2283,33681.860;2283,33681.860001633,00000077,-43,-64226,100,18,0,-319*0ecb1a5d
%RAWIMUSA,2283,33681.870;2283,33681.870001633,00000077,94,-64250,105,18,-8,896*0c577b4b
%RAWIMUSA,2283,33681.880;2283,33681.880001633,00000077,5,-64228,106,-8,-8,832*12ccedb7
%RAWIMUSA,2283,33681.890;2283,33681.890001633,00000077,17,-64232,105,-18,0,-813*3f4a5fdc
%RAWIMUSA,2283,33681.900;2283,33681.900001633,00000077,87,-64250,104,0,8,-1005*88b35b05
%RAWIMUSA,2283,33681.910;2283,33681.910001633,00000077,-56,-64226,102,18,-8,539*b5bcb386
%RAWIMUSA,2283,33681.920;2283,33681.920001633,00000077,90,-64249,107,9,-8,932*52136742
%RAWIMUSA,2283,33681.930;2283,33681.930001633,00000077,28,-64238,100,-18,-9,-82*07d6917c
%RAWIMUSA,2283,33681.940;2283,33681.940001633,00000077,-19,-64227,104,-9,8,-804*afa4d546
%RAWIMUSA,2283,33681.950;2283,33681.950001633,00000077,102,-64250,108,9,0,-530*92f1746f
%RAWIMUSA,2283,33681.960;2283,33681.960001633,00000077,-45,-64227,100,18,-8,941*24badc9e
%RAWIMUSA,2283,33681.970;2283,33681.970001633,00000077,71,-64247,106,-8,-17,969*95db2c99
%RAWIMUSA,2283,33681.980;2283,33681.980001633,00000077,46,-64243,104,-9,8,-987*8d105729
%RAWIMUSA,2283,33681.990;2283,33681.990001633,00000077,-40,-64224,102,0,0,-813*a31c2a8d
%RAWIMUSA,2283,33682.000;2283,33682.000001633,00000077,114,-64252,109,18,-8,384*f3924a38
%RAWIMUSA,2283,33682.010;2283,33682.010001633,00000077,-31,-64226,104,0,-8,914*c97f2e53
%RAWIMUSA,2283,33682.020;2283,33682.020001633,00000077,28,-64239,97,-18,0,118*ce5e8c1d
%RAWIMUSA,2283,33682.030;2283,33682.030001633,00000077,84,-64249,107,-9,0,-1014*1d9d76c9
%RAWIMUSA,2283,33682.040;2283,33682.040001633,00000077,-54,-64224,111,9,0,-429*b5914197
%RAWIMUSA,2283,33682.050;2283,33682.050001633,00000077,104,-64250,106,18,-8,923*08ce1b25
%RAWIMUSA,2283,33682.060;2283,33682.060001633,00000077,11,-64234,97,-8,-8,850*b0ef195a
%RAWIMUSA,2283,33682.070;2283,33682.070001633,00000077,-10,-64232,100,-18,8,-749*97971a25
%RAWIMUSA,2283,33682.080;2283,33682.080001633,00000077,102,-64250,119,9,0,-1005*7a1e8ba4
%RAWIMUSA,2283,33682.090;2283,33682.090001633,00000077,-45,-64226,103,9,-8,429*df58aa63
%RAWIMUSA,2283,33682.100;2283,33682.100001633,00000077,83,-64247,98,9,-8,960*b1f5c6f0
%RAWIMUSA,2283,33682.110;2283,33682.110001633,00000077,38,-64239,98,-18,0,0*91f0242d
%RAWIMUSA,2283,33682.120;2283,33682.120001633,00000077,-30,-64226,109,-9,8,-813*efa9add9
%RAWIMUSA,2283,33682.130;2283,33682.130001633,00000077,109,-64250,113,18,0,-603*95554ac3
%RAWIMUSA,2283,33682.140;2283,33682.140001633,00000077,-32,-64226,99,9,-17,914*4ad08cae
%RAWIMUSA,2283,33682.150;2283,33682.150001633,00000077,53,-64242,100,-8,-8,987*bb7e467c
%RAWIMUSA,2283,33682.160;2283,33682.160001633,00000077,58,-64246,109,-18,8,-896*0b6f4862
%RAWIMUSA,2283,33682.170;2283,33682.170001633,00000077,-46,-64222,104,9,0,-831*fba7ee5e
%RAWIMUSA,2283,33682.180;2283,33682.180001633,00000077,115,-64252,102,18,-9,310*ed4da1a3
%RAWIMUSA,2283,33682.190;2283,33682.190001633,00000077,-15,-64229,105,0,-8,896*13d6e98d
%RAWIMUSA,2283,33682.200;2283,33682.200001633,00000077,8,-64236,109,-18,0,228*e58831d1
%RAWIMUSA,2283,33682.210;2283,33682.210001633,00000077,93,-64250,107,-9,0,-1014*03221758
%RAWIMUSA,2283,33682.220;2283,33682.220001633,00000077,-42,-64225,101,18,0,-548*82f3f17b
%RAWIMUSA,2283,33682.230;2283,33682.230001633,00000077,95,-64248,106,18,-8,941*08aaee68
%RAWIMUSA,2283,33682.240;2283,33682.240001633,00000077,8,-64235,101,-18,-8,841*d40f636e
%RAWIMUSA,2283,33682.250;2283,33682.250001633,00000077,-23,-64234,103,-18,0,-649*ed935088
%RAWIMUSA,2283,33682.260;2283,33682.260001633,00000077,120,-64250,111,0,8,-996*5127fa23
%RAWIMUSA,2283,33682.270;2283,33682.270001633,00000077,-42,-64228,99,18,-18,292*78b96914
%RAWIMUSA,2283,33682.280;2283,33682.280001633,00000077,50,-64244,103,0,-8,987*e78ae50a
%RAWIMUSA,2283,33682.290;2283,33682.290001633,00000077,63,-64245,106,-18,0,82*0409c761
%RAWIMUSA,2283,33682.300;2283,33682.300001633,00000077,-33,-64226,104,-9,8,-822*f291774e
%RAWIMUSA,2283,33682.310;2283,33682.310001633,00000077,110,-64247,108,18,-9,-676*131c76f9
%RAWIMUSA,2283,33682.320;2283,33682.320001633,00000077,-30,-64233,95,18,-8,887*3b8e43bb
%RAWIMUSA,2283,33682.330;2283,33682.330001633,00000077,24,-64233,111,-18,-8,1015*43c57edd
%RAWIMUSA,2283,33682.340;2283,33682.340001632,00000077,102,-64249,111,-18,8,-804*1fdff7c9
%RAWIMUSA,2283,33682.350;2283,33682.350001632,00000077,-58,-64224,96,9,8,-841*eed91766
%RAWIMUSA,2283,33682.360;2283,33682.360001632,00000077,87,-64248,98,18,-18,237*5bb2e7e5
%RAWIMUSA,2283,33682.370;2283,33682.370001632,00000077,15,-64238,104,0,-8,850*29701324
%RAWIMUSA,2283,33682.380;2283,33682.380001632,00000077,-4,-64230,111,-18,9,329*6275045e
%RAWIMUSA,2283,33682.390;2283,33682.390001632,00000077,104,-64249,103,-9,0,-996*b8270148
%RAWIMUSA,2283,33682.400;2283,33682.400001632,00000077,-50,-64226,93,18,0,-676*7aebdc63
%RAWIMUSA,2283,33682.410;2283,33682.410001632,00000077,72,-64243,104,18,-17,969*e55f7661
%RAWIMUSA,2283,33682.420;2283,33682.420001632,00000077,43,-64240,112,-18,0,832*1d3d41a0
%RAWIMUSA,2283,33682.430;2283,33682.430001632,00000077,-36,-64228,102,-18,0,-548*d05aec0d
%RAWIMUSA,2283,33682.440;2283,33682.440001632,00000077,109,-64250,99,9,8,-960*725d546a
%RAWIMUSA,2283,33682.450;2283,33682.450001632,00000077,-30,-64230,100,18,-18,182*6bba2b80
%RAWIMUSA,2283,33682.460;2283,33682.460001632,00000077,42,-64240,114,0,-8,987*60998e5f
%RAWIMUSA,2283,33682.470;2283,33682.470001632,00000077,72,-64248,104,-18,0,192*a03d07df
%RAWIMUSA,2283,33682.480;2283,33682.480001632,00000077,-41,-64225,95,0,8,-832*b7d0f4ab
%RAWIMUSA,2283,33682.490;2283,33682.490001632,00000077,100,-64249,108,18,-9,-767*35ff27f8
%RAWIMUSA,2283,33682.500;2283,33682.500001632,00000077,-13,-64231,112,9,-8,877*21de6b00
%RAWIMUSA,2283,33682.510;2283,33682.510001632,00000077,15,-64233,103,-18,-8,1015*d4ae54fa
%RAWIMUSA,2283,33682.520;2283,33682.520001632,00000077,100,-64253,94,-9,8,-703*db6f5660
%RAWIMUSA,2283,33682.530;2283,33682.530001632,00000077,-51,-64225,101,9,0,-859*91b94271
%RAWIMUSA,2283,33682.540;2283,33682.540001632,00000077,83,-64246,118,18,-9,155*f30bd2f3
%RAWIMUSA,2283,33682.550;2283,33682.550001632,00000077,18,-64238,106,-8,-17,841*a88835f5
%RAWIMUSA,2283,33682.560;2283,33682.560001632,00000077,-11,-64228,89,-8,9,438*6e9bc8c1
%RAWIMUSA,2283,33682.570;2283,33682.570001632,00000077,105,-64252,104,-9,8,-987*b7598f87
%RAWIMUSA,2283,33682.580;2283,33682.580001632,00000077,-46,-64225,119,18,-9,-777*2f1c316f
%RAWIMUSA,2283,33682.590;2283,33682.590001632,00000077,64,-64245,106,9,-8,969*cff24e44
%RAWIMUSA,2283,33682.600;2283,33682.600001632,00000077,46,-64241,91,-18,-8,832*032b1b19
%RAWIMUSA,2283,33682.610;2283,33682.610001632,00000077,-40,-64227,101,-18,8,-447*15b360f7
%RAWIMUSA,2283,33682.620;2283,33682.620001632,00000077,115,-64251,119,18,0,-960*23bc8820
%RAWIMUSA,2283,33682.630;2283,33682.630001632,00000077,-29,-64231,103,18,-18,64*baacb21d
%RAWIMUSA,2283,33682.640;2283,33682.640001632,00000077,31,-64235,95,-8,0,1005*7718a3b1
%RAWIMUSA,2283,33682.650;2283,33682.650001632,00000077,93,-64251,104,-18,0,292*1819c11c
%RAWIMUSA,2283,33682.660;2283,33682.660001632,00000077,-58,-64226,112,0,8,-850*7327d790
%RAWIMUSA,2283,33682.670;2283,33682.670001632,00000077,89,-64246,105,18,-9,-841*d73a5cb8
%RAWIMUSA,2283,33682.680;2283,33682.680001632,00000077,17,-64238,96,9,-17,850*ba466512
%RAWIMUSA,2283,33682.690;2283,33682.690001632,00000077,-5,-64229,102,-18,9,1024*0fce5612
%RAWIMUSA,2283,33682.700;2283,33682.700001632,00000077,105,-64252,112,-18,0,-575*fefaffab
%RAWIMUSA,2283,33682.710;2283,33682.710001632,00000077,-51,-64227,99,18,0,-895*73c3c998
%RAWIMUSA,2283,33682.720;2283,33682.720001632,00000077,71,-64245,100,18,-9,100*6e96adc0
%RAWIMUSA,2283,33682.730;2283,33682.730001632,00000077,54,-64244,104,-8,-8,823*e7533297
%RAWIMUSA,2283,33682.740;2283,33682.740001632,00000077,-39,-64225,110,-18,9,539*620e8831
%RAWIMUSA,2283,33682.750;2283,33682.750001632,00000077,107,-64251,107,0,0,-960*169e1411
%RAWIMUSA,2283,33682.760;2283,33682.760001632,00000077,-16,-64227,98,18,-9,-914*d0f077bd
%RAWIMUSA,2283,33682.770;2283,33682.770001632,00000077,41,-64239,100,9,-8,996*df573b2c
%RAWIMUSA,2283,33682.780;2283,33682.780001632,00000077,63,-64247,108,-18,0,832*f2c0767e
%RAWIMUSA,2283,33682.790;2283,33682.790001632,00000077,-52,-64226,104,-18,8,-374*d563d297
%RAWIMUSA,2283,33682.800;2283,33682.800001632,00000077,102,-64248,103,18,-10,-941*89e947f1
%RAWIMUSA,2283,33682.810;2283,33682.810001632,00000077,-2,-64229,100,18,-9,-45*3fcc34e4
%RAWIMUSA,2283,33682.820;2283,33682.820001632,00000077,17,-64232,108,-8,-8,1015*eb75e40e
%RAWIMUSA,2283,33682.830;2283,33682.830001632,00000077,83,-64251,112,-18,0,393*3967aa9b
%RAWIMUSA,2283,33682.840;2283,33682.840001632,00000077,-53,-64224,99,0,8,-859*ac4ed5f3
%RAWIMUSA,2283,33682.850;2283,33682.850001632,00000077,93,-64250,100,18,-9,-886*2f7fd12d
%RAWIMUSA,2283,33682.860;2283,33682.860001632,00000077,18,-64236,105,9,-8,804*49cc2886
%RAWIMUSA,2283,33682.870;2283,33682.870001632,00000077,-9,-64231,114,-18,0,1033*c45ce9fd
%RAWIMUSA,2283,33682.880;2283,33682.880001632,00000077,107,-64251,107,-18,8,-484*69c76985
%RAWIMUSA,2283,33682.890;2283,33682.890001632,00000077,-45,-64227,87,18,-9,-886*faf548e7
%RAWIMUSA,2283,33682.900;2283,33682.900001632,00000077,65,-64243,102,18,-18,-9*71a78a31
%RAWIMUSA,2283,33682.910;2283,33682.910001632,00000077,46,-64244,117,-8,0,823*b33596a4
%RAWIMUSA,2283,33682.920;2283,33682.920001632,00000077,-27,-64225,110,-18,9,640*67c0a9d1
%RAWIMUSA,2283,33682.930;2283,33682.930001632,00000077,110,-64250,96,0,-9,-960*9be943fe
%RAWIMUSA,2283,33682.940;2283,33682.940001632,00000077,-26,-64227,96,18,-9,-923*10672c9b
%RAWIMUSA,2283,33682.950;2283,33682.950001632,00000077,44,-64239,117,0,-8,905*7611cec4
%RAWIMUSA,2283,33682.960;2283,33682.960001632,00000077,71,-64247,109,-8,0,823*54bb9d33
%RAWIMUSA,2283,33682.970;2283,33682.970001632,00000077,-55,-64228,92,-18,8,-274*f241a2b2
%RAWIMUSA,2283,33682.980;2283,33682.980001632,00000077,104,-64248,104,18,0,-941*49eefa2c
%RAWIMUSA,2283,33682.990;2283,33682.990001632,00000077,0,-64231,112,18,-18,-146*741a3f36
%RAWIMUSA,2283,33683.000;2283,33683.000001632,00000077,11,-64235,108,-18,9,1015*6d8af94c
%RAWIMUSA,2283,33683.010;2283,33683.010001632,00000077,85,-64246,100,-18,0,503*d7a4c66c
%RAWIMUSA,2283,33683.020;2283,33683.020001632,00000077,-48,-64229,98,9,0,-859*0f606fbf
%RAWIMUSA,2283,33683.030;2283,33683.030001632,00000077,94,-64251,113,18,-9,-886*79cd455a
%RAWIMUSA,2283,33683.040;2283,33683.040001632,00000077,11,-64235,110,0,-17,713*6aa4ba1e
%RAWIMUSA,2283,33683.050;2283,33683.050001632,00000077,-16,-64228,90,-18,9,1024*2a5f14e9
%RAWIMUSA,2283,33683.060;2283,33683.060001632,00000077,114,-64252,104,-9,8,-383*dba9acdd
%RAWIMUSA,2283,33683.070;2283,33683.070001632,00000077,-38,-64228,114,18,-9,-886*475921fd
%RAWIMUSA,2283,33683.080;2283,33683.080001632,00000077,59,-64245,112,18,-18,-109*a8c87780
%RAWIMUSA,2283,33683.090;2283,33683.090001632,00000077,42,-64246,88,-18,0,832*a3e27edd
%RAWIMUSA,2283,33683.100;2283,33683.100001632,00000077,-28,-64225,94,-18,9,722*c7e91570
%RAWIMUSA,2283,33683.110;2283,33683.110001632,00000077,120,-64248,121,9,-10,-950*50883ac1
%RAWIMUSA,2283,33683.120;2283,33683.120001632,00000077,-31,-64227,106,18,-9,-932*ff6cfe91
%RAWIMUSA,2283,33683.130;2283,33683.130001632,00000077,21,-64240,88,0,-8,823*7c24314c
%RAWIMUSA,2283,33683.140;2283,33683.140001632,00000077,89,-64250,102,-18,0,823*f0afaab9
%RAWIMUSA,2283,33683.150;2283,33683.150001632,00000077,-38,-64227,114,-9,8,-182*2af5fd36
%RAWIMUSA,2283,33683.160;2283,33683.160001632,00000077,88,-64249,107,9,-9,-932*7ca385a8
%RAWIMUSA,2283,33683.170;2283,33683.170001632,00000077,0,-64232,89,18,-9,-255*60d5d464
%RAWIMUSA,2283,33683.180;2283,33683.180001632,00000077,13,-64229,99,-18,0,1024*27078c99
%RAWIMUSA,2283,33683.190;2283,33683.190001632,00000077,99,-64251,115,-18,9,603*01bb6f08
%RAWIMUSA,2283,33683.200;2283,33683.200001632,00000077,-62,-64225,108,9,0,-868*6f683631
%RAWIMUSA,2283,33683.210;2283,33683.210001632,00000077,79,-64245,91,18,-19,-886*2958d670
%RAWIMUSA,2283,33683.220;2283,33683.220001632,00000077,44,-64239,96,0,-8,603*a7b023e1
%RAWIMUSA,2283,33683.230;2283,33683.230001632,00000077,-27,-64228,112,-18,9,1024*21507755
%RAWIMUSA,2283,33683.240;2283,33683.240001632,00000077,100,-64249,114,-9,0,-265*decd976d
%RAWIMUSA,2283,33683.250;2283,33683.250001632,00000077,-42,-64228,92,18,-9,-914*ebc7c3d2
%RAWIMUSA,2283,33683.260;2283,33683.260001632,00000077,53,-64240,96,18,-9,-201*430b2ab8
%RAWIMUSA,2283,33683.270;2283,33683.270001632,00000077,65,-64244,116,-18,0,832*4d789a29
%RAWIMUSA,2283,33683.280;2283,33683.280001632,00000077,-53,-64224,111,-18,0,832*e669743e
%RAWIMUSA,2283,33683.290;2283,33683.290001632,00000077,106,-64251,95,0,0,-941*46da9f7b
%RAWIMUSA,2283,33683.300;2283,33683.300001632,00000077,-6,-64229,90,27,-19,-969*25d5f777
%RAWIMUSA,2283,33683.310;2283,33683.310001632,00000077,15,-64233,113,0,0,731*b6585b2c
%RAWIMUSA,2283,33683.320;2283,33683.320001632,00000077,90,-64251,117,-27,0,823*16b2e4c0
%RAWIMUSA,2283,33683.330;2283,33683.330001632,00000077,-55,-64227,92,0,0,-109*ee770098
%RAWIMUSA,2283,33683.340;2283,33683.340001632,00000077,101,-64249,98,18,-9,-895*1c8537fb
%RAWIMUSA,2283,33683.350;2283,33683.350001632,00000077,21,-64235,108,18,-9,-393*e720c7a6
%RAWIMUSA,2283,33683.360;2283,33683.360001632,00000077,-18,-64229,115,-18,0,1024*8b520d78
%RAWIMUSA,2283,33683.370;2283,33683.370001632,00000077,99,-64251,104,-18,0,722*2b680ee3
%RAWIMUSA,2283,33683.380;2283,33683.380001632,00000077,-41,-64227,91,9,0,-886*61281ee7
%RAWIMUSA,2283,33683.390;2283,33683.390001632,00000077,75,-64244,105,18,-9,-877*cda28073
%RAWIMUSA,2283,33683.400;2283,33683.400001632,00000077,46,-64244,117,-8,-8,493*2d8f5895
%RAWIMUSA,2283,33683.410;2283,33683.410001632,00000077,-42,-64225,103,-18,9,1024*0ebbc00a
%RAWIMUSA,2283,33683.420;2283,33683.420001632,00000077,118,-64251,99,0,0,-164*3bb00bc8
%RAWIMUSA,2283,33683.430;2283,33683.430001632,00000077,-27,-64230,99,18,-9,-923*e7cd95de
%RAWIMUSA,2283,33683.440;2283,33683.440001632,00000077,32,-64238,111,9,-9,-274*299d3c9e
%RAWIMUSA,2283,33683.450;2283,33683.450001632,00000077,70,-64247,105,-18,0,823*f3593dee
%RAWIMUSA,2283,33683.460;2283,33683.460001632,00000077,-43,-64225,93,-18,0,914*65de6ffd
%RAWIMUSA,2283,33683.470;2283,33683.470001632,00000077,107,-64249,103,18,0,-932*5dac2592
%RAWIMUSA,2283,33683.480;2283,33683.480001632,00000077,-12,-64231,109,9,-19,-959*593d19d8
%RAWIMUSA,2283,33683.490;2283,33683.490001632,00000077,4,-64233,110,0,0,631*35b9b852
%RAWIMUSA,2283,33683.500;2283,33683.500001632,00000077,96,-64247,97,-18,0,823*11ad4feb
%RAWIMUSA,2283,33683.510;2283,33683.510001632,00000077,-45,-64225,95,-9,0,0*0aab42ee
%RAWIMUSA,2283,33683.520;2283,33683.520001632,00000077,93,-64248,114,18,-9,-895*2237db5f
%RAWIMUSA,2283,33683.530;2283,33683.530001632,00000077,16,-64239,111,9,-18,-484*e6aaee5d
%RAWIMUSA,2283,33683.540;2283,33683.540001632,00000077,-15,-64230,94,-18,9,1024*f2d49582
%RAWIMUSA,2283,33683.550;2283,33683.550001632,00000077,118,-64251,101,-8,9,813*6c839564
%RAWIMUSA,2283,33683.560;2283,33683.560001632,00000077,-50,-64227,111,9,-9,-905*d94ea741
%RAWIMUSA,2283,33683.570;2283,33683.570001632,00000077,62,-64243,114,18,-19,-859*7311c839
%RAWIMUSA,2283,33683.580;2283,33683.580001632,00000077,60,-64243,98,-8,0,384*0d2f58b1
%RAWIMUSA,2283,33683.590;2283,33683.590001632,00000077,-36,-64226,93,-18,9,1015*7c9a8564
%RAWIMUSA,2283,33683.600;2283,33683.600001632,00000077,103,-64252,112,0,0,-45*a5900628
%RAWIMUSA,2283,33683.610;2283,33683.610001632,00000077,-31,-64227,111,18,-19,-932*393ac99f
%RAWIMUSA,2283,33683.620;2283,33683.620001632,00000077,41,-64242,98,9,0,-393*12aa7c5a
%RAWIMUSA,2283,33683.630;2283,33683.630001632,00000077,77,-64249,97,-18,0,813*2c3d50d5
%RAWIMUSA,2283,33683.640;2283,33683.640001632,00000077,-48,-64226,107,-18,9,1005*3024eab2
%RAWIMUSA,2283,33683.650;2283,33683.650001632,00000077,93,-64248,113,18,-9,-914*64d444f5
%RAWIMUSA,2283,33683.660;2283,33683.660001632,00000077,-5,-64232,98,9,-19,-959*f6774978
%RAWIMUSA,2283,33683.670;2283,33683.670001632,00000077,16,-64235,97,0,0,530*dcf1092a
%RAWIMUSA,2283,33683.680;2283,33683.680001632,00000077,91,-64250,110,-18,9,832*49785ebf
%RAWIMUSA,2283,33683.690;2283,33683.690001632,00000077,-55,-64226,104,0,0,100*e44b648d
%RAWIMUSA,2283,33683.700;2283,33683.700001632,00000077,94,-64248,102,9,-19,-895*5bf4c3bc
%RAWIMUSA,2283,33683.710;2283,33683.710001632,00000077,21,-64238,100,9,-9,-585*a0c3ad8a
%RAWIMUSA,2283,33683.720;2283,33683.720001632,00000077,-22,-64229,107,-18,9,1024*c97337e0
%RAWIMUSA,2283,33683.730;2283,33683.730001632,00000077,106,-64250,110,-18,0,850*1b7ed799
%RAWIMUSA,2283,33683.740;2283,33683.740001632,00000077,-45,-64228,96,18,-9,-831*4d927095
%RAWIMUSA,2283,33683.750;2283,33683.750001632,00000077,67,-64240,102,18,-19,-859*6823df98
%RAWIMUSA,2283,33683.760;2283,33683.760001632,00000077,65,-64247,108,-8,0,283*d5480101
%RAWIMUSA,2283,33683.770;2283,33683.770001632,00000077,-46,-64227,106,-18,9,1015*a498017a
%RAWIMUSA,2283,33683.780;2283,33683.780001632,00000077,105,-64250,103,0,0,64*000232b5
%RAWIMUSA,2283,33683.790;2283,33683.790001632,00000077,-13,-64230,102,18,-10,-950*1fceb325
%RAWIMUSA,2283,33683.800;2283,33683.800001632,00000077,17,-64233,105,9,-9,-457*f2433808
%RAWIMUSA,2283,33683.810;2283,33683.810001632,00000077,92,-64250,109,-18,0,804*84a0c879
%RAWIMUSA,2283,33683.820;2283,33683.820001632,00000077,-51,-64225,99,-18,0,978*0c8a4f4f
%RAWIMUSA,2283,33683.830;2283,33683.830001632,00000077,94,-64249,102,18,-9,-786*aeb008c1
%RAWIMUSA,2283,33683.840;2283,33683.840001632,00000077,10,-64235,104,18,-10,-987*3efeec4c
%RAWIMUSA,2283,33683.850;2283,33683.850001632,00000077,-13,-64230,103,-8,0,448*98d7889f
%RAWIMUSA,2283,33683.860;2283,33683.860001632,00000077,102,-64253,102,-18,9,841*8ba39bd1
%RAWIMUSA,2283,33683.870;2283,33683.870001632,00000077,-44,-64227,103,0,-9,173*5eacedd1
%RAWIMUSA,2283,33683.880;2283,33683.880001632,00000077,72,-64245,109,9,-9,-868*f241b670
%RAWIMUSA,2283,33683.890;2283,33683.890001632,00000077,43,-64242,106,9,-9,-694*ea47eec9
%RAWIMUSA,2283,33683.900;2283,33683.900001632,00000077,-38,-64226,99,-18,0,1015*56ba9fb0
%RAWIMUSA,2283,33683.910;2283,33683.910001632,00000077,108,-64249,105,-8,9,877*8e2e01b9
%RAWIMUSA,2283,33683.920;2283,33683.920001632,00000077,-26,-64228,103,9,-19,-767*e1a77d04
%RAWIMUSA,2283,33683.930;2283,33683.930001632,00000077,40,-64240,105,18,-9,-822*c62b1b03
%RAWIMUSA,2283,33683.940;2283,33683.940001632,00000077,77,-64247,104,-9,9,182*b20d2494
%RAWIMUSA,2283,33683.950;2283,33683.950001632,00000077,-50,-64224,99,-18,9,996*66f99b54
%RAWIMUSA,2283,33683.960;2283,33683.960001632,00000077,102,-64248,110,0,-9,182*17fee28c
%RAWIMUSA,2283,33683.970;2283,33683.970001632,00000077,-5,-64235,106,18,-19,-959*192068f4
%RAWIMUSA,2283,33683.980;2283,33683.980001632,00000077,7,-64232,97,0,0,-566*f661a5a7
%RAWIMUSA,2283,33683.990;2283,33683.990001632,00000077,103,-64246,101,-8,9,832*5a6bad9f
%RAWIMUSA,2283,33684.000;2283,33684.000001632,00000077,-49,-64223,107,-18,0,978*95ae9d3e
%RAWIMUSA,2283,33684.010;2283,33684.010001632,00000077,88,-64245,120,18,-9,-676*813617aa
%RAWIMUSA,2283,33684.020;2283,33684.020001632,00000077,16,-64237,95,18,-19,-987*31ef4fb0
%RAWIMUSA,2283,33684.030;2283,33684.030001632,00000077,-17,-64230,91,-18,9,338*6f643db3
%RAWIMUSA,2283,33684.040;2283,33684.040001632,00000077,113,-64253,111,-8,0,841*5864c12b
%RAWIMUSA,2283,33684.050;2283,33684.050001632,00000077,-39,-64226,112,0,0,265*e1ccdc0a
%RAWIMUSA,2283,33684.060;2283,33684.060001632,00000077,56,-64244,104,18,-9,-859*a95401b8
%RAWIMUSA,2283,33684.070;2283,33684.070001632,00000077,48,-64243,96,0,-9,-795*8852c3eb
%RAWIMUSA,2283,33684.080;2283,33684.080001632,00000077,-35,-64226,103,-18,9,1015*87745b15
%RAWIMUSA,2283,33684.090;2283,33684.090001632,00000077,105,-64254,114,-8,-8,868*caba1889
%RAWIMUSA,2283,33684.100;2283,33684.100001632,00000077,-29,-64226,101,18,-9,-658*0c647abf
%RAWIMUSA,2283,33684.110;2283,33684.110001632,00000077,40,-64238,97,18,-9,-841*86b99c85
%RAWIMUSA,2283,33684.120;2283,33684.120001632,00000077,84,-64247,102,-18,9,82*1188683a
%RAWIMUSA,2283,33684.130;2283,33684.130001632,00000077,-49,-64223,104,-18,9,1005*9aed7664
%RAWIMUSA,2283,33684.140;2283,33684.140001632,00000077,99,-64249,108,9,-18,274*00ec12f5
%RAWIMUSA,2283,33684.150;2283,33684.150001632,00000077,-11,-64236,100,18,-10,-969*2e6ccb3b
%RAWIMUSA,2283,33684.160;2283,33684.160001632,00000077,18,-64232,103,0,0,-658*b6528845
%RAWIMUSA,2283,33684.170;2283,33684.170001632,00000077,97,-64248,108,-18,9,832*96976fba
%RAWIMUSA,2283,33684.180;2283,33684.180001632,00000077,-55,-64224,102,-8,0,960*7b429f4a
%RAWIMUSA,2283,33684.190;2283,33684.190001632,00000077,85,-64248,109,18,-18,-575*08d6f66b
%RAWIMUSA,2283,33684.200;2283,33684.200001632,00000077,22,-64236,101,18,0,-1005*97cef66d
%RAWIMUSA,2283,33684.210;2283,33684.210001632,00000077,-9,-64231,100,-18,0,237*5cf6d5ba
%RAWIMUSA,2283,33684.220;2283,33684.220001632,00000077,112,-64252,107,-18,0,850*80097a7a
%RAWIMUSA,2283,33684.230;2283,33684.230001632,00000077,-51,-64225,102,9,-8,356*bec36a7f
%RAWIMUSA,2283,33684.240;2283,33684.240001632,00000077,61,-64241,101,18,-9,-859*d6f7c3bd
%RAWIMUSA,2283,33684.250;2283,33684.250001631,00000077,62,-64245,105,0,0,-905*3bacf320
%RAWIMUSA,2283,33684.260;2283,33684.260001631,00000077,-50,-64227,107,-18,9,1005*b8660545
%RAWIMUSA,2283,33684.270;2283,33684.270001631,00000077,107,-64250,107,-8,0,896*c6a91b36
%RAWIMUSA,2283,33684.280;2283,33684.280001631,00000077,-13,-64232,98,18,-18,-585*d84e3b8d
%RAWIMUSA,2283,33684.290;2283,33684.290001631,00000077,17,-64235,100,9,0,-813*a91bfbd2
%RAWIMUSA,2283,33684.300;2283,33684.300001631,00000077,92,-64248,111,-18,9,-9*864b13c2
%RAWIMUSA,2283,33684.310;2283,33684.310001631,00000077,-53,-64227,105,-8,0,960*e2417de3
%RAWIMUSA,2283,33684.320;2283,33684.320001631,00000077,83,-64249,102,0,-8,411*c262ce52
%RAWIMUSA,2283,33684.330;2283,33684.330001631,00000077,23,-64239,100,18,-10,-987*fe62e5bc
%RAWIMUSA,2283,33684.340;2283,33684.340001631,00000077,-15,-64228,108,0,0,-749*223ee242
%RAWIMUSA,2283,33684.350;2283,33684.350001631,00000077,109,-64250,113,-18,9,859*706a2502
%RAWIMUSA,2283,33684.360;2283,33684.360001631,00000077,-43,-64226,98,0,-8,932*b0b33acb
%RAWIMUSA,2283,33684.370;2283,33684.370001631,00000077,57,-64242,98,18,-9,-429*54a7dd2b
%RAWIMUSA,2283,33684.380;2283,33684.380001631,00000077,64,-64246,109,9,0,-1014*93255712
%RAWIMUSA,2283,33684.390;2283,33684.390001631,00000077,-42,-64226,110,-18,0,137*86bcbc88
%RAWIMUSA,2283,33684.400;2283,33684.400001631,00000077,107,-64251,105,-18,0,887*3d56dd04
%RAWIMUSA,2283,33684.410;2283,33684.410001631,00000077,-14,-64230,92,18,-8,402*a5153e93
%RAWIMUSA,2283,33684.420;2283,33684.420001631,00000077,23,-64234,107,18,-19,-813*7f544b89
%RAWIMUSA,2283,33684.430;2283,33684.430001631,00000077,90,-64248,116,-9,8,-996*31711824
%RAWIMUSA,2283,33684.440;2283,33684.440001631,00000077,-52,-64224,99,-18,0,978*83df9fb3
%RAWIMUSA,2283,33684.450;2283,33684.450001631,00000077,91,-64250,99,0,-8,923*6f1e4426
%RAWIMUSA,2283,33684.460;2283,33684.460001631,00000077,19,-64233,108,18,-9,-511*b0dc880c
%RAWIMUSA,2283,33684.470;2283,33684.470001631,00000077,-1,-64231,108,9,0,-813*61bb1b03
%RAWIMUSA,2283,33684.480;2283,33684.480001631,00000077,96,-64249,103,-18,9,-91*596bfa73
%RAWIMUSA,2283,33684.490;2283,33684.490001631,00000077,-50,-64224,92,-18,-8,951*50a82506
%RAWIMUSA,2283,33684.500;2283,33684.500001631,00000077,79,-64246,111,18,-8,530*284b7330
%RAWIMUSA,2283,33684.510;2283,33684.510001631,00000077,33,-64237,109,9,-10,-987*c4099305
%RAWIMUSA,2283,33684.520;2283,33684.520001631,00000077,-24,-64228,100,0,8,-804*198c0ac8
%RAWIMUSA,2283,33684.530;2283,33684.530001631,00000077,108,-64251,103,-18,9,804*49a9b273
%RAWIMUSA,2283,33684.540;2283,33684.540001631,00000077,-25,-64226,104,0,-8,923*c7ed2542
%RAWIMUSA,2283,33684.550;2283,33684.550001631,00000077,42,-64240,108,18,-18,-329*4e47ef84
%RAWIMUSA,2283,33684.560;2283,33684.560001631,00000077,61,-64247,105,9,0,-1005*b79410d7
%RAWIMUSA,2283,33684.570;2283,33684.570001631,00000077,-39,-64225,99,-18,9,18*89970dc9
%RAWIMUSA,2283,33684.580;2283,33684.580001631,00000077,108,-64249,102,-18,-8,896*78d45ac4
%RAWIMUSA,2283,33684.590;2283,33684.590001631,00000077,-10,-64230,106,9,-8,503*46a34f11
%RAWIMUSA,2283,33684.600;2283,33684.600001631,00000077,9,-64233,105,18,0,-831*28088f37
%RAWIMUSA,2283,33684.610;2283,33684.610001631,00000077,98,-64247,103,0,0,-1005*9f338ad9
%RAWIMUSA,2283,33684.620;2283,33684.620001631,00000077,-50,-64226,97,-18,0,887*3a2db0ae
%RAWIMUSA,2283,33684.630;2283,33684.630001631,00000077,91,-64250,110,0,-8,941*8eda44d7
%RAWIMUSA,2283,33684.640;2283,33684.640001631,00000077,24,-64239,106,9,-9,-438*74b115e4
%RAWIMUSA,2283,33684.650;2283,33684.650001631,00000077,-27,-64227,94,9,0,-804*584cca43
%RAWIMUSA,2283,33684.660;2283,33684.660001631,00000077,120,-64252,103,-9,0,-182*22862a97
%RAWIMUSA,2283,33684.670;2283,33684.670001631,00000077,-42,-64227,109,-18,0,932*7415f05c
%RAWIMUSA,2283,33684.680;2283,33684.680001631,00000077,49,-64242,109,9,-8,649*db83d98c
%RAWIMUSA,2283,33684.690;2283,33684.690001631,00000077,62,-64247,96,18,-10,-1014*948b4e11
%RAWIMUSA,2283,33684.700;2283,33684.700001631,00000077,-41,-64225,99,0,0,-831*dbb2fd72
%RAWIMUSA,2283,33684.710;2283,33684.710001631,00000077,111,-64250,113,-18,9,749*fc902ae1
%RAWIMUSA,2283,33684.720;2283,33684.720001631,00000077,-21,-64232,102,0,-8,877*fb4ef584
%RAWIMUSA,2283,33684.730;2283,33684.730001631,00000077,5,-64235,100,18,-9,-201*49953fe7
%RAWIMUSA,2283,33684.740;2283,33684.740001631,00000077,101,-64249,102,9,0,-1014*c3788a98
%RAWIMUSA,2283,33684.750;2283,33684.750001631,00000077,-54,-64223,105,-18,9,-109*11737ed3
%RAWIMUSA,2283,33684.760;2283,33684.760001631,00000077,90,-64248,109,-18,-8,951*19d0c4f3
%RAWIMUSA,2283,33684.770;2283,33684.770001631,00000077,25,-64237,98,18,-8,557*c1f94369
%RAWIMUSA,2283,33684.780;2283,33684.780001631,00000077,-17,-64229,101,18,0,-804*c41e1774
%RAWIMUSA,2283,33684.790;2283,33684.790001631,00000077,106,-64252,112,-9,0,-987*c2b066ad
%RAWIMUSA,2283,33684.800;2283,33684.800001631,00000077,-42,-64226,99,-27,9,740*08dd2a78
%RAWIMUSA,2283,33684.810;2283,33684.810001631,00000077,59,-64242,99,9,-17,987*1f17c173
%RAWIMUSA,2283,33684.820;2283,33684.820001631,00000077,60,-64245,107,18,-9,-347*592acf9e
%RAWIMUSA,2283,33684.830;2283,33684.830001631,00000077,-38,-64223,104,0,8,-822*af2b1d65
%RAWIMUSA,2283,33684.840;2283,33684.840001631,00000077,109,-64251,106,-9,0,-246*42c53fac
%RAWIMUSA,2283,33684.850;2283,33684.850001631,00000077,-22,-64226,98,-18,-8,887*0918450b
%RAWIMUSA,2283,33684.860;2283,33684.860001631,00000077,26,-64237,105,18,-8,786*a78f34d6
%RAWIMUSA,2283,33684.870;2283,33684.870001631,00000077,80,-64247,107,18,0,-1014*1a723665
%RAWIMUSA,2283,33684.880;2283,33684.880001631,00000077,-47,-64224,100,-18,0,-841*f05f0db6
%RAWIMUSA,2283,33684.890;2283,33684.890001631,00000077,96,-64247,100,-18,0,667*ecf36717
%RAWIMUSA,2283,33684.900;2283,33684.900001631,00000077,7,-64233,101,9,-17,868*b288c8cf
%RAWIMUSA,2283,33684.910;2283,33684.910001631,00000077,-7,-64231,106,9,0,-109*b29a864e
%RAWIMUSA,2283,33684.920;2283,33684.920001631,00000077,102,-64249,112,9,0,-987*5ee547b1
%RAWIMUSA,2283,33684.930;2283,33684.930001631,00000077,-46,-64228,97,-18,0,-228*fc9a160c
%RAWIMUSA,2283,33684.940;2283,33684.940001631,00000077,79,-64248,101,-18,0,951*6c27358f
%RAWIMUSA,2283,33684.950;2283,33684.950001631,00000077,23,-64238,112,18,-17,667*cac84fd5
%RAWIMUSA,2283,33684.960;2283,33684.960001631,00000077,-18,-64229,106,18,0,-813*1bd93e4c
%RAWIMUSA,2283,33684.970;2283,33684.970001631,00000077,112,-64250,96,-18,8,-978*400ea228
%RAWIMUSA,2283,33684.980;2283,33684.980001631,00000077,-47,-64223,88,-8,-8,649*590ef8db
%RAWIMUSA,2283,33684.990;2283,33684.990001631,00000077,67,-64248,113,0,-8,960*94f7ae7c
%RAWIMUSA,2283,33685.000;2283,33685.000001631,00000077,48,-64242,118,18,-9,-228*bac1e8c0
%RAWIMUSA,2283,33685.010;2283,33685.010001631,00000077,-23,-64226,92,0,8,-813*b78dc27c
%RAWIMUSA,2283,33685.020;2283,33685.020001631,00000077,104,-64254,95,-18,0,-356*585f7f5b
%RAWIMUSA,2283,33685.030;2283,33685.030001631,00000077,-40,-64226,112,-8,-8,905*57e035b5
%RAWIMUSA,2283,33685.040;2283,33685.040001631,00000077,49,-64241,115,18,-8,850*3a3538e8
%RAWIMUSA,2283,33685.050;2283,33685.050001631,00000077,73,-64244,96,18,0,-1014*6ca772dc
%RAWIMUSA,2283,33685.060;2283,33685.060001631,00000077,-46,-64222,91,-18,0,-822*a19130b8
%RAWIMUSA,2283,33685.070;2283,33685.070001631,00000077,99,-64250,115,-18,0,557*d87c752c
%RAWIMUSA,2283,33685.080;2283,33685.080001631,00000077,-12,-64231,115,9,-8,877*d18eb2d0
%RAWIMUSA,2283,33685.090;2283,33685.090001631,00000077,24,-64235,98,18,-9,0*b4930d77
%RAWIMUSA,2283,33685.100;2283,33685.100001631,00000077,89,-64249,93,0,0,-1005*404ca0fd
%RAWIMUSA,2283,33685.110;2283,33685.110001631,00000077,-52,-64224,109,-18,8,-310*c92b8f54
%RAWIMUSA,2283,33685.120;2283,33685.120001631,00000077,95,-64249,117,-8,-17,923*737fd502
%RAWIMUSA,2283,33685.130;2283,33685.130001631,00000077,6,-64237,98,18,-8,768*76b6823d
%RAWIMUSA,2283,33685.140;2283,33685.140001631,00000077,-8,-64229,92,18,8,-804*0f1b2753
%RAWIMUSA,2283,33685.150;2283,33685.150001631,00000077,107,-64250,114,-18,0,-996*7531e4c8
%RAWIMUSA,2283,33685.160;2283,33685.160001631,00000077,-47,-64229,115,-18,0,557*9d82757d
%RAWIMUSA,2283,33685.170;2283,33685.170001631,00000077,65,-64246,100,9,-8,978*7df51388
%RAWIMUSA,2283,33685.180;2283,33685.180001631,00000077,47,-64240,89,18,-9,-137*56f4dbda
%RAWIMUSA,2283,33685.190;2283,33685.190001631,00000077,-37,-64225,103,0,8,-813*62946f46
%RAWIMUSA,2283,33685.200;2283,33685.200001631,00000077,111,-64248,123,-18,0,-466*5452f739
%RAWIMUSA,2283,33685.210;2283,33685.210001631,00000077,-32,-64231,102,-8,-8,905*123beffa
%RAWIMUSA,2283,33685.220;2283,33685.220001631,00000077,43,-64241,88,9,-8,960*97ab4a87
%RAWIMUSA,2283,33685.230;2283,33685.230001631,00000077,75,-64251,104,18,0,-1005*3868c8d3
%RAWIMUSA,2283,33685.240;2283,33685.240001631,00000077,-50,-64223,116,-18,8,-822*401b654f
%RAWIMUSA,2283,33685.250;2283,33685.250001631,00000077,106,-64247,107,-8,-8,466*1e1e2d5a
%RAWIMUSA,2283,33685.260;2283,33685.260001631,00000077,-10,-64231,90,9,-8,877*934f6d77
%RAWIMUSA,2283,33685.270;2283,33685.270001631,00000077,14,-64234,104,18,-9,91*88d97d63
%RAWIMUSA,2283,33685.280;2283,33685.280001631,00000077,103,-64248,117,-9,8,-1005*a3d3a585
%RAWIMUSA,2283,33685.290;2283,33685.290001631,00000077,-57,-64223,101,-18,0,-420*c0cb0046
%RAWIMUSA,2283,33685.300;2283,33685.300001631,00000077,84,-64249,93,0,-8,951*72f20b94
%RAWIMUSA,2283,33685.310;2283,33685.310001631,00000077,29,-64237,100,18,-17,841*defeda3f
%RAWIMUSA,2283,33685.320;2283,33685.320001631,00000077,-27,-64231,113,18,8,-786*eb87e724
%RAWIMUSA,2283,33685.330;2283,33685.330001631,00000077,106,-64250,113,-18,0,-987*5ef48a12
%RAWIMUSA,2283,33685.340;2283,33685.340001631,00000077,-40,-64222,90,-18,0,438*467649cd
%RAWIMUSA,2283,33685.350;2283,33685.350001631,00000077,66,-64241,100,9,-17,978*2bb82e0e
%RAWIMUSA,2283,33685.360;2283,33685.360001631,00000077,47,-64243,118,18,0,-45*a9431408
%RAWIMUSA,2283,33685.370;2283,33685.370001631,00000077,-47,-64224,109,0,8,-813*b47b88af
%RAWIMUSA,2283,33685.380;2283,33685.380001631,00000077,121,-64248,96,-18,0,-557*632efaa9
%RAWIMUSA,2283,33685.390;2283,33685.390001631,00000077,-28,-64232,95,-8,-17,887*765d19df
%RAWIMUSA,2283,33685.400;2283,33685.400001631,00000077,35,-64239,115,18,-8,1015*4471a4fc
%RAWIMUSA,2283,33685.410;2283,33685.410001631,00000077,76,-64251,116,18,0,-950*2a221197
%RAWIMUSA,2283,33685.420;2283,33685.420001631,00000077,-48,-64226,92,-18,8,-841*084c3ab1
%RAWIMUSA,2283,33685.430;2283,33685.430001631,00000077,106,-64247,98,-18,-18,375*711e28e0
%RAWIMUSA,2283,33685.440;2283,33685.440001631,00000077,-9,-64235,111,18,-8,868*c9f972d8
%RAWIMUSA,2283,33685.450;2283,33685.450001631,00000077,6,-64230,113,9,0,201*0ddd568f
%RAWIMUSA,2283,33685.460;2283,33685.460001631,00000077,105,-64250,101,0,8,-996*4a1a842c
%RAWIMUSA,2283,33685.470;2283,33685.470001631,00000077,-49,-64225,90,-18,-9,-511*3848fcd4
%RAWIMUSA,2283,33685.480;2283,33685.480001631,00000077,71,-64245,111,0,-8,960*12c437bb
%RAWIMUSA,2283,33685.490;2283,33685.490001631,00000077,38,-64242,116,9,-8,823*1df35b1f
%RAWIMUSA,2283,33685.500;2283,33685.500001631,00000077,-34,-64226,96,18,8,-685*5e2ef26a
%RAWIMUSA,2283,33685.510;2283,33685.510001631,00000077,116,-64253,93,-18,0,-969*0406dc66
%RAWIMUSA,2283,33685.520;2283,33685.520001631,00000077,-31,-64228,109,-18,-8,329*447be22c
%RAWIMUSA,2283,33685.530;2283,33685.530001631,00000077,35,-64239,113,9,-8,987*fe10b4fc
%RAWIMUSA,2283,33685.540;2283,33685.540001631,00000077,72,-64246,98,18,0,54*fb81ae98
%RAWIMUSA,2283,33685.550;2283,33685.550001631,00000077,-43,-64226,90,0,0,-841*f78a0d30
%RAWIMUSA,2283,33685.560;2283,33685.560001631,00000077,99,-64250,113,-18,0,-621*e56bca62
%RAWIMUSA,2283,33685.570;2283,33685.570001631,00000077,-11,-64232,110,0,-8,868*f0b06f03
%RAWIMUSA,2283,33685.580;2283,33685.580001631,00000077,13,-64234,99,18,-8,1033*678b8249
%RAWIMUSA,2283,33685.590;2283,33685.590001631,00000077,108,-64251,100,9,0,-841*944f4e17
%RAWIMUSA,2283,33685.600;2283,33685.600001631,00000077,-58,-64225,105,-18,8,-868*dc307d4f
%RAWIMUSA,2283,33685.610;2283,33685.610001631,00000077,80,-64248,115,-18,-9,310*9d7e9ebb
%RAWIMUSA,2283,33685.620;2283,33685.620001631,00000077,35,-64241,100,18,-17,841*077ea915
%RAWIMUSA,2283,33685.630;2283,33685.630001631,00000077,-21,-64227,95,18,0,292*bbf3e974
%RAWIMUSA,2283,33685.640;2283,33685.640001631,00000077,108,-64249,105,-9,8,-969*c4790817
%RAWIMUSA,2283,33685.650;2283,33685.650001631,00000077,-40,-64227,110,-18,-9,-667*4ac4e92d
%RAWIMUSA,2283,33685.660;2283,33685.660001631,00000077,50,-64241,111,0,-8,996*cc029fa7
%RAWIMUSA,2283,33685.670;2283,33685.670001631,00000077,71,-64251,98,9,-8,813*5d108ea9
%RAWIMUSA,2283,33685.680;2283,33685.680001631,00000077,-50,-64223,92,9,8,-603*0ce28203
%RAWIMUSA,2283,33685.690;2283,33685.690001631,00000077,103,-64249,114,-18,0,-932*988b340d
%RAWIMUSA,2283,33685.700;2283,33685.700001631,00000077,-4,-64234,111,-18,-18,173*48eeb831
%RAWIMUSA,2283,33685.710;2283,33685.710001631,00000077,7,-64233,96,18,0,1024*45511a1f
%RAWIMUSA,2283,33685.720;2283,33685.720001631,00000077,98,-64249,98,18,0,164*f16b5364
%RAWIMUSA,2283,33685.730;2283,33685.730001631,00000077,-51,-64227,110,-9,0,-868*6c15c160
%RAWIMUSA,2283,33685.740;2283,33685.740001631,00000077,80,-64244,117,-18,0,-685*e169cf1a
%RAWIMUSA,2283,33685.750;2283,33685.750001631,00000077,30,-64240,95,0,-17,841*e59887e6
%RAWIMUSA,2283,33685.760;2283,33685.760001631,00000077,-22,-64226,94,18,0,1033*e71aea09
%RAWIMUSA,2283,33685.770;2283,33685.770001631,00000077,109,-64250,113,9,0,-713*1d1d327e
%RAWIMUSA,2283,33685.780;2283,33685.780001631,00000077,-40,-64228,113,-18,8,-914*0cbb237a
%RAWIMUSA,2283,33685.790;2283,33685.790001631,00000077,56,-64244,97,-9,-9,237*663625a3
%RAWIMUSA,2283,33685.800;2283,33685.800001631,00000077,51,-64244,95,18,-17,832*657ce5db
%RAWIMUSA,2283,33685.810;2283,33685.810001631,00000077,-38,-64229,112,9,9,384*1c89a7a2
%RAWIMUSA,2283,33685.820;2283,33685.820001631,00000077,118,-64250,113,-9,0,-950*2b76ac95
%RAWIMUSA,2283,33685.830;2283,33685.830001631,00000077,-15,-64228,94,-18,-9,-777*32c0e8fd
%RAWIMUSA,2283,33685.840;2283,33685.840001631,00000077,17,-64237,95,9,-8,987*aca02e69
%RAWIMUSA,2283,33685.850;2283,33685.850001631,00000077,79,-64246,116,18,-8,823*a1348b52
%RAWIMUSA,2283,33685.860;2283,33685.860001631,00000077,-40,-64227,110,0,8,-511*523bf467
%RAWIMUSA,2283,33685.870;2283,33685.870001631,00000077,103,-64250,94,-18,0,-923*420942a8
%RAWIMUSA,2283,33685.880;2283,33685.880001631,00000077,-5,-64230,90,-9,-9,73*217a47d1
%RAWIMUSA,2283,33685.890;2283,33685.890001631,00000077,1,-64232,114,9,-8,1015*fad12e26
%RAWIMUSA,2283,33685.900;2283,33685.900001631,00000077,110,-64252,121,18,0,265*0f1bfd18
%RAWIMUSA,2283,33685.910;2283,33685.910001631,00000077,-51,-64224,96,-9,8,-877*17557e7a
%RAWIMUSA,2283,33685.920;2283,33685.920001631,00000077,70,-64250,92,-18,-19,-767*40c716a8
%RAWIMUSA,2283,33685.930;2283,33685.930001631,00000077,39,-64240,108,9,-8,823*985a2816
%RAWIMUSA,2283,33685.940;2283,33685.940001631,00000077,-23,-64224,115,9,0,1024*fc24807a
%RAWIMUSA,2283,33685.950;2283,33685.950001631,00000077,104,-64249,104,0,8,-612*dbdac35f
%RAWIMUSA,2283,33685.960;2283,33685.960001631,00000077,-42,-64229,90,-9,-9,-905*b4d321a2
%RAWIMUSA,2283,33685.970;2283,33685.970001631,00000077,53,-64242,105,-18,-9,128*b2e2d290
%RAWIMUSA,2283,33685.980;2283,33685.980001631,00000077,67,-64241,113,18,-8,832*9896699b
%RAWIMUSA,2283,33685.990;2283,33685.990001631,00000077,-45,-64230,100,18,9,484*6857a9bd
%RAWIMUSA,2283,33686.000;2283,33686.000001631,00000077,105,-64249,102,-18,8,-941*48a6bdf5
%RAWIMUSA,2283,33686.010;2283,33686.010001631,00000077,-21,-64229,104,-9,-9,-886*46ac308b
%RAWIMUSA,2283,33686.020;2283,33686.020001631,00000077,34,-64237,107,0,-8,1015*005c82d0
%RAWIMUSA,2283,33686.030;2283,33686.030001631,00000077,83,-64248,103,18,-8,813*3576f414
%RAWIMUSA,2283,33686.040;2283,33686.040001631,00000077,-61,-64225,97,0,8,-420*4cd249ac
%RAWIMUSA,2283,33686.050;2283,33686.050001631,00000077,100,-64250,108,-9,0,-914*9db02746
%RAWIMUSA,2283,33686.060;2283,33686.060001631,00000077,16,-64233,107,-18,-9,-27*c6a7bcaf
%RAWIMUSA,2283,33686.070;2283,33686.070001631,00000077,-7,-64232,100,18,-8,1015*bdd5403f
