%RAWIMUSA,2283,33550.670;2283,33550.670001701,00000077,-32,-64227,99,0,-8,932*5bf857a7
%RAWIMUSA,2283,33550.680;2283,33550.680001701,00000077,101,-64250,126,-18,0,-950*f8e1275a
%RAWIMUSA,2283,33550.690;2283,33550.690001701,00000077,-28,-64227,105,-9,8,-932*149daee5
%RAWIMUSA,2283,33550.700;2283,33550.700001701,00000077,39,-64241,86,18,0,603*5f024bd6
%RAWIMUSA,2283,33550.710;2283,33550.710001701,00000077,84,-64246,103,18,-8,832*f1e936eb
%RAWIMUSA,2283,33550.720;2283,33550.720001701,00000077,-35,-64224,115,-18,-9,36*0089bfd8
%RAWIMUSA,2283,33550.730;2283,33550.730001701,00000077,91,-64251,112,-18,0,-932*2160d2a0
%RAWIMUSA,2283,33550.740;2283,33550.740001701,00000077,-10,-64232,86,9,8,-466*6f276d9b
%RAWIMUSA,2283,33550.750;2283,33550.750001701,00000077,31,-64236,96,9,-8,1024*56c9d2fc
%RAWIMUSA,2283,33550.760;2283,33550.760001701,00000077,90,-64249,122,0,-17,804*97efcc9d
%RAWIMUSA,2283,33550.770;2283,33550.770001701,00000077,-60,-64224,107,-18,0,-850*5e7bdae8
%RAWIMUSA,2283,33550.780;2283,33550.780001701,00000077,98,-64250,97,-9,8,-914*59a0e10b
%RAWIMUSA,2283,33550.790;2283,33550.790001701,00000077,15,-64238,99,18,-8,411*068b9ae5
%RAWIMUSA,2283,33550.800;2283,33550.800001701,00000077,-8,-64231,114,18,-8,1033*fb7ed254
%RAWIMUSA,2283,33550.810;2283,33550.810001701,00000077,95,-64251,109,-18,-9,-82*3dc93c00
%RAWIMUSA,2283,33550.820;2283,33550.820001701,00000077,-48,-64223,92,-18,8,-896*1a201459
%RAWIMUSA,2283,33550.830;2283,33550.830001701,00000077,85,-64245,103,9,0,-420*644a6f11
%RAWIMUSA,2283,33550.840;2283,33550.840001701,00000077,43,-64242,114,18,-8,823*01965fc9
%RAWIMUSA,2283,33550.850;2283,33550.850001701,00000077,-43,-64228,104,-8,-8,1033*9ab6c321
%RAWIMUSA,2283,33550.860;2283,33550.860001701,00000077,105,-64251,95,-18,0,-969*7c59a052
%RAWIMUSA,2283,33550.870;2283,33550.870001701,00000077,-18,-64227,99,0,0,-905*5eb874a5
%RAWIMUSA,2283,33550.880;2283,33550.880001701,00000077,53,-64242,113,9,0,493*8b5985f7
%RAWIMUSA,2283,33550.890;2283,33550.890001701,00000077,53,-64246,113,9,-8,823*af35f561
%RAWIMUSA,2283,33550.900;2283,33550.900001701,00000077,-43,-64224,92,-18,0,137*6906b649
%RAWIMUSA,2283,33550.910;2283,33550.910001701,00000077,119,-64247,99,-9,0,-941*ebebc644
%RAWIMUSA,2283,33550.920;2283,33550.920001701,00000077,-17,-64233,111,9,0,-539*4f8cc3e6
%RAWIMUSA,2283,33550.930;2283,33550.930001701,00000077,20,-64237,112,18,-8,1005*054bdbc3
%RAWIMUSA,2283,33550.940;2283,33550.940001701,00000077,79,-64248,99,-8,-8,823*ab260ae9
%RAWIMUSA,2283,33550.950;2283,33550.950001701,00000077,-35,-64222,93,-18,0,-786*d5d76afd
%RAWIMUSA,2283,33550.960;2283,33550.960001701,00000077,105,-64248,114,0,8,-914*598e4256
%RAWIMUSA,2283,33550.970;2283,33550.970001701,00000077,-15,-64233,112,18,-9,320*998e1a88
%RAWIMUSA,2283,33550.980;2283,33550.980001701,00000077,3,-64229,100,9,-8,1024*6be8168a
%RAWIMUSA,2283,33550.990;2283,33550.990001701,00000077,113,-64252,97,-18,-9,9*793c242b
%RAWIMUSA,2283,33551.000;2283,33551.000001701,00000077,-47,-64226,106,-18,8,-868*143e30d5
%RAWIMUSA,2283,33551.010;2283,33551.010001701,00000077,78,-64248,117,18,0,-521*67245b96
%RAWIMUSA,2283,33551.020;2283,33551.020001701,00000077,28,-64237,100,18,-17,832*aeecf25f
%RAWIMUSA,2283,33551.030;2283,33551.030001701,00000077,-25,-64229,96,-8,0,1024*675c3b98
%RAWIMUSA,2283,33551.040;2283,33551.040001701,00000077,118,-64249,108,-9,0,-859*4448f083
%RAWIMUSA,2283,33551.050;2283,33551.050001701,00000077,-47,-64228,112,0,8,-905*52485ee5
%RAWIMUSA,2283,33551.060;2283,33551.060001701,00000077,51,-64242,105,9,-8,393*1840ec6f
%RAWIMUSA,2283,33551.070;2283,33551.070001701,00000077,78,-64244,103,9,-17,832*5075bbee
%RAWIMUSA,2283,33551.080;2283,33551.080001701,00000077,-47,-64226,104,-18,0,237*1834c2a3
%RAWIMUSA,2283,33551.090;2283,33551.090001701,00000077,97,-64250,111,-18,8,-941*03b6e2b2
%RAWIMUSA,2283,33551.100;2283,33551.100001701,00000077,-21,-64230,100,18,-9,-649*7ae365c8
%RAWIMUSA,2283,33551.110;2283,33551.110001701,00000077,37,-64234,99,18,0,1015*8282e714
%RAWIMUSA,2283,33551.120;2283,33551.120001701,00000077,91,-64249,104,-8,-17,823*e279e67d
%RAWIMUSA,2283,33551.130;2283,33551.130001701,00000077,-59,-64227,105,-18,8,-676*00ba20a8
%RAWIMUSA,2283,33551.140;2283,33551.140001701,00000077,97,-64249,108,0,0,-923*e69c2b39
%RAWIMUSA,2283,33551.150;2283,33551.150001701,00000077,11,-64234,102,18,-9,228*7c674db3
%RAWIMUSA,2283,33551.160;2283,33551.160001701,00000077,5,-64229,98,9,-8,1024*5b23a79e
%RAWIMUSA,2283,33551.170;2283,33551.170001701,00000077,92,-64251,107,-18,0,109*2382975f
%RAWIMUSA,2283,33551.180;2283,33551.180001701,00000077,-55,-64225,106,-18,0,-868*90d54657
%RAWIMUSA,2283,33551.190;2283,33551.190001701,00000077,94,-64248,105,18,0,-639*c1b97970
%RAWIMUSA,2283,33551.200;2283,33551.200001701,00000077,24,-64238,99,18,-8,841*70a2fc37
%RAWIMUSA,2283,33551.210;2283,33551.210001701,00000077,-19,-64226,102,-18,-8,1024*a9e243a0
%RAWIMUSA,2283,33551.220;2283,33551.220001701,00000077,104,-64252,113,-9,8,-767*e17be1e9
%RAWIMUSA,2283,33551.230;2283,33551.230001701,00000077,-32,-64222,99,0,0,-886*04aba39e
%RAWIMUSA,2283,33551.240;2283,33551.240001701,00000077,74,-64244,99,18,-9,274*b9e01175
%RAWIMUSA,2283,33551.250;2283,33551.250001701,00000077,29,-64239,107,0,-8,832*6a997650
%RAWIMUSA,2283,33551.260;2283,33551.260001701,00000077,-36,-64224,106,-18,0,347*33216494
%RAWIMUSA,2283,33551.270;2283,33551.270001701,00000077,113,-64254,97,-9,0,-978*21319631
%RAWIMUSA,2283,33551.280;2283,33551.280001701,00000077,-31,-64227,98,18,0,-713*b72c86f8
%RAWIMUSA,2283,33551.290;2283,33551.290001701,00000077,44,-64238,116,9,-8,996*09653a25
%RAWIMUSA,2283,33551.300;2283,33551.300001701,00000077,67,-64244,108,-8,-8,823*b795c29e
%RAWIMUSA,2283,33551.310;2283,33551.310001701,00000077,-42,-64231,93,-18,0,-557*2f1a62f6
%RAWIMUSA,2283,33551.320;2283,33551.320001701,00000077,106,-64243,107,9,0,-941*fe06361c
%RAWIMUSA,2283,33551.330;2283,33551.330001701,00000077,-13,-64231,99,18,-9,146*e6dec4d4
%RAWIMUSA,2283,33551.340;2283,33551.340001701,00000077,16,-64234,114,0,-8,1033*aaa3c5e5
%RAWIMUSA,2283,33551.350;2283,33551.350001701,00000077,113,-64246,112,-18,0,201*11e87448
%RAWIMUSA,2283,33551.360;2283,33551.360001701,00000077,-60,-64230,93,-18,8,-868*9024512f
%RAWIMUSA,2283,33551.370;2283,33551.370001701,00000077,80,-64251,104,18,-9,-740*9f3c5acf
%RAWIMUSA,2283,33551.380;2283,33551.380001701,00000077,37,-64240,111,18,-8,841*755eeb2b
%RAWIMUSA,2283,33551.390;2283,33551.390001701,00000077,-24,-64225,99,-18,-8,1033*ff52225e
%RAWIMUSA,2283,33551.400;2283,33551.400001701,00000077,110,-64248,97,-9,0,-667*cd4e4cc5
%RAWIMUSA,2283,33551.410;2283,33551.410001701,00000077,-41,-64229,106,9,0,-914*87290ccf
%RAWIMUSA,2283,33551.420;2283,33551.420001701,00000077,58,-64241,117,9,-9,201*207b5b86
%RAWIMUSA,2283,33551.430;2283,33551.430001701,00000077,74,-64246,99,0,-8,823*0ebd7169
%RAWIMUSA,2283,33551.440;2283,33551.440001701,00000077,-62,-64224,91,-8,0,448*2191880c
%RAWIMUSA,2283,33551.450;2283,33551.450001701,00000077,105,-64248,112,-9,8,-950*f78de740
%RAWIMUSA,2283,33551.460;2283,33551.460001701,00000077,-2,-64232,115,18,-9,-850*a7d7559d
%RAWIMUSA,2283,33551.470;2283,33551.470001701,00000077,18,-64234,100,9,-8,1024*3e5dbade
%RAWIMUSA,2283,33551.480;2283,33551.480001701,00000077,90,-64248,93,-8,-8,823*88ed4d54
%RAWIMUSA,2283,33551.490;2283,33551.490001701,00000077,-59,-64227,104,-18,8,-484*11863144
%RAWIMUSA,2283,33551.500;2283,33551.500001701,00000077,97,-64248,120,9,0,-905*cc556123
%RAWIMUSA,2283,33551.510;2283,33551.510001701,00000077,16,-64234,96,9,-18,9*e0a1a739
%RAWIMUSA,2283,33551.520;2283,33551.520001701,00000077,-12,-64230,90,0,-8,1033*6731ccb0
%RAWIMUSA,2283,33551.530;2283,33551.530001701,00000077,109,-64249,120,-8,9,310*04b0c2a7
%RAWIMUSA,2283,33551.540;2283,33551.540001701,00000077,-35,-64226,117,-18,0,-886*b93deb7b
%RAWIMUSA,2283,33551.550;2283,33551.550001701,00000077,71,-64245,94,18,-9,-822*be3890d4
%RAWIMUSA,2283,33551.560;2283,33551.560001701,00000077,34,-64242,92,18,-8,823*89a74569
%RAWIMUSA,2283,33551.570;2283,33551.570001701,00000077,-28,-64225,112,-18,0,1024*04a57e5e
%RAWIMUSA,2283,33551.580;2283,33551.580001701,00000077,120,-64248,122,-18,0,-548*9468befc
%RAWIMUSA,2283,33551.590;2283,33551.590001701,00000077,-27,-64228,93,9,0,-923*dc70b2b9
%RAWIMUSA,2283,33551.600;2283,33551.600001701,00000077,35,-64240,88,18,-9,109*32cdc7b9
%RAWIMUSA,2283,33551.610;2283,33551.610001701,00000077,69,-64248,108,0,-8,823*9746dfa3
%RAWIMUSA,2283,33551.620;2283,33551.620001701,00000077,-38,-64227,120,-18,9,530*89558e5d
%RAWIMUSA,2283,33551.630;2283,33551.630001701,00000077,102,-64248,104,-9,0,-932*8d631285
%RAWIMUSA,2283,33551.640;2283,33551.640001701,00000077,-16,-64233,84,18,-10,-960*5d590d83
%RAWIMUSA,2283,33551.650;2283,33551.650001701,00000077,19,-64232,106,18,-8,1015*7e08ad91
%RAWIMUSA,2283,33551.660;2283,33551.660001701,00000077,105,-64251,121,-18,0,832*b78f88de
%RAWIMUSA,2283,33551.670;2283,33551.670001701,00000077,-63,-64226,105,-18,0,-383*22977300
%RAWIMUSA,2283,33551.680;2283,33551.680001701,00000077,83,-64248,91,9,0,-886*49ffec29
%RAWIMUSA,2283,33551.690;2283,33551.690001701,00000077,30,-64237,98,18,-9,-100*9a2c97f2
%RAWIMUSA,2283,33551.700;2283,33551.700001701,00000077,-16,-64226,116,0,-8,1024*297c6269
%RAWIMUSA,2283,33551.710;2283,33551.710001701,00000077,110,-64253,113,-18,0,429*f01c0a9b
%RAWIMUSA,2283,33551.720;2283,33551.720001701,00000077,-44,-64225,90,0,8,-905*cc650512
%RAWIMUSA,2283,33551.730;2283,33551.730001701,00000077,61,-64242,100,18,-19,-850*60f6959a
%RAWIMUSA,2283,33551.740;2283,33551.740001701,00000077,59,-64248,113,9,-8,777*d9131720
%RAWIMUSA,2283,33551.750;2283,33551.750001701,00000077,-44,-64225,107,-18,0,1015*30038a8d
%RAWIMUSA,2283,33551.760;2283,33551.760001701,00000077,111,-64248,99,-18,0,-429*2ce3c735
%RAWIMUSA,2283,33551.770;2283,33551.770001701,00000077,-11,-64231,95,18,0,-950*b2a9adc1
%RAWIMUSA,2283,33551.780;2283,33551.780001701,00000077,21,-64233,108,9,-9,36*86004a45
%RAWIMUSA,2283,33551.790;2283,33551.790001701,00000077,86,-64250,113,0,-8,813*cc9d026f
%RAWIMUSA,2283,33551.800;2283,33551.800001701,00000077,-55,-64226,99,-18,9,603*94b41c91
%RAWIMUSA,2283,33551.810;2283,33551.810001701,00000077,103,-64247,101,0,0,-905*03268dc0
%RAWIMUSA,2283,33551.820;2283,33551.820001701,00000077,18,-64237,109,18,-19,-978*3a9ff5a7
%RAWIMUSA,2283,33551.830;2283,33551.830001701,00000077,-15,-64230,112,9,0,932*52db55e8
%RAWIMUSA,2283,33551.840;2283,33551.840001701,00000077,101,-64248,103,-18,0,832*6d69cd1b
%RAWIMUSA,2283,33551.850;2283,33551.850001701,00000077,-40,-64226,96,-9,0,-310*aa283591
%RAWIMUSA,2283,33551.860;2283,33551.860001701,00000077,72,-64246,107,9,-9,-868*380bec5c
%RAWIMUSA,2283,33551.870;2283,33551.870001701,00000077,35,-64243,115,18,-9,-210*cb530982
%RAWIMUSA,2283,33551.880;2283,33551.880001701,00000077,-37,-64224,97,-8,0,1015*7605b413
%RAWIMUSA,2283,33551.890;2283,33551.890001701,00000077,125,-64252,95,-8,0,548*96d7d82d
%RAWIMUSA,2283,33551.900;2283,33551.900001701,00000077,-27,-64228,103,0,0,-923*d9c78670
%RAWIMUSA,2283,33551.910;2283,33551.910001701,00000077,33,-64238,117,9,-9,-841*f3378b4d
%RAWIMUSA,2283,33551.920;2283,33551.920001701,00000077,76,-64249,106,18,-17,676*4e7d0944
%RAWIMUSA,2283,33551.930;2283,33551.930001701,00000077,-42,-64224,88,-18,9,1005*6bda4ccf
%RAWIMUSA,2283,33551.940;2283,33551.940001701,00000077,106,-64249,103,-18,8,-310*97ddd222
%RAWIMUSA,2283,33551.950;2283,33551.950001701,00000077,-18,-64232,116,18,-10,-950*0cab861f
%RAWIMUSA,2283,33551.960;2283,33551.960001701,00000077,16,-64232,111,18,-9,-82*3d784cfa
%RAWIMUSA,2283,33551.970;2283,33551.970001701,00000077,101,-64250,96,-8,-8,823*62aff919
%RAWIMUSA,2283,33551.980;2283,33551.980001701,00000077,-48,-64222,96,-18,9,713*c1838297
%RAWIMUSA,2283,33551.990;2283,33551.990001701,00000077,90,-64247,113,0,0,-905*03dca823
%RAWIMUSA,2283,33552.000;2283,33552.000001701,00000077,17,-64233,111,18,-10,-987*36b0d453
%RAWIMUSA,2283,33552.010;2283,33552.010001701,00000077,-1,-64227,101,9,-8,823*4aad4d7e
%RAWIMUSA,2283,33552.020;2283,33552.020001701,00000077,102,-64251,94,-18,0,850*58f0ea26
%RAWIMUSA,2283,33552.030;2283,33552.030001701,00000077,-50,-64228,106,-18,8,-219*e681683c
%RAWIMUSA,2283,33552.040;2283,33552.040001701,00000077,71,-64247,112,9,-9,-877*e2cbb786
%RAWIMUSA,2283,33552.050;2283,33552.050001701,00000077,51,-64240,101,18,-9,-310*f0964d2e
%RAWIMUSA,2283,33552.060;2283,33552.060001701,00000077,-33,-64227,94,-8,0,1024*45787246
%RAWIMUSA,2283,33552.070;2283,33552.070001701,00000077,106,-64250,110,-8,0,640*274f1a71
%RAWIMUSA,2283,33552.080;2283,33552.080001701,00000077,-31,-64227,109,0,0,-923*08467655
%RAWIMUSA,2283,33552.090;2283,33552.090001701,00000077,42,-64240,104,9,-9,-841*d3b3dca3
%RAWIMUSA,2283,33552.100;2283,33552.100001701,00000077,77,-64247,102,9,-18,585*7225cc43
%RAWIMUSA,2283,33552.110;2283,33552.110001701,00000077,-51,-64225,102,-18,9,1005*edc9a60b
%RAWIMUSA,2283,33552.120;2283,33552.120001701,00000077,107,-64250,114,-9,0,-219*b66cf300
%RAWIMUSA,2283,33552.130;2283,33552.130001701,00000077,-8,-64232,105,18,-10,-950*fec7bcde
%RAWIMUSA,2283,33552.140;2283,33552.140001701,00000077,9,-64235,102,9,-9,-173*4fa12828
%RAWIMUSA,2283,33552.150;2283,33552.150001701,00000077,93,-64250,100,-8,0,832*196c49f0
%RAWIMUSA,2283,33552.160;2283,33552.160001701,00000077,-51,-64221,102,-18,0,804*64ef7e05
%RAWIMUSA,2283,33552.170;2283,33552.170001701,00000077,92,-64249,112,9,0,-905*23cc5189
%RAWIMUSA,2283,33552.180;2283,33552.180001701,00000077,18,-64234,106,18,-19,-987*1f87e3e4
%RAWIMUSA,2283,33552.190;2283,33552.190001701,00000077,-13,-64233,96,0,0,731*a869a6f4
%RAWIMUSA,2283,33552.200;2283,33552.200001701,00000077,104,-64249,103,-18,0,841*0c4da470
%RAWIMUSA,2283,33552.210;2283,33552.210001701,00000077,-42,-64229,104,-9,9,-109*121cf34d
%RAWIMUSA,2283,33552.220;2283,33552.220001701,00000077,80,-64243,113,18,-9,-877*0c7611f4
%RAWIMUSA,2283,33552.230;2283,33552.230001701,00000077,34,-64240,103,9,-9,-402*534ccf98
%RAWIMUSA,2283,33552.240;2283,33552.240001701,00000077,-21,-64226,97,-8,0,1033*ad259f96
%RAWIMUSA,2283,33552.250;2283,33552.250001701,00000077,107,-64252,107,-18,0,722*0332fabd
%RAWIMUSA,2283,33552.260;2283,33552.260001701,00000077,-36,-64227,104,9,0,-896*20578ff3
%RAWIMUSA,2283,33552.270;2283,33552.270001701,00000077,60,-64245,103,18,-9,-868*5ba8e5ca
%RAWIMUSA,2283,33552.280;2283,33552.280001701,00000077,53,-64243,103,0,-8,475*0f13266d
%RAWIMUSA,2283,33552.290;2283,33552.290001701,00000077,-35,-64226,107,-18,9,1015*5ed32a9e
%RAWIMUSA,2283,33552.300;2283,33552.300001701,00000077,117,-64248,105,-9,0,-127*6bf84e75
%RAWIMUSA,2283,33552.310;2283,33552.310001701,00000077,-33,-64230,100,18,-10,-950*bd7b27d7
%RAWIMUSA,2283,33552.320;2283,33552.320001701,00000077,19,-64241,107,18,-9,-283*1d12826e
%RAWIMUSA,2283,33552.330;2283,33552.330001701,00000077,96,-64246,107,-18,0,813*b14695be
%RAWIMUSA,2283,33552.340;2283,33552.340001701,00000077,-48,-64225,97,-18,0,923*496da2b6
%RAWIMUSA,2283,33552.350;2283,33552.350001701,00000077,93,-64247,103,9,-9,-923*e45df837
%RAWIMUSA,2283,33552.360;2283,33552.360001701,00000077,-1,-64234,107,18,-10,-969*84396b8d
%RAWIMUSA,2283,33552.370;2283,33552.370001701,00000077,10,-64231,105,0,0,631*879ba3d3
%RAWIMUSA,2283,33552.380;2283,33552.380001701,00000077,111,-64250,100,-18,0,841*5c560764
%RAWIMUSA,2283,33552.390;2283,33552.390001701,00000077,-64,-64226,101,-9,9,-9*8c6621b7
%RAWIMUSA,2283,33552.400;2283,33552.400001701,00000077,87,-64247,112,18,-19,-895*97e50d10
%RAWIMUSA,2283,33552.410;2283,33552.410001701,00000077,47,-64235,110,18,-9,-493*689316b8
%RAWIMUSA,2283,33552.420;2283,33552.420001701,00000077,-25,-64227,95,-18,0,1015*d9e4b829
%RAWIMUSA,2283,33552.430;2283,33552.430001701,00000077,98,-64252,99,-8,0,832*a3293399
%RAWIMUSA,2283,33552.440;2283,33552.440001701,00000077,-38,-64227,108,9,0,-914*dd4c19cd
%RAWIMUSA,2283,33552.450;2283,33552.450001701,00000077,69,-64241,111,9,-9,-850*a9eded1d
%RAWIMUSA,2283,33552.460;2283,33552.460001701,00000077,71,-64242,101,0,-8,384*d15e30be
%RAWIMUSA,2283,33552.470;2283,33552.470001701,00000077,-59,-64223,94,-18,9,1024*120e8877
%RAWIMUSA,2283,33552.480;2283,33552.480001701,00000077,110,-64252,112,0,0,-36*6ee27cfd
%RAWIMUSA,2283,33552.490;2283,33552.490001701,00000077,-9,-64229,113,18,-19,-941*b148e1b8
%RAWIMUSA,2283,33552.500;2283,33552.500001701,00000077,31,-64237,99,9,-9,-383*1175630b
%RAWIMUSA,2283,33552.510;2283,33552.510001701,00000077,72,-64247,98,-18,9,823*776bec5f
%RAWIMUSA,2283,33552.520;2283,33552.520001701,00000077,-52,-64226,110,-18,0,996*87dc2ce8
%RAWIMUSA,2283,33552.530;2283,33552.530001700,00000077,111,-64251,121,9,-9,-895*29757757
%RAWIMUSA,2283,33552.540;2283,33552.540001700,00000077,-2,-64230,97,18,-10,-969*831a5f0f
%RAWIMUSA,2283,33552.550;2283,33552.550001700,00000077,-11,-64232,90,0,0,530*1a816f2b
%RAWIMUSA,2283,33552.560;2283,33552.560001700,00000077,102,-64251,109,-18,9,823*858f5dd7
%RAWIMUSA,2283,33552.570;2283,33552.570001700,00000077,-40,-64224,117,-9,-9,100*fe1be77f
%RAWIMUSA,2283,33552.580;2283,33552.580001700,00000077,82,-64250,102,18,-9,-886*7308f10d
%RAWIMUSA,2283,33552.590;2283,33552.590001700,00000077,23,-64240,85,18,-9,-585*52b6c365
%RAWIMUSA,2283,33552.600;2283,33552.600001700,00000077,-21,-64228,104,-18,9,1015*a854dcc1
%RAWIMUSA,2283,33552.610;2283,33552.610001700,00000077,116,-64249,128,-18,0,850*59363bca
%RAWIMUSA,2283,33552.620;2283,33552.620001700,00000077,-46,-64225,104,9,-9,-822*2b74611d
%RAWIMUSA,2283,33552.630;2283,33552.630001700,00000077,59,-64244,86,18,-9,-859*1a5e5d2b
%RAWIMUSA,2283,33552.640;2283,33552.640001700,00000077,62,-64244,107,0,0,274*94ceb646
%RAWIMUSA,2283,33552.650;2283,33552.650001700,00000077,-43,-64225,119,-18,9,1005*9c10eac3
%RAWIMUSA,2283,33552.660;2283,33552.660001700,00000077,115,-64247,107,0,-9,64*23f89f26
%RAWIMUSA,2283,33552.670;2283,33552.670001700,00000077,-27,-64233,83,18,-10,-950*4d6abf3d
%RAWIMUSA,2283,33552.680;2283,33552.680001700,00000077,28,-64237,102,9,-9,-475*f0f43b35
%RAWIMUSA,2283,33552.690;2283,33552.690001700,00000077,92,-64249,124,-18,9,823*0de05941
%RAWIMUSA,2283,33552.700;2283,33552.700001700,00000077,-48,-64225,104,-18,0,996*cddd3265
%RAWIMUSA,2283,33552.710;2283,33552.710001700,00000077,98,-64250,92,9,-9,-786*a4fa124f
%RAWIMUSA,2283,33552.720;2283,33552.720001700,00000077,0,-64235,100,18,-10,-978*4b7a209f
%RAWIMUSA,2283,33552.730;2283,33552.730001700,00000077,5,-64230,119,0,0,429*b14c5b70
%RAWIMUSA,2283,33552.740;2283,33552.740001700,00000077,103,-64250,108,-18,0,832*3a20071c
%RAWIMUSA,2283,33552.750;2283,33552.750001700,00000077,-58,-64227,91,-9,0,201*6724f57e
%RAWIMUSA,2283,33552.760;2283,33552.760001700,00000077,88,-64249,104,18,-9,-877*2fb5831f
%RAWIMUSA,2283,33552.770;2283,33552.770001700,00000077,33,-64239,115,9,-9,-694*830c04f1
%RAWIMUSA,2283,33552.780;2283,33552.780001700,00000077,-25,-64228,105,-18,9,1024*4244a4bb
%RAWIMUSA,2283,33552.790;2283,33552.790001700,00000077,107,-64251,92,-8,0,859*c54e5191
%RAWIMUSA,2283,33552.800;2283,33552.800001700,00000077,-38,-64225,104,9,-9,-740*cf7d73c1
%RAWIMUSA,2283,33552.810;2283,33552.810001700,00000077,55,-64244,118,18,-9,-841*4806e47f
%RAWIMUSA,2283,33552.820;2283,33552.820001700,00000077,68,-64245,110,-9,0,164*4ce92a3d
%RAWIMUSA,2283,33552.830;2283,33552.830001700,00000077,-38,-64227,91,-18,0,1015*9ca2d7e0
%RAWIMUSA,2283,33552.840;2283,33552.840001700,00000077,100,-64248,104,0,-9,173*bb04e9a6
%RAWIMUSA,2283,33552.850;2283,33552.850001700,00000077,-13,-64229,113,18,-10,-941*fc308914
%RAWIMUSA,2283,33552.860;2283,33552.860001700,00000077,28,-64240,104,9,0,-575*c9bbddc0
%RAWIMUSA,2283,33552.870;2283,33552.870001700,00000077,85,-64248,95,-18,9,813*8f03036e
%RAWIMUSA,2283,33552.880;2283,33552.880001700,00000077,-49,-64220,97,-18,0,996*99396a91
%RAWIMUSA,2283,33552.890;2283,33552.890001700,00000077,99,-64250,119,18,-18,-685*f6deb9fc
%RAWIMUSA,2283,33552.900;2283,33552.900001700,00000077,5,-64230,109,18,-10,-987*2d4f4bb8
%RAWIMUSA,2283,33552.910;2283,33552.910001700,00000077,-2,-64235,95,-8,9,320*cfa8050f
%RAWIMUSA,2283,33552.920;2283,33552.920001700,00000077,101,-64251,100,-18,9,832*7b8cb1ce
%RAWIMUSA,2283,33552.930;2283,33552.930001700,00000077,-48,-64225,114,0,-9,292*60011b0a
%RAWIMUSA,2283,33552.940;2283,33552.940001700,00000077,83,-64247,115,18,-9,-877*d552ed20
%RAWIMUSA,2283,33552.950;2283,33552.950001700,00000077,25,-64241,95,9,-9,-804*65971884
%RAWIMUSA,2283,33552.960;2283,33552.960001700,00000077,-18,-64230,92,-18,9,1015*2b55e6b3
%RAWIMUSA,2283,33552.970;2283,33552.970001700,00000077,106,-64248,112,-18,-8,859*95a425ce
%RAWIMUSA,2283,33552.980;2283,33552.980001700,00000077,-40,-64228,112,18,-9,-621*475c6394
%RAWIMUSA,2283,33552.990;2283,33552.990001700,00000077,68,-64243,97,18,-9,-859*01d2929c
%RAWIMUSA,2283,33553.000;2283,33553.000001700,00000077,40,-64243,95,-9,9,82*99b00901
%RAWIMUSA,2283,33553.010;2283,33553.010001700,00000077,-39,-64227,107,-18,0,1015*a84aba2d
%RAWIMUSA,2283,33553.020;2283,33553.020001700,00000077,113,-64250,120,9,-9,246*956c4a2d
%RAWIMUSA,2283,33553.030;2283,33553.030001700,00000077,-32,-64226,99,18,-19,-923*99f62eca
%RAWIMUSA,2283,33553.040;2283,33553.040001700,00000077,46,-64240,91,0,8,-694*3222f73e
%RAWIMUSA,2283,33553.050;2283,33553.050001700,00000077,81,-64247,108,-18,0,823*687cad4a
%RAWIMUSA,2283,33553.060;2283,33553.060001700,00000077,-55,-64224,114,-8,0,1005*556b6838
%RAWIMUSA,2283,33553.070;2283,33553.070001700,00000077,107,-64250,103,18,-18,-594*7d2d53f2
%RAWIMUSA,2283,33553.080;2283,33553.080001700,00000077,-1,-64229,94,9,-10,-969*dbe06860
%RAWIMUSA,2283,33553.090;2283,33553.090001700,00000077,9,-64234,105,-9,9,228*d2bd31f3
%RAWIMUSA,2283,33553.100;2283,33553.100001700,00000077,95,-64248,113,-18,0,823*6f5b088e
%RAWIMUSA,2283,33553.110;2283,33553.110001700,00000077,-51,-64225,104,0,-8,393*f8f7c35a
%RAWIMUSA,2283,33553.120;2283,33553.120001700,00000077,93,-64247,99,27,-9,-895*8ea618b7
%RAWIMUSA,2283,33553.130;2283,33553.130001700,00000077,14,-64238,102,0,0,-886*87c60f49
%RAWIMUSA,2283,33553.140;2283,33553.140001700,00000077,-10,-64230,109,-18,9,1033*fc6c88dc
%RAWIMUSA,2283,33553.150;2283,33553.150001700,00000077,105,-64251,110,-18,-8,841*2d783ca5
%RAWIMUSA,2283,33553.160;2283,33553.160001700,00000077,-43,-64229,98,18,-9,-530*94617a31
%RAWIMUSA,2283,33553.170;2283,33553.170001700,00000077,63,-64241,99,18,0,-850*70a1545f
%RAWIMUSA,2283,33553.180;2283,33553.180001700,00000077,53,-64240,105,-9,0,-27*29469bd0
%RAWIMUSA,2283,33553.190;2283,33553.190001700,00000077,-34,-64226,111,-18,0,1015*82dca96b
%RAWIMUSA,2283,33553.200;2283,33553.200001700,00000077,102,-64253,108,0,-8,365*3ab5b1f1
%RAWIMUSA,2283,33553.210;2283,33553.210001700,00000077,-23,-64228,95,18,-9,-932*358cec89
%RAWIMUSA,2283,33553.220;2283,33553.220001700,00000077,41,-64236,98,0,0,-795*c8a8595a
%RAWIMUSA,2283,33553.230;2283,33553.230001700,00000077,71,-64248,112,-8,0,832*1e63df1e
%RAWIMUSA,2283,33553.240;2283,33553.240001700,00000077,-49,-64227,104,-18,0,987*c4730c03
%RAWIMUSA,2283,33553.250;2283,33553.250001700,00000077,105,-64246,103,18,-9,-502*b712b04c
%RAWIMUSA,2283,33553.260;2283,33553.260001700,00000077,-4,-64232,98,18,-10,-969*2e3c3ead
%RAWIMUSA,2283,33553.270;2283,33553.270001700,00000077,12,-64231,104,-9,9,128*ebbc5d2a
%RAWIMUSA,2283,33553.280;2283,33553.280001700,00000077,97,-64251,112,-18,-8,823*a23e3655
%RAWIMUSA,2283,33553.290;2283,33553.290001700,00000077,-47,-64228,104,9,-8,503*b40cf1bc
%RAWIMUSA,2283,33553.300;2283,33553.300001700,00000077,92,-64246,100,18,-9,-905*13410fb3
%RAWIMUSA,2283,33553.310;2283,33553.310001700,00000077,8,-64238,100,0,0,-978*1e27a6c7
%RAWIMUSA,2283,33553.320;2283,33553.320001700,00000077,-10,-64228,107,-18,9,1024*cca5c77a
%RAWIMUSA,2283,33553.330;2283,33553.330001700,00000077,110,-64249,111,-18,-8,841*f25066f0
%RAWIMUSA,2283,33553.340;2283,33553.340001700,00000077,-38,-64226,103,18,-9,-402*137df6e3
%RAWIMUSA,2283,33553.350;2283,33553.350001700,00000077,66,-64245,100,18,0,-877*36dff294
%RAWIMUSA,2283,33553.360;2283,33553.360001700,00000077,36,-64241,111,-18,0,-109*6f7567b3
%RAWIMUSA,2283,33553.370;2283,33553.370001700,00000077,-20,-64228,108,-8,0,1015*0ae41c69
%RAWIMUSA,2283,33553.380;2283,33553.380001700,00000077,120,-64249,103,9,-8,439*758f6276
%RAWIMUSA,2283,33553.390;2283,33553.390001700,00000077,-50,-64227,94,9,-9,-895*56f19d78
%RAWIMUSA,2283,33553.400;2283,33553.400001700,00000077,54,-64244,107,0,8,-859*9c2acf1f
%RAWIMUSA,2283,33553.410;2283,33553.410001700,00000077,56,-64242,114,-8,0,786*f85b25ed
%RAWIMUSA,2283,33553.420;2283,33553.420001700,00000077,-31,-64228,103,-18,0,1015*e5835efb
%RAWIMUSA,2283,33553.430;2283,33553.430001700,00000077,104,-64253,101,18,-18,-438*4ce8b7c3
%RAWIMUSA,2283,33553.440;2283,33553.440001700,00000077,-34,-64229,100,18,0,-932*0d5cd93b
%RAWIMUSA,2283,33553.450;2283,33553.450001700,00000077,49,-64238,108,-18,0,0*71183cb4
%RAWIMUSA,2283,33553.460;2283,33553.460001700,00000077,79,-64246,109,-18,0,832*ff7e860d
%RAWIMUSA,2283,33553.470;2283,33553.470001700,00000077,-54,-64224,96,9,-8,640*c080c8ec
%RAWIMUSA,2283,33553.480;2283,33553.480001700,00000077,99,-64251,104,18,-9,-932*44eef20e
%RAWIMUSA,2283,33553.490;2283,33553.490001700,00000077,-1,-64232,109,0,0,-960*ff8f6d30
%RAWIMUSA,2283,33553.500;2283,33553.500001700,00000077,17,-64233,110,-18,9,914*c918246f
%RAWIMUSA,2283,33553.510;2283,33553.510001700,00000077,89,-64249,97,-8,-8,832*82a6ef63
%RAWIMUSA,2283,33553.520;2283,33553.520001700,00000077,-48,-64225,96,18,-9,-274*625d2958
%RAWIMUSA,2283,33553.530;2283,33553.530001700,00000077,94,-64246,115,9,0,-905*62f81c9e
%RAWIMUSA,2283,33553.540;2283,33553.540001700,00000077,12,-64239,115,-9,0,-201*b5d93791
%RAWIMUSA,2283,33553.550;2283,33553.550001700,00000077,-15,-64229,94,-18,0,1024*b4e8530c
%RAWIMUSA,2283,33553.560;2283,33553.560001700,00000077,107,-64249,101,9,-18,521*3bebfee3
%RAWIMUSA,2283,33553.570;2283,33553.570001700,00000077,-42,-64226,112,18,0,-877*9781722d
%RAWIMUSA,2283,33553.580;2283,33553.580001700,00000077,75,-64245,112,0,8,-859*d395ecbb
%RAWIMUSA,2283,33553.590;2283,33553.590001700,00000077,38,-64240,95,-18,0,676*c40fa987
%RAWIMUSA,2283,33553.600;2283,33553.600001700,00000077,-35,-64227,96,0,-8,1024*10804b83
%RAWIMUSA,2283,33553.610;2283,33553.610001700,00000077,106,-64250,112,18,-18,-338*b7808dd5
%RAWIMUSA,2283,33553.620;2283,33553.620001700,00000077,-23,-64226,110,9,8,-914*a8a0ccb0
%RAWIMUSA,2283,33553.630;2283,33553.630001700,00000077,49,-64240,94,-18,0,-100*9a5a6deb
%RAWIMUSA,2283,33553.640;2283,33553.640001700,00000077,55,-64245,97,-18,-8,823*33b69310
%RAWIMUSA,2283,33553.650;2283,33553.650001700,00000077,-45,-64228,110,18,-8,740*d5ec8b0b
%RAWIMUSA,2283,33553.660;2283,33553.660001700,00000077,111,-64249,114,18,0,-960*3749ba2b
%RAWIMUSA,2283,33553.670;2283,33553.670001700,00000077,-15,-64233,97,-9,0,-941*eac918a0
%RAWIMUSA,2283,33553.680;2283,33553.680001700,00000077,28,-64238,96,-18,9,795*a1746c94
%RAWIMUSA,2283,33553.690;2283,33553.690001700,00000077,79,-64245,107,0,-17,832*f25313f2
%RAWIMUSA,2283,33553.700;2283,33553.700001700,00000077,-41,-64224,110,18,-9,-164*cc479385
%RAWIMUSA,2283,33553.710;2283,33553.710001700,00000077,98,-64248,101,9,8,-923*90803af1
%RAWIMUSA,2283,33553.720;2283,33553.720001700,00000077,-7,-64231,95,-18,0,-265*7c90698b
%RAWIMUSA,2283,33553.730;2283,33553.730001700,00000077,14,-64232,105,-8,-8,1015*9cda4efe
%RAWIMUSA,2283,33553.740;2283,33553.740001700,00000077,102,-64251,113,9,-8,603*16ad8d23
%RAWIMUSA,2283,33553.750;2283,33553.750001700,00000077,-54,-64228,103,18,-9,-850*c271d5c5
%RAWIMUSA,2283,33553.760;2283,33553.760001700,00000077,89,-64247,103,-9,8,-896*fbf3f1a6
%RAWIMUSA,2283,33553.770;2283,33553.770001700,00000077,25,-64233,101,-8,0,594*6f22af0e
%RAWIMUSA,2283,33553.780;2283,33553.780001700,00000077,-21,-64230,103,-8,-8,1033*e592d711
%RAWIMUSA,2283,33553.790;2283,33553.790001700,00000077,106,-64251,119,18,-9,-274*e3154daa
%RAWIMUSA,2283,33553.800;2283,33553.800001700,00000077,-39,-64223,100,9,0,-905*66eccee8
%RAWIMUSA,2283,33553.810;2283,33553.810001700,00000077,71,-64245,92,-18,8,-219*d8a480e8
%RAWIMUSA,2283,33553.820;2283,33553.820001700,00000077,42,-64242,106,-8,-8,823*2e3169b6
%RAWIMUSA,2283,33553.830;2283,33553.830001700,00000077,-33,-64228,120,18,-8,859*ac757283
%RAWIMUSA,2283,33553.840;2283,33553.840001700,00000077,112,-64252,104,9,0,-960*5efaf441
%RAWIMUSA,2283,33553.850;2283,33553.850001700,00000077,-25,-64229,87,0,0,-932*e26f0aec
%RAWIMUSA,2283,33553.860;2283,33553.860001700,00000077,40,-64237,101,-18,9,695*fd27fa06
%RAWIMUSA,2283,33553.870;2283,33553.870001700,00000077,68,-64246,121,0,-17,823*7beffdfe
%RAWIMUSA,2283,33553.880;2283,33553.880001700,00000077,-47,-64227,108,9,-9,-63*10b3568e
%RAWIMUSA,2283,33553.890;2283,33553.890001700,00000077,105,-64247,91,9,8,-914*45d3d201
%RAWIMUSA,2283,33553.900;2283,33553.900001700,00000077,0,-64235,93,-9,0,-383*04761844
%RAWIMUSA,2283,33553.910;2283,33553.910001700,00000077,-5,-64233,119,-18,-8,1024*caf565e0
%RAWIMUSA,2283,33553.920;2283,33553.920001700,00000077,115,-64250,118,9,-8,713*aa8c7392
%RAWIMUSA,2283,33553.930;2283,33553.930001700,00000077,-49,-64225,85,18,0,-877*6756a19e
%RAWIMUSA,2283,33553.940;2283,33553.940001700,00000077,73,-64247,92,-9,0,-877*1b0eddbb
%RAWIMUSA,2283,33553.950;2283,33553.950001700,00000077,35,-64240,122,-8,0,484*645bff17
%RAWIMUSA,2283,33553.960;2283,33553.960001700,00000077,-18,-64231,116,-8,-17,1024*9b02bb98
%RAWIMUSA,2283,33553.970;2283,33553.970001700,00000077,111,-64252,89,18,-9,-164*2a67eb01
%RAWIMUSA,2283,33553.980;2283,33553.980001700,00000077,-39,-64224,88,9,8,-905*cfa4e2cc
%RAWIMUSA,2283,33553.990;2283,33553.990001700,00000077,57,-64242,119,-18,8,-319*beea494a
%RAWIMUSA,2283,33554.000;2283,33554.000001700,00000077,58,-64243,120,-8,-17,832*4672a6da
%RAWIMUSA,2283,33554.010;2283,33554.010001700,00000077,-35,-64225,94,9,-8,941*2e54ac4d
%RAWIMUSA,2283,33554.020;2283,33554.020001700,00000077,99,-64248,88,18,0,-950*99d6816a
%RAWIMUSA,2283,33554.030;2283,33554.030001700,00000077,-21,-64229,114,-9,0,-932*186474a5
%RAWIMUSA,2283,33554.040;2283,33554.040001700,00000077,44,-64237,120,-18,0,594*1b96d565
%RAWIMUSA,2283,33554.050;2283,33554.050001700,00000077,71,-64249,96,0,-8,823*11ce6999
%RAWIMUSA,2283,33554.060;2283,33554.060001700,00000077,-53,-64223,84,18,-9,36*a6317309
%RAWIMUSA,2283,33554.070;2283,33554.070001700,00000077,103,-64252,111,9,8,-941*42bb4516
%RAWIMUSA,2283,33554.080;2283,33554.080001700,00000077,2,-64231,122,-18,0,-466*0a8cd11c
%RAWIMUSA,2283,33554.090;2283,33554.090001700,00000077,7,-64232,99,-18,-8,1024*099e688e
%RAWIMUSA,2283,33554.100;2283,33554.100001700,00000077,87,-64251,89,18,-8,804*5623c8e2
%RAWIMUSA,2283,33554.110;2283,33554.110001700,00000077,-50,-64224,106,18,0,-859*a5a5f896
%RAWIMUSA,2283,33554.120;2283,33554.120001700,00000077,92,-64248,121,-9,8,-886*495309ec
%RAWIMUSA,2283,33554.130;2283,33554.130001700,00000077,24,-64242,102,-18,-8,384*4b3389fa
%RAWIMUSA,2283,33554.140;2283,33554.140001700,00000077,-29,-64227,86,0,-8,1033*c5c6d0d5
%RAWIMUSA,2283,33554.150;2283,33554.150001700,00000077,117,-64250,106,18,-9,-54*33b30490
%RAWIMUSA,2283,33554.160;2283,33554.160001700,00000077,-23,-64227,117,9,8,-905*50d02dbe
%RAWIMUSA,2283,33554.170;2283,33554.170001700,00000077,42,-64242,104,-18,0,-402*c4462201
%RAWIMUSA,2283,33554.180;2283,33554.180001700,00000077,56,-64246,91,-8,-8,823*91da1fc4
%RAWIMUSA,2283,33554.190;2283,33554.190001700,00000077,-32,-64227,101,9,-8,1015*e2bfbfa1
%RAWIMUSA,2283,33554.200;2283,33554.200001700,00000077,110,-64249,118,18,0,-923*066db084
%RAWIMUSA,2283,33554.210;2283,33554.210001700,00000077,-21,-64227,105,-9,8,-932*f0912497
%RAWIMUSA,2283,33554.220;2283,33554.220001700,00000077,28,-64238,97,-18,-8,493*94d3970c
%RAWIMUSA,2283,33554.230;2283,33554.230001700,00000077,87,-64248,98,9,-8,823*bd8d0793
%RAWIMUSA,2283,33554.240;2283,33554.240001700,00000077,-52,-64225,109,9,-9,137*3dddc924
%RAWIMUSA,2283,33554.250;2283,33554.250001700,00000077,95,-64249,114,0,8,-932*1f61b807
%RAWIMUSA,2283,33554.260;2283,33554.260001700,00000077,2,-64232,97,-18,0,-585*dce08447
%RAWIMUSA,2283,33554.270;2283,33554.270001700,00000077,10,-64234,97,-8,-8,1024*675ee85b
%RAWIMUSA,2283,33554.280;2283,33554.280001700,00000077,100,-64249,107,18,-17,832*9bc5d289
%RAWIMUSA,2283,33554.290;2283,33554.290001700,00000077,-57,-64224,107,18,8,-786*195c13b5
%RAWIMUSA,2283,33554.300;2283,33554.300001700,00000077,84,-64248,106,-18,0,-886*cd123eb8
%RAWIMUSA,2283,33554.310;2283,33554.310001700,00000077,29,-64241,98,-18,-9,301*0162b3a6
%RAWIMUSA,2283,33554.320;2283,33554.320001700,00000077,-20,-64230,101,18,-8,1024*85c68e07
%RAWIMUSA,2283,33554.330;2283,33554.330001700,00000077,109,-64251,112,18,0,18*a35cfdf2
%RAWIMUSA,2283,33554.340;2283,33554.340001700,00000077,-42,-64224,107,0,0,-896*2222bcc1
%RAWIMUSA,2283,33554.350;2283,33554.350001700,00000077,64,-64244,102,-18,0,-511*7e350339
%RAWIMUSA,2283,33554.360;2283,33554.360001700,00000077,55,-64244,101,-8,-8,832*1bea902e
%RAWIMUSA,2283,33554.370;2283,33554.370001700,00000077,-40,-64225,103,18,-8,1005*5b891a41
%RAWIMUSA,2283,33554.380;2283,33554.380001700,00000077,115,-64251,112,18,8,-831*1537a41e
%RAWIMUSA,2283,33554.390;2283,33554.390001700,00000077,-20,-64229,103,-18,0,-941*5b30f469
%RAWIMUSA,2283,33554.400;2283,33554.400001700,00000077,33,-64236,100,-18,-8,411*2b936274
%RAWIMUSA,2283,33554.410;2283,33554.410001700,00000077,81,-64250,107,9,-8,823*21e1a3bb
%RAWIMUSA,2283,33554.420;2283,33554.420001700,00000077,-51,-64224,107,18,0,237*326eccae
%RAWIMUSA,2283,33554.430;2283,33554.430001700,00000077,100,-64247,100,-9,0,-923*ea6bb45b
%RAWIMUSA,2283,33554.440;2283,33554.440001699,00000077,3,-64231,95,-9,0,-685*148c5b3c
%RAWIMUSA,2283,33554.450;2283,33554.450001699,00000077,0,-64234,111,-8,-8,1033*cd944d53
%RAWIMUSA,2283,33554.460;2283,33554.460001699,00000077,109,-64251,115,18,-8,832*0bc20ca4
%RAWIMUSA,2283,33554.470;2283,33554.470001699,00000077,-58,-64226,96,18,0,-694*5af9b2c0
%RAWIMUSA,2283,33554.480;2283,33554.480001699,00000077,74,-64246,97,-18,8,-877*8dc0198f
%RAWIMUSA,2283,33554.490;2283,33554.490001699,00000077,44,-64239,109,-18,-18,173*70291ddf
%RAWIMUSA,2283,33554.500;2283,33554.500001699,00000077,-28,-64227,113,9,-8,1033*d4b55838
%RAWIMUSA,2283,33554.510;2283,33554.510001699,00000077,109,-64252,104,18,0,146*d859d888
%RAWIMUSA,2283,33554.520;2283,33554.520001699,00000077,-33,-64228,93,0,0,-914*18fb29ad
%RAWIMUSA,2283,33554.530;2283,33554.530001699,00000077,49,-64238,107,-18,0,-603*b950d957
%RAWIMUSA,2283,33554.540;2283,33554.540001699,00000077,67,-64246,114,-8,-17,823*1347d740
%RAWIMUSA,2283,33554.550;2283,33554.550001699,00000077,-43,-64226,102,18,0,1015*ba813c83
%RAWIMUSA,2283,33554.560;2283,33554.560001699,00000077,110,-64250,99,9,0,-722*b87f3c77
%RAWIMUSA,2283,33554.570;2283,33554.570001699,00000077,-8,-64229,105,-18,0,-941*c1756294
%RAWIMUSA,2283,33554.580;2283,33554.580001699,00000077,14,-64235,111,-18,-9,310*052082f8
%RAWIMUSA,2283,33554.590;2283,33554.590001699,00000077,92,-64252,107,18,-8,823*3214b45d
%RAWIMUSA,2283,33554.600;2283,33554.600001699,00000077,-57,-64226,97,9,0,329*29167310
%RAWIMUSA,2283,33554.610;2283,33554.610001699,00000077,101,-64248,104,0,8,-905*ae050d7c
%RAWIMUSA,2283,33554.620;2283,33554.620001699,00000077,24,-64237,109,-18,-9,-795*16261272
%RAWIMUSA,2283,33554.630;2283,33554.630001699,00000077,-25,-64226,107,0,-8,1024*989d8923
%RAWIMUSA,2283,33554.640;2283,33554.640001699,00000077,111,-64250,104,9,0,841*24d508c2
%RAWIMUSA,2283,33554.650;2283,33554.650001699,00000077,-42,-64226,97,18,0,-621*46d48777
%RAWIMUSA,2283,33554.660;2283,33554.660001699,00000077,60,-64247,109,-18,0,-850*7638f1e9
%RAWIMUSA,2283,33554.670;2283,33554.670001699,00000077,50,-64244,111,-18,-9,82*37dd0f62
%RAWIMUSA,2283,33554.680;2283,33554.680001699,00000077,-32,-64225,101,18,-8,1024*c00ff8aa
%RAWIMUSA,2283,33554.690;2283,33554.690001699,00000077,110,-64251,103,9,0,265*a45e1573
%RAWIMUSA,2283,33554.700;2283,33554.700001699,00000077,-29,-64228,108,0,0,-923*e7e10d29
%RAWIMUSA,2283,33554.710;2283,33554.710001699,00000077,30,-64235,111,-18,0,-694*d43b0e81
%RAWIMUSA,2283,33554.720;2283,33554.720001699,00000077,80,-64249,102,0,-17,823*95345309
%RAWIMUSA,2283,33554.730;2283,33554.730001699,00000077,-45,-64225,102,18,0,996*6228732c
%RAWIMUSA,2283,33554.740;2283,33554.740001699,00000077,101,-64249,108,9,8,-594*b55fb1b2
%RAWIMUSA,2283,33554.750;2283,33554.750001699,00000077,-3,-64231,109,-18,0,-978*a799b3e0
%RAWIMUSA,2283,33554.760;2283,33554.760001699,00000077,9,-64234,101,-18,-9,228*79faf921
%RAWIMUSA,2283,33554.770;2283,33554.770001699,00000077,106,-64251,103,18,-8,823*65bace2d
%RAWIMUSA,2283,33554.780;2283,33554.780001699,00000077,-55,-64225,102,18,0,420*7369792e
%RAWIMUSA,2283,33554.790;2283,33554.790001699,00000077,88,-64244,106,-9,8,-914*972d585c
%RAWIMUSA,2283,33554.800;2283,33554.800001699,00000077,26,-64235,102,-18,-9,-896*538f783e
%RAWIMUSA,2283,33554.810;2283,33554.810001699,00000077,-9,-64230,102,0,-8,1024*bb9306a2
%RAWIMUSA,2283,33554.820;2283,33554.820001699,00000077,106,-64248,111,18,-8,832*6db19f93
%RAWIMUSA,2283,33554.830;2283,33554.830001699,00000077,-49,-64226,104,0,8,-502*77ee42c2
%RAWIMUSA,2283,33554.840;2283,33554.840001699,00000077,77,-64247,106,-18,0,-877*b5681355
%RAWIMUSA,2283,33554.850;2283,33554.850001699,00000077,52,-64243,101,-9,-9,-9*284226d6
%RAWIMUSA,2283,33554.860;2283,33554.860001699,00000077,-42,-64225,101,9,-8,1015*69df6a7c
%RAWIMUSA,2283,33554.870;2283,33554.870001699,00000077,111,-64248,109,18,0,356*c0327ad3
%RAWIMUSA,2283,33554.880;2283,33554.880001699,00000077,-32,-64226,105,-9,8,-914*509f73b8
%RAWIMUSA,2283,33554.890;2283,33554.890001699,00000077,52,-64245,104,-18,-9,-804*e9ad273d
%RAWIMUSA,2283,33554.900;2283,33554.900001699,00000077,68,-64246,105,0,-17,823*6387cecf
%RAWIMUSA,2283,33554.910;2283,33554.910001699,00000077,-51,-64224,102,9,9,1005*76d0ba58
%RAWIMUSA,2283,33554.920;2283,33554.920001699,00000077,113,-64252,108,9,0,-502*db5af5c5
%RAWIMUSA,2283,33554.930;2283,33554.930001699,00000077,-18,-64232,104,-18,0,-950*75149014
%RAWIMUSA,2283,33554.940;2283,33554.940001699,00000077,20,-64237,105,-9,-9,109*27c736d4
%RAWIMUSA,2283,33554.950;2283,33554.950001699,00000077,79,-64248,108,18,-8,813*c8c5b151
%RAWIMUSA,2283,33554.960;2283,33554.960001699,00000077,-40,-64223,104,9,9,539*b9e0a6e3
%RAWIMUSA,2283,33554.970;2283,33554.970001699,00000077,101,-64250,108,-9,0,-923*cdecec5f
%RAWIMUSA,2283,33554.980;2283,33554.980001699,00000077,-1,-64233,101,-18,-9,-960*80dff9e0
%RAWIMUSA,2283,33554.990;2283,33554.990001699,00000077,0,-64234,102,0,-17,996*a6d0209d
%RAWIMUSA,2283,33555.000;2283,33555.000001699,00000077,99,-64250,105,18,0,823*0285247c
%RAWIMUSA,2283,33555.010;2283,33555.010001699,00000077,-44,-64225,105,9,8,-374*4ea14cb6
%RAWIMUSA,2283,33555.020;2283,33555.020001699,00000077,86,-64247,106,-9,0,-886*42e76d52
%RAWIMUSA,2283,33555.030;2283,33555.030001699,00000077,24,-64238,104,-18,-9,-100*6d54d642
%RAWIMUSA,2283,33555.040;2283,33555.040001699,00000077,-18,-64230,102,18,-8,1024*75a313a8
%RAWIMUSA,2283,33555.050;2283,33555.050001699,00000077,108,-64250,109,18,0,429*82fc565f
%RAWIMUSA,2283,33555.060;2283,33555.060001699,00000077,-37,-64229,102,-18,8,-896*4d7dd142
%RAWIMUSA,2283,33555.070;2283,33555.070001699,00000077,64,-64242,107,-18,-9,-859*c408b784
%RAWIMUSA,2283,33555.080;2283,33555.080001699,00000077,51,-64242,104,9,-17,759*0f7a4f14
%RAWIMUSA,2283,33555.090;2283,33555.090001699,00000077,-25,-64227,106,18,0,1024*64639231
%RAWIMUSA,2283,33555.100;2283,33555.100001699,00000077,105,-64253,108,0,8,-438*21bba6b0
%RAWIMUSA,2283,33555.110;2283,33555.110001699,00000077,-29,-64226,97,-18,-9,-923*31b1bf4a
%RAWIMUSA,2283,33555.120;2283,33555.120001699,00000077,33,-64241,102,-9,-9,9*23b22b8d
%RAWIMUSA,2283,33555.130;2283,33555.130001699,00000077,83,-64245,116,18,-8,813*c33e0bcf
%RAWIMUSA,2283,33555.140;2283,33555.140001699,00000077,-48,-64227,103,9,9,640*b9c35807
%RAWIMUSA,2283,33555.150;2283,33555.150001699,00000077,105,-64250,97,-9,0,-923*abb4b537
%RAWIMUSA,2283,33555.160;2283,33555.160001699,00000077,3,-64235,102,-18,-9,-978*93400051
%RAWIMUSA,2283,33555.170;2283,33555.170001699,00000077,-6,-64227,110,9,-8,923*3982fb27
%RAWIMUSA,2283,33555.180;2283,33555.180001699,00000077,105,-64251,108,9,0,823*374e6776
%RAWIMUSA,2283,33555.190;2283,33555.190001699,00000077,-52,-64226,98,9,8,-301*8ec6bb80
%RAWIMUSA,2283,33555.200;2283,33555.200001699,00000077,77,-64247,102,-18,-9,-868*2bd02756
%RAWIMUSA,2283,33555.210;2283,33555.210001699,00000077,48,-64240,106,-9,-9,-219*36adc850
%RAWIMUSA,2283,33555.220;2283,33555.220001699,00000077,-39,-64227,105,9,0,1024*86cb30d0
%RAWIMUSA,2283,33555.230;2283,33555.230001699,00000077,114,-64250,103,18,0,557*e40dd4ce
%RAWIMUSA,2283,33555.240;2283,33555.240001699,00000077,-28,-64229,104,-18,0,-923*b60b86e5
%RAWIMUSA,2283,33555.250;2283,33555.250001699,00000077,42,-64241,106,-18,-9,-841*e0fe710d
%RAWIMUSA,2283,33555.260;2283,33555.260001699,00000077,76,-64245,104,9,-8,658*97e99bfd
%RAWIMUSA,2283,33555.270;2283,33555.270001699,00000077,-51,-64226,98,18,0,1015*73d6fb08
%RAWIMUSA,2283,33555.280;2283,33555.280001699,00000077,112,-64252,111,0,8,-310*1656520a
%RAWIMUSA,2283,33555.290;2283,33555.290001699,00000077,-14,-64231,105,-18,-9,-950*a20cfd69
%RAWIMUSA,2283,33555.300;2283,33555.300001699,00000077,13,-64237,101,-9,-9,-91*55b0884f
%RAWIMUSA,2283,33555.310;2283,33555.310001699,00000077,90,-64248,99,18,0,823*515f30ad
%RAWIMUSA,2283,33555.320;2283,33555.320001699,00000077,-45,-64222,107,18,0,722*32f3cc7e
%RAWIMUSA,2283,33555.330;2283,33555.330001699,00000077,96,-64251,113,-18,0,-905*f621cd8e
%RAWIMUSA,2283,33555.340;2283,33555.340001699,00000077,-5,-64234,100,-18,-10,-987*a8bb1bf2
%RAWIMUSA,2283,33555.350;2283,33555.350001699,00000077,3,-64231,96,9,-8,823*893c0728
%RAWIMUSA,2283,33555.360;2283,33555.360001699,00000077,111,-64250,109,18,0,841*aa5510a3
%RAWIMUSA,2283,33555.370;2283,33555.370001699,00000077,-56,-64227,108,0,8,-201*c923896a
%RAWIMUSA,2283,33555.380;2283,33555.380001699,00000077,76,-64248,105,-18,-9,-886*45fc81a6
%RAWIMUSA,2283,33555.390;2283,33555.390001699,00000077,39,-64241,102,-9,-18,-329*6f33d78b
%RAWIMUSA,2283,33555.400;2283,33555.400001699,00000077,-19,-64226,101,18,0,1033*a2d66038
%RAWIMUSA,2283,33555.410;2283,33555.410001699,00000077,100,-64250,108,18,9,649*fb34743f
%RAWIMUSA,2283,33555.420;2283,33555.420001699,00000077,-42,-64225,102,-18,-9,-905*bfc19255
%RAWIMUSA,2283,33555.430;2283,33555.430001699,00000077,64,-64243,101,-18,-9,-859*02f9b6b7
%RAWIMUSA,2283,33555.440;2283,33555.440001699,00000077,72,-64244,103,9,-8,567*d274d05a
%RAWIMUSA,2283,33555.450;2283,33555.450001699,00000077,-49,-64228,108,18,9,1015*61d09d91
%RAWIMUSA,2283,33555.460;2283,33555.460001699,00000077,102,-64248,110,0,0,-228*ffd297d1
%RAWIMUSA,2283,33555.470;2283,33555.470001699,00000077,-10,-64227,101,-18,-9,-932*71f67358
%RAWIMUSA,2283,33555.480;2283,33555.480001699,00000077,34,-64239,102,-9,-9,-201*b7db0b66
%RAWIMUSA,2283,33555.490;2283,33555.490001699,00000077,82,-64247,111,18,0,823*03a2fa88
%RAWIMUSA,2283,33555.500;2283,33555.500001699,00000077,-61,-64224,100,18,0,823*7be2dd32
%RAWIMUSA,2283,33555.510;2283,33555.510001699,00000077,107,-64248,99,-18,0,-905*a688db93
%RAWIMUSA,2283,33555.520;2283,33555.520001699,00000077,9,-64235,104,-18,-9,-978*841e9a76
%RAWIMUSA,2283,33555.530;2283,33555.530001699,00000077,-15,-64233,111,9,-8,713*a0678e36
%RAWIMUSA,2283,33555.540;2283,33555.540001699,00000077,94,-64253,105,18,9,832*78dce1e1
%RAWIMUSA,2283,33555.550;2283,33555.550001699,00000077,-32,-64225,98,0,0,-91*0853fb1e
%RAWIMUSA,2283,33555.560;2283,33555.560001699,00000077,84,-64246,109,-18,-9,-896*ae6d0581
%RAWIMUSA,2283,33555.570;2283,33555.570001699,00000077,22,-64239,112,-9,-18,-402*68458c0b
%RAWIMUSA,2283,33555.580;2283,33555.580001699,00000077,-23,-64231,102,18,9,1015*d2e8868f
%RAWIMUSA,2283,33555.590;2283,33555.590001699,00000077,108,-64251,98,18,0,740*b14e6d55
%RAWIMUSA,2283,33555.600;2283,33555.600001699,00000077,-35,-64225,101,-18,-9,-896*e0098320
%RAWIMUSA,2283,33555.610;2283,33555.610001699,00000077,67,-64245,111,-18,-9,-868*a197a342
%RAWIMUSA,2283,33555.620;2283,33555.620001699,00000077,42,-64242,110,18,-8,466*feeefd8d
%RAWIMUSA,2283,33555.630;2283,33555.630001699,00000077,-32,-64230,95,9,9,1015*a8b2a28e
%RAWIMUSA,2283,33555.640;2283,33555.640001699,00000077,109,-64246,99,0,0,-146*a1db56ec
%RAWIMUSA,2283,33555.650;2283,33555.650001699,00000077,-35,-64229,112,-18,-9,-923*520dec24
%RAWIMUSA,2283,33555.660;2283,33555.660001699,00000077,49,-64240,113,0,-9,-310*7052b3fc
%RAWIMUSA,2283,33555.670;2283,33555.670001699,00000077,75,-64247,99,9,0,823*b8fb0a7b
%RAWIMUSA,2283,33555.680;2283,33555.680001699,00000077,-45,-64226,91,18,0,951*916b9901
%RAWIMUSA,2283,33555.690;2283,33555.690001699,00000077,99,-64250,110,-18,-9,-950*ad055bdd
%RAWIMUSA,2283,33555.700;2283,33555.700001699,00000077,-11,-64230,114,-18,-9,-950*afe415e7
%RAWIMUSA,2283,33555.710;2283,33555.710001699,00000077,35,-64238,101,9,0,603*e499c289
%RAWIMUSA,2283,33555.720;2283,33555.720001699,00000077,84,-64245,94,18,0,832*d55cdbcd
%RAWIMUSA,2283,33555.730;2283,33555.730001699,00000077,-58,-64223,111,0,0,36*f00b3506
%RAWIMUSA,2283,33555.740;2283,33555.740001699,00000077,101,-64250,121,-18,-9,-914*0552beae
%RAWIMUSA,2283,33555.750;2283,33555.750001699,00000077,5,-64233,89,-9,-9,-493*9de0945b
%RAWIMUSA,2283,33555.760;2283,33555.760001699,00000077,1,-64229,89,18,9,1024*b2dc9a81
%RAWIMUSA,2283,33555.770;2283,33555.770001699,00000077,93,-64251,118,9,0,823*dc884ee7
%RAWIMUSA,2283,33555.780;2283,33555.780001699,00000077,-48,-64227,118,-18,-9,-868*a506b247
%RAWIMUSA,2283,33555.790;2283,33555.790001699,00000077,91,-64247,99,-18,-9,-886*69947de6
%RAWIMUSA,2283,33555.800;2283,33555.800001699,00000077,39,-64245,84,18,0,375*31438754
%RAWIMUSA,2283,33555.810;2283,33555.810001699,00000077,-45,-64226,112,18,9,1033*19349db3
%RAWIMUSA,2283,33555.820;2283,33555.820001699,00000077,120,-64249,124,-9,-9,-45*5457efd7
%RAWIMUSA,2283,33555.830;2283,33555.830001699,00000077,-29,-64229,93,-18,-9,-932*3f819a29
%RAWIMUSA,2283,33555.840;2283,33555.840001699,00000077,34,-64237,86,0,-9,-393*74327254
%RAWIMUSA,2283,33555.850;2283,33555.850001699,00000077,80,-64249,109,18,0,823*b60ca20e
%RAWIMUSA,2283,33555.860;2283,33555.860001699,00000077,-45,-64225,120,9,9,996*f08a5e71
%RAWIMUSA,2283,33555.870;2283,33555.870001699,00000077,101,-64248,102,-18,-9,-886*927055c7
%RAWIMUSA,2283,33555.880;2283,33555.880001699,00000077,-2,-64236,88,-18,-19,-969*fc77f4d2
%RAWIMUSA,2283,33555.890;2283,33555.890001699,00000077,1,-64232,104,18,0,521*e2626eef
%RAWIMUSA,2283,33555.900;2283,33555.900001699,00000077,115,-64249,123,18,9,832*0f11b181
%RAWIMUSA,2283,33555.910;2283,33555.910001699,00000077,-55,-64223,99,-9,0,109*a803553b
%RAWIMUSA,2283,33555.920;2283,33555.920001699,00000077,81,-64248,91,-18,-19,-877*dce40449
%RAWIMUSA,2283,33555.930;2283,33555.930001699,00000077,37,-64243,103,0,-9,-612*6cf95a8c
%RAWIMUSA,2283,33555.940;2283,33555.940001699,00000077,-29,-64227,117,18,9,1015*3d7c15dd
%RAWIMUSA,2283,33555.950;2283,33555.950001699,00000077,109,-64251,106,9,0,859*26294d94
%RAWIMUSA,2283,33555.960;2283,33555.960001699,00000077,-29,-64225,89,-18,-9,-822*5ec9b49c
%RAWIMUSA,2283,33555.970;2283,33555.970001699,00000077,54,-64240,106,-18,-9,-859*cd99935d
%RAWIMUSA,2283,33555.980;2283,33555.980001699,00000077,58,-64247,122,18,0,265*1beeba69
%RAWIMUSA,2283,33555.990;2283,33555.990001699,00000077,-50,-64226,99,18,9,1015*46c8af95
%RAWIMUSA,2283,33556.000;2283,33556.000001699,00000077,115,-64245,92,-18,-9,82*58b86b54
%RAWIMUSA,2283,33556.010;2283,33556.010001699,00000077,-21,-64231,104,-9,-9,-950*772f67c9
%RAWIMUSA,2283,33556.020;2283,33556.020001699,00000077,22,-64235,120,0,-9,-484*688c6d4d
%RAWIMUSA,2283,33556.030;2283,33556.030001699,00000077,83,-64248,109,18,0,813*35ed5024
%RAWIMUSA,2283,33556.040;2283,33556.040001699,00000077,-45,-64226,87,0,9,987*89abac78
%RAWIMUSA,2283,33556.050;2283,33556.050001699,00000077,100,-64251,105,-9,-9,-777*17c87bdc
%RAWIMUSA,2283,33556.060;2283,33556.060001699,00000077,-2,-64230,117,-18,-19,-969*6891bb28
%RAWIMUSA,2283,33556.070;2283,33556.070001699,00000077,2,-64234,105,18,9,411*6434a5d8
%RAWIMUSA,2283,33556.080;2283,33556.080001699,00000077,110,-64251,102,18,0,832*c30cf6e8
%RAWIMUSA,2283,33556.090;2283,33556.090001699,00000077,-51,-64224,102,-9,0,210*b70cc926
%RAWIMUSA,2283,33556.100;2283,33556.100001699,00000077,77,-64244,102,-18,-19,-895*16d8a285
%RAWIMUSA,2283,33556.110;2283,33556.110001699,00000077,32,-64240,111,0,0,-703*dbb50f58
%RAWIMUSA,2283,33556.120;2283,33556.120001699,00000077,-15,-64227,105,18,9,1033*40077042
%RAWIMUSA,2283,33556.130;2283,33556.130001699,00000077,111,-64254,100,9,0,859*04c0105d
%RAWIMUSA,2283,33556.140;2283,33556.140001699,00000077,-41,-64225,102,-18,-18,-722*f4c5323d
%RAWIMUSA,2283,33556.150;2283,33556.150001699,00000077,55,-64242,110,-18,-9,-850*b7a08fcd
%RAWIMUSA,2283,33556.160;2283,33556.160001699,00000077,59,-64245,109,18,9,164*42458e90
%RAWIMUSA,2283,33556.170;2283,33556.170001699,00000077,-42,-64221,95,18,0,1015*65d14186
%RAWIMUSA,2283,33556.180;2283,33556.180001699,00000077,107,-64251,102,-9,-9,173*d22272f9
%RAWIMUSA,2283,33556.190;2283,33556.190001699,00000077,-20,-64228,108,-18,-9,-932*8e6391b6
%RAWIMUSA,2283,33556.200;2283,33556.200001699,00000077,36,-64238,109,0,0,-612*94224c97
%RAWIMUSA,2283,33556.210;2283,33556.210001699,00000077,74,-64249,102,18,0,832*51c5c2eb
%RAWIMUSA,2283,33556.220;2283,33556.220001699,00000077,-48,-64225,95,0,0,1005*cce9869a
%RAWIMUSA,2283,33556.230;2283,33556.230001699,00000077,95,-64252,109,-9,-18,-703*d6d9cef1
%RAWIMUSA,2283,33556.240;2283,33556.240001699,00000077,0,-64229,113,-9,-9,-960*d2c7e889
%RAWIMUSA,2283,33556.250;2283,33556.250001699,00000077,9,-64233,99,9,9,320*57d336ea
%RAWIMUSA,2283,33556.260;2283,33556.260001699,00000077,98,-64250,98,28,0,832*aeec0d9a
%RAWIMUSA,2283,33556.270;2283,33556.270001699,00000077,-52,-64225,106,-18,-8,320*375f8f48
%RAWIMUSA,2283,33556.280;2283,33556.280001699,00000077,86,-64248,114,-18,-9,-905*f24521a8
%RAWIMUSA,2283,33556.290;2283,33556.290001699,00000077,20,-64238,101,9,0,-795*12883dbb
%RAWIMUSA,2283,33556.300;2283,33556.300001699,00000077,-10,-64231,95,18,9,1015*592114cf
%RAWIMUSA,2283,33556.310;2283,33556.310001699,00000077,105,-64250,106,0,-8,850*f436ce91
%RAWIMUSA,2283,33556.320;2283,33556.320001699,00000077,-42,-64223,108,-18,-9,-594*f20a7cb6
%RAWIMUSA,2283,33556.330;2283,33556.330001699,00000077,74,-64246,105,-9,-9,-877*e8618ef6
%RAWIMUSA,2283,33556.340;2283,33556.340001699,00000077,39,-64242,104,9,0,82*722b446c
%RAWIMUSA,2283,33556.350;2283,33556.350001698,00000077,-26,-64224,103,18,9,1033*b87f0c29
%RAWIMUSA,2283,33556.360;2283,33556.360001698,00000077,115,-64250,107,-18,-18,246*147ecf47
%RAWIMUSA,2283,33556.370;2283,33556.370001698,00000077,-36,-64228,99,-18,-9,-914*90f6fea9
%RAWIMUSA,2283,33556.380;2283,33556.380001698,00000077,52,-64240,101,9,8,-713*b8138c28
%RAWIMUSA,2283,33556.390;2283,33556.390001698,00000077,64,-64244,105,18,0,832*61a4c1b2
%RAWIMUSA,2283,33556.400;2283,33556.400001698,00000077,-44,-64228,103,0,0,1005*b8e4e1dd
%RAWIMUSA,2283,33556.410;2283,33556.410001698,00000077,102,-64251,104,-18,-18,-612*150d6055
%RAWIMUSA,2283,33556.420;2283,33556.420001698,00000077,-22,-64229,103,-9,0,-950*d8f86bae
%RAWIMUSA,2283,33556.430;2283,33556.430001698,00000077,47,-64239,108,18,0,201*87a220df
%RAWIMUSA,2283,33556.440;2283,33556.440001698,00000077,68,-64249,106,18,0,832*cbab3450
%RAWIMUSA,2283,33556.450;2283,33556.450001698,00000077,-58,-64228,99,-18,-8,439*3c41a27b
%RAWIMUSA,2283,33556.460;2283,33556.460001698,00000077,105,-64249,107,-18,-9,-923*115273df
%RAWIMUSA,2283,33556.470;2283,33556.470001698,00000077,1,-64232,109,9,0,-868*4fdacf2e
%RAWIMUSA,2283,33556.480;2283,33556.480001698,00000077,10,-64232,106,18,9,1024*5f9a4da5
%RAWIMUSA,2283,33556.490;2283,33556.490001698,00000077,91,-64252,103,0,-8,832*7d331c68
%RAWIMUSA,2283,33556.500;2283,33556.500001698,00000077,-51,-64224,97,-18,-9,-484*a3aba606
%RAWIMUSA,2283,33556.510;2283,33556.510001698,00000077,93,-64252,112,-9,0,-886*321bf288
%RAWIMUSA,2283,33556.520;2283,33556.520001698,00000077,27,-64238,111,18,0,0*cc81af1c
%RAWIMUSA,2283,33556.530;2283,33556.530001698,00000077,-22,-64226,99,9,9,1033*2e922012
%RAWIMUSA,2283,33556.540;2283,33556.540001698,00000077,110,-64254,97,-8,-18,347*8fc338c2
%RAWIMUSA,2283,33556.550;2283,33556.550001698,00000077,-34,-64225,108,-18,-9,-905*bbdd6691
%RAWIMUSA,2283,33556.560;2283,33556.560001698,00000077,62,-64241,115,9,0,-822*17d7cc18
%RAWIMUSA,2283,33556.570;2283,33556.570001698,00000077,46,-64248,100,18,9,813*573eb6fa
%RAWIMUSA,2283,33556.580;2283,33556.580001698,00000077,-39,-64223,92,-8,-8,1024*6c1fa499
%RAWIMUSA,2283,33556.590;2283,33556.590001698,00000077,118,-64251,111,-9,-9,-521*86550dd2
%RAWIMUSA,2283,33556.600;2283,33556.600001698,00000077,-19,-64226,113,-9,0,-941*3ce90e73
%RAWIMUSA,2283,33556.610;2283,33556.610001698,00000077,18,-64237,98,18,0,109*aced1d0c
%RAWIMUSA,2283,33556.620;2283,33556.620001698,00000077,85,-64246,90,9,0,823*b0809cc9
%RAWIMUSA,2283,33556.630;2283,33556.630001698,00000077,-48,-64226,108,-8,-8,539*0f10b76d
%RAWIMUSA,2283,33556.640;2283,33556.640001698,00000077,93,-64248,120,-18,-9,-914*774c0e3c
%RAWIMUSA,2283,33556.650;2283,33556.650001698,00000077,5,-64235,101,9,0,-978*6c467a06
%RAWIMUSA,2283,33556.660;2283,33556.660001698,00000077,-2,-64229,94,18,9,1015*5111bf17
%RAWIMUSA,2283,33556.670;2283,33556.670001698,00000077,110,-64251,110,-8,-8,841*6c1e80fe
%RAWIMUSA,2283,33556.680;2283,33556.680001698,00000077,-50,-64226,112,-18,-18,-383*6ef1099f
%RAWIMUSA,2283,33556.690;2283,33556.690001698,00000077,77,-64245,102,0,0,-896*2c2a1464
%RAWIMUSA,2283,33556.700;2283,33556.700001698,00000077,32,-64239,93,18,0,-118*8dd5a0de
%RAWIMUSA,2283,33556.710;2283,33556.710001698,00000077,-17,-64225,104,9,9,1024*44629982
%RAWIMUSA,2283,33556.720;2283,33556.720001698,00000077,111,-64251,117,-18,-18,448*2c6247d8
%RAWIMUSA,2283,33556.730;2283,33556.730001698,00000077,-42,-64228,100,-18,-9,-905*0faf7ebb
%RAWIMUSA,2283,33556.740;2283,33556.740001698,00000077,61,-64241,99,9,8,-859*85cd543f
%RAWIMUSA,2283,33556.750;2283,33556.750001698,00000077,57,-64248,105,18,0,759*4a9bd7f4
%RAWIMUSA,2283,33556.760;2283,33556.760001698,00000077,-44,-64228,110,-8,-8,1033*790937fe
%RAWIMUSA,2283,33556.770;2283,33556.770001698,00000077,109,-64250,104,-9,-9,-420*c50e4092
%RAWIMUSA,2283,33556.780;2283,33556.780001698,00000077,-17,-64225,91,0,0,-941*91d94a5f
%RAWIMUSA,2283,33556.790;2283,33556.790001698,00000077,41,-64238,108,18,0,-9*81a7c477
%RAWIMUSA,2283,33556.800;2283,33556.800001698,00000077,68,-64248,116,9,0,823*03370fcd
%RAWIMUSA,2283,33556.810;2283,33556.810001698,00000077,-56,-64227,101,-18,-8,640*dd5ad9c2
%RAWIMUSA,2283,33556.820;2283,33556.820001698,00000077,108,-64252,93,-18,-9,-923*789442f8
%RAWIMUSA,2283,33556.830;2283,33556.830001698,00000077,-2,-64231,110,18,8,-969*959ac32e
%RAWIMUSA,2283,33556.840;2283,33556.840001698,00000077,10,-64230,112,18,0,896*2a08a3fb
%RAWIMUSA,2283,33556.850;2283,33556.850001698,00000077,90,-64249,99,-8,-8,832*33f87154
%RAWIMUSA,2283,33556.860;2283,33556.860001698,00000077,-41,-64225,95,-18,-9,-274*a062bb33
%RAWIMUSA,2283,33556.870;2283,33556.870001698,00000077,92,-64246,112,0,0,-905*277e4213
%RAWIMUSA,2283,33556.880;2283,33556.880001698,00000077,6,-64233,105,18,0,-201*5d5b53f8
%RAWIMUSA,2283,33556.890;2283,33556.890001698,00000077,-7,-64232,96,9,0,1024*eda4df98
%RAWIMUSA,2283,33556.900;2283,33556.900001698,00000077,109,-64253,106,-18,-8,530*4f543236
%RAWIMUSA,2283,33556.910;2283,33556.910001698,00000077,-43,-64223,111,-9,-9,-877*6281348e
%RAWIMUSA,2283,33556.920;2283,33556.920001698,00000077,68,-64247,102,9,0,-877*f9dbc7a7
%RAWIMUSA,2283,33556.930;2283,33556.930001698,00000077,42,-64245,105,18,9,658*1483b4a9
%RAWIMUSA,2283,33556.940;2283,33556.940001698,00000077,-31,-64223,102,-8,-17,1024*0491f8dc
%RAWIMUSA,2283,33556.950;2283,33556.950001698,00000077,117,-64251,114,-18,-9,-338*e97a71a7
%RAWIMUSA,2283,33556.960;2283,33556.960001698,00000077,-29,-64226,107,0,0,-914*75aab28a
%RAWIMUSA,2283,33556.970;2283,33556.970001698,00000077,39,-64239,92,18,9,-109*dedf4df0
%RAWIMUSA,2283,33556.980;2283,33556.980001698,00000077,74,-64245,108,9,-8,823*b7dad621
%RAWIMUSA,2283,33556.990;2283,33556.990001698,00000077,-36,-64226,111,-18,-8,759*525fd687
%RAWIMUSA,2283,33557.000;2283,33557.000001698,00000077,107,-64252,105,-18,-9,-941*bb9593b9
%RAWIMUSA,2283,33557.010;2283,33557.010001698,00000077,-17,-64230,93,18,8,-960*27b5c9eb
%RAWIMUSA,2283,33557.020;2283,33557.020001698,00000077,22,-64235,107,18,0,813*b9773b04
%RAWIMUSA,2283,33557.030;2283,33557.030001698,00000077,96,-64249,115,-8,-8,813*9efe14c1
%RAWIMUSA,2283,33557.040;2283,33557.040001698,00000077,-53,-64223,99,-18,-9,-173*f6c7343f
%RAWIMUSA,2283,33557.050;2283,33557.050001698,00000077,88,-64249,96,0,0,-905*61216836
%RAWIMUSA,2283,33557.060;2283,33557.060001698,00000077,29,-64233,108,18,0,-310*26a938e1
%RAWIMUSA,2283,33557.070;2283,33557.070001698,00000077,-9,-64229,108,0,0,1024*b22d45aa
%RAWIMUSA,2283,33557.080;2283,33557.080001698,00000077,97,-64251,104,-18,-17,631*b07feda8
%RAWIMUSA,2283,33557.090;2283,33557.090001698,00000077,-43,-64225,97,-9,0,-877*de240360
%RAWIMUSA,2283,33557.100;2283,33557.100001698,00000077,76,-64246,109,18,8,-877*afdbfa0c
%RAWIMUSA,2283,33557.110;2283,33557.110001698,00000077,43,-64241,113,18,-8,567*ea3acb6b
%RAWIMUSA,2283,33557.120;2283,33557.120001698,00000077,-32,-64231,103,-18,-8,1024*594888b5
%RAWIMUSA,2283,33557.130;2283,33557.130001698,00000077,111,-64251,99,-18,-9,-237*59c9b24c
%RAWIMUSA,2283,33557.140;2283,33557.140001698,00000077,-31,-64227,101,9,8,-905*f5bc4c35
%RAWIMUSA,2283,33557.150;2283,33557.150001698,00000077,51,-64241,111,18,0,-237*8d31f506
%RAWIMUSA,2283,33557.160;2283,33557.160001698,00000077,47,-64244,109,0,-8,832*124946a4
%RAWIMUSA,2283,33557.170;2283,33557.170001698,00000077,-31,-64225,95,-18,-8,850*5bed5a54
%RAWIMUSA,2283,33557.180;2283,33557.180001698,00000077,122,-64250,107,-9,0,-950*10929c23
%RAWIMUSA,2283,33557.190;2283,33557.190001698,00000077,-27,-64229,106,18,8,-923*d0a82484
%RAWIMUSA,2283,33557.200;2283,33557.200001698,00000077,27,-64238,104,18,-8,695*edd221f4
%RAWIMUSA,2283,33557.210;2283,33557.210001698,00000077,82,-64247,97,-18,-8,813*e9cf8800
%RAWIMUSA,2283,33557.220;2283,33557.220001698,00000077,-41,-64223,98,-18,0,-45*0ba9b84d
%RAWIMUSA,2283,33557.230;2283,33557.230001698,00000077,97,-64250,114,9,0,-932*e8838c8a
%RAWIMUSA,2283,33557.240;2283,33557.240001698,00000077,-4,-64230,110,18,0,-383*43e232bd
%RAWIMUSA,2283,33557.250;2283,33557.250001698,00000077,12,-64231,94,0,-8,1024*68a988d4
%RAWIMUSA,2283,33557.260;2283,33557.260001698,00000077,99,-64252,98,-18,-8,713*b3be9c43
%RAWIMUSA,2283,33557.270;2283,33557.270001698,00000077,-47,-64226,112,-9,0,-850*062863c3
%RAWIMUSA,2283,33557.280;2283,33557.280001698,00000077,82,-64247,116,18,8,-905*4445b372
%RAWIMUSA,2283,33557.290;2283,33557.290001698,00000077,14,-64235,91,9,-8,484*1d83721a
%RAWIMUSA,2283,33557.300;2283,33557.300001698,00000077,0,-64228,94,-8,-8,1015*9dece90e
%RAWIMUSA,2283,33557.310;2283,33557.310001698,00000077,103,-64251,125,-18,-9,-164*d48283ac
%RAWIMUSA,2283,33557.320;2283,33557.320001698,00000077,-52,-64227,116,0,8,-877*98087cba
%RAWIMUSA,2283,33557.330;2283,33557.330001698,00000077,70,-64247,90,18,0,-347*3300ae08
%RAWIMUSA,2283,33557.340;2283,33557.340001698,00000077,38,-64238,84,0,-8,832*6766b389
%RAWIMUSA,2283,33557.350;2283,33557.350001698,00000077,-16,-64226,123,-18,-17,969*c8003fa1
%RAWIMUSA,2283,33557.360;2283,33557.360001698,00000077,108,-64250,133,-9,8,-978*8903c71c
%RAWIMUSA,2283,33557.370;2283,33557.370001698,00000077,-44,-64225,80,9,0,-923*f210e4e4
%RAWIMUSA,2283,33557.380;2283,33557.380001698,00000077,53,-64242,84,18,0,576*c040c7be
%RAWIMUSA,2283,33557.390;2283,33557.390001698,00000077,68,-64246,120,-8,-17,823*7da11172
%RAWIMUSA,2283,33557.400;2283,33557.400001698,00000077,-40,-64229,124,-27,0,54*a46c9148
%RAWIMUSA,2283,33557.410;2283,33557.410001698,00000077,99,-64252,94,9,0,-941*26ad4592
%RAWIMUSA,2283,33557.420;2283,33557.420001698,00000077,-8,-64228,81,27,0,-457*d2f35b6f
%RAWIMUSA,2283,33557.430;2283,33557.430001698,00000077,33,-64237,113,-8,-8,1015*bcd5fe78
%RAWIMUSA,2283,33557.440;2283,33557.440001698,00000077,80,-64248,131,-18,-17,823*b9d84daf
%RAWIMUSA,2283,33557.450;2283,33557.450001698,00000077,-57,-64226,91,-9,8,-850*25c6aaca
