%RAWIMUSA,2283,33181.990;2283,33181.990001895,00000077,-47,-64224,110,-8,0,951*7bcc27e0
%RAWIMUSA,2283,33182.000;2283,33182.000001895,00000077,73,-64244,97,-18,9,795*4ab9c159
%RAWIMUSA,2283,33182.010;2283,33182.010001895,00000077,35,-64244,100,18,-10,-996*6eed7f41
%RAWIMUSA,2283,33182.020;2283,33182.020001895,00000077,-28,-64226,109,18,-9,-822*ce8c449c
%RAWIMUSA,2283,33182.030;2283,33182.030001895,00000077,107,-64252,111,-18,-8,557*8124cf0f
%RAWIMUSA,2283,33182.040;2283,33182.040001895,00000077,-40,-64228,97,-8,0,932*1d913714
%RAWIMUSA,2283,33182.050;2283,33182.050001895,00000077,63,-64241,101,0,9,-91*e5296097
%RAWIMUSA,2283,33182.060;2283,33182.060001895,00000077,62,-64245,110,18,-10,-1005*8d04fbec
%RAWIMUSA,2283,33182.070;2283,33182.070001895,00000077,-40,-64226,110,0,-9,-237*2e6ef581
%RAWIMUSA,2283,33182.080;2283,33182.080001895,00000077,107,-64249,103,-18,0,896*9d1ddc8b
%RAWIMUSA,2283,33182.090;2283,33182.090001895,00000077,-22,-64229,96,-8,0,786*99e677cb
%RAWIMUSA,2283,33182.100;2283,33182.100001895,00000077,36,-64240,103,18,0,-831*887d7f42
%RAWIMUSA,2283,33182.110;2283,33182.110001895,00000077,75,-64244,109,18,-10,-1033*e4f0d517
%RAWIMUSA,2283,33182.120;2283,33182.120001895,00000077,-40,-64226,101,-18,-8,658*e446b9a6
%RAWIMUSA,2283,33182.130;2283,33182.130001895,00000077,98,-64249,99,-18,9,896*11049d58
%RAWIMUSA,2283,33182.140;2283,33182.140001895,00000077,-8,-64231,103,9,0,-118*e0cebbd0
%RAWIMUSA,2283,33182.150;2283,33182.150001895,00000077,16,-64236,112,18,-9,-831*26147a8a
%RAWIMUSA,2283,33182.160;2283,33182.160001895,00000077,91,-64247,108,0,-9,-475*ecded1f3
%RAWIMUSA,2283,33182.170;2283,33182.170001895,00000077,-58,-64226,96,-18,0,978*3c9202d8
%RAWIMUSA,2283,33182.180;2283,33182.180001895,00000077,99,-64247,104,-8,9,859*f1bfda1d
%RAWIMUSA,2283,33182.190;2283,33182.190001895,00000077,13,-64236,106,18,-10,-978*8fb9b868
%RAWIMUSA,2283,33182.200;2283,33182.200001895,00000077,-11,-64231,110,18,-9,-822*aa591d92
%RAWIMUSA,2283,33182.210;2283,33182.210001894,00000077,103,-64251,102,-18,-8,429*a3925d8f
%RAWIMUSA,2283,33182.220;2283,33182.220001894,00000077,-50,-64226,97,-18,9,960*621221a9
%RAWIMUSA,2283,33182.230;2283,33182.230001894,00000077,86,-64248,109,9,0,-9*192b68a1
%RAWIMUSA,2283,33182.240;2283,33182.240001894,00000077,27,-64240,110,18,-10,-996*d5655682
%RAWIMUSA,2283,33182.250;2283,33182.250001894,00000077,-25,-64225,100,0,-18,-329*f10ce89e
%RAWIMUSA,2283,33182.260;2283,33182.260001894,00000077,108,-64252,105,-18,9,859*d3c7b03a
%RAWIMUSA,2283,33182.270;2283,33182.270001894,00000077,-38,-64228,102,0,0,923*0ed7bee9
%RAWIMUSA,2283,33182.280;2283,33182.280001894,00000077,65,-64245,111,9,-9,-859*b422943c
%RAWIMUSA,2283,33182.290;2283,33182.290001894,00000077,54,-64243,105,18,-10,-1014*7e34781f
%RAWIMUSA,2283,33182.300;2283,33182.300001894,00000077,-40,-64227,97,-18,0,567*fbbcfc8e
%RAWIMUSA,2283,33182.310;2283,33182.310001894,00000077,113,-64250,105,-18,0,877*2f591997
%RAWIMUSA,2283,33182.320;2283,33182.320001894,00000077,-28,-64232,110,9,0,-18*e56b1015
%RAWIMUSA,2283,33182.330;2283,33182.330001894,00000077,36,-64237,104,18,-9,-841*db13d310
%RAWIMUSA,2283,33182.340;2283,33182.340001894,00000077,76,-64248,100,0,-9,-566*b74e0c35
%RAWIMUSA,2283,33182.350;2283,33182.350001894,00000077,-40,-64225,98,-18,0,1005*70b9835b
%RAWIMUSA,2283,33182.360;2283,33182.360001894,00000077,100,-64249,110,-8,9,896*0564bb75
%RAWIMUSA,2283,33182.370;2283,33182.370001894,00000077,-11,-64232,106,18,-9,-932*5ed9896d
%RAWIMUSA,2283,33182.380;2283,33182.380001894,00000077,5,-64234,99,9,-9,-822*477264b6
%RAWIMUSA,2283,33182.390;2283,33182.390001894,00000077,101,-64248,104,-18,0,329*60422921
%RAWIMUSA,2283,33182.400;2283,33182.400001894,00000077,-47,-64224,107,-8,9,978*35986cb9
%RAWIMUSA,2283,33182.410;2283,33182.410001894,00000077,83,-64246,107,9,-9,64*e71646b6
%RAWIMUSA,2283,33182.420;2283,33182.420001894,00000077,21,-64236,104,18,-10,-996*0227ae05
%RAWIMUSA,2283,33182.430;2283,33182.430001894,00000077,-10,-64230,102,0,-9,-420*0afb74d8
%RAWIMUSA,2283,33182.440;2283,33182.440001894,00000077,100,-64256,107,-18,9,850*45e54e19
%RAWIMUSA,2283,33182.450;2283,33182.450001894,00000077,-42,-64225,103,0,0,960*0c743d14
%RAWIMUSA,2283,33182.460;2283,33182.460001894,00000077,77,-64247,107,9,-9,-795*c60d3c32
%RAWIMUSA,2283,33182.470;2283,33182.470001894,00000077,36,-64241,101,9,-19,-1005*ff07bc14
%RAWIMUSA,2283,33182.480;2283,33182.480001894,00000077,-29,-64227,101,-18,9,475*629a7327
%RAWIMUSA,2283,33182.490;2283,33182.490001894,00000077,108,-64252,107,-8,0,859*3ac98b52
%RAWIMUSA,2283,33182.500;2283,33182.500001894,00000077,-35,-64227,102,9,0,109*67b79a20
%RAWIMUSA,2283,33182.510;2283,33182.510001894,00000077,55,-64242,102,18,-9,-859*3b50b996
%RAWIMUSA,2283,33182.520;2283,33182.520001894,00000077,72,-64244,104,-9,-9,-667*d558fa07
%RAWIMUSA,2283,33182.530;2283,33182.530001894,00000077,-46,-64224,103,-18,9,1015*9d569656
%RAWIMUSA,2283,33182.540;2283,33182.540001894,00000077,102,-64248,107,0,0,887*c97acc11
%RAWIMUSA,2283,33182.550;2283,33182.550001894,00000077,-13,-64229,104,18,-9,-804*0a05c1df
%RAWIMUSA,2283,33182.560;2283,33182.560001894,00000077,33,-64238,104,9,-9,-841*aa6ff8ab
%RAWIMUSA,2283,33182.570;2283,33182.570001894,00000077,81,-64250,105,-9,0,228*9d15834f
%RAWIMUSA,2283,33182.580;2283,33182.580001894,00000077,-49,-64225,104,-18,9,996*54070a81
%RAWIMUSA,2283,33182.590;2283,33182.590001894,00000077,96,-64247,103,18,-9,146*145d36b1
%RAWIMUSA,2283,33182.600;2283,33182.600001894,00000077,-2,-64228,103,18,-19,-950*ccc83574
%RAWIMUSA,2283,33182.610;2283,33182.610001894,00000077,11,-64235,106,-9,0,-521*639c14ca
%RAWIMUSA,2283,33182.620;2283,33182.620001894,00000077,87,-64251,108,-18,0,832*65cccc24
%RAWIMUSA,2283,33182.630;2283,33182.630001894,00000077,-53,-64224,100,0,9,978*a1067053
%RAWIMUSA,2283,33182.640;2283,33182.640001894,00000077,90,-64251,105,18,-19,-731*8ab49a30
%RAWIMUSA,2283,33182.650;2283,33182.650001894,00000077,18,-64236,107,9,-10,-978*d5b0ff61
%RAWIMUSA,2283,33182.660;2283,33182.660001894,00000077,-8,-64229,103,-18,0,365*bdf42584
%RAWIMUSA,2283,33182.670;2283,33182.670001894,00000077,103,-64252,106,-18,9,859*44deee51
%RAWIMUSA,2283,33182.680;2283,33182.680001894,00000077,-48,-64224,103,18,-9,237*49595d59
%RAWIMUSA,2283,33182.690;2283,33182.690001894,00000077,83,-64248,108,18,-9,-868*74aa911d
%RAWIMUSA,2283,33182.700;2283,33182.700001894,00000077,45,-64244,106,-9,0,-767*228a8eb3
%RAWIMUSA,2283,33182.710;2283,33182.710001894,00000077,-32,-64224,102,-18,0,1024*d1f3f7b6
%RAWIMUSA,2283,33182.720;2283,33182.720001894,00000077,107,-64254,107,0,0,868*427dbf41
%RAWIMUSA,2283,33182.730;2283,33182.730001894,00000077,-31,-64226,102,18,-9,-685*400de721
%RAWIMUSA,2283,33182.740;2283,33182.740001894,00000077,49,-64241,96,0,-9,-859*5e96d242
%RAWIMUSA,2283,33182.750;2283,33182.750001894,00000077,75,-64242,104,-18,0,118*492cd31b
%RAWIMUSA,2283,33182.760;2283,33182.760001894,00000077,-49,-64225,106,-8,9,1005*6a2a6bab
%RAWIMUSA,2283,33182.770;2283,33182.770001894,00000077,108,-64250,107,9,-9,246*72302ebd
%RAWIMUSA,2283,33182.780;2283,33182.780001894,00000077,-11,-64232,98,18,-19,-959*8dc3adaf
%RAWIMUSA,2283,33182.790;2283,33182.790001894,00000077,20,-64236,100,-9,0,-639*965cba19
%RAWIMUSA,2283,33182.800;2283,33182.800001894,00000077,91,-64249,108,-18,9,841*e9c7d8ee
%RAWIMUSA,2283,33182.810;2283,33182.810001894,00000077,-43,-64225,107,0,0,987*cdaf6302
%RAWIMUSA,2283,33182.820;2283,33182.820001894,00000077,87,-64246,101,18,-18,-630*a6a66e71
%RAWIMUSA,2283,33182.830;2283,33182.830001894,00000077,6,-64234,99,9,-10,-978*a6c093d4
%RAWIMUSA,2283,33182.840;2283,33182.840001894,00000077,-2,-64229,105,-18,9,265*11b05485
%RAWIMUSA,2283,33182.850;2283,33182.850001894,00000077,104,-64251,113,-8,0,832*9e655662
%RAWIMUSA,2283,33182.860;2283,33182.860001894,00000077,-52,-64226,100,9,-18,356*55f18f8e
%RAWIMUSA,2283,33182.870;2283,33182.870001894,00000077,77,-64245,102,18,-9,-886*a0bc11ef
%RAWIMUSA,2283,33182.880;2283,33182.880001894,00000077,36,-64241,107,-9,0,-859*cf8cebf8
%RAWIMUSA,2283,33182.890;2283,33182.890001894,00000077,-29,-64224,108,-18,9,1024*e0eaca80
%RAWIMUSA,2283,33182.900;2283,33182.900001894,00000077,113,-64254,104,0,-8,868*7903d390
%RAWIMUSA,2283,33182.910;2283,33182.910001894,00000077,-34,-64226,97,18,-9,-585*fbfd06d2
%RAWIMUSA,2283,33182.920;2283,33182.920001894,00000077,54,-64239,106,0,-9,-841*48b396c5
%RAWIMUSA,2283,33182.930;2283,33182.930001894,00000077,72,-64245,114,-9,9,9*72f00986
%RAWIMUSA,2283,33182.940;2283,33182.940001894,00000077,-53,-64223,99,-8,0,1015*800f12ff
%RAWIMUSA,2283,33182.950;2283,33182.950001894,00000077,103,-64251,100,18,-9,338*7ab679a1
%RAWIMUSA,2283,33182.960;2283,33182.960001894,00000077,-8,-64233,106,9,-10,-950*928c81f3
%RAWIMUSA,2283,33182.970;2283,33182.970001894,00000077,20,-64234,114,-9,0,-740*5cf12f5b
%RAWIMUSA,2283,33182.980;2283,33182.980001894,00000077,96,-64248,101,-18,0,832*edb3f2f1
%RAWIMUSA,2283,33182.990;2283,33182.990001894,00000077,-44,-64223,93,9,0,996*4c247af8
%RAWIMUSA,2283,33183.000;2283,33183.000001894,00000077,88,-64249,109,18,-9,-530*7cae9972
%RAWIMUSA,2283,33183.010;2283,33183.010001894,00000077,2,-64237,119,0,-10,-987*b6b79fc0
%RAWIMUSA,2283,33183.020;2283,33183.020001894,00000077,-2,-64231,99,-18,9,164*a898d0e8
%RAWIMUSA,2283,33183.030;2283,33183.030001894,00000077,114,-64252,97,-8,0,850*5b5f47ee
%RAWIMUSA,2283,33183.040;2283,33183.040001894,00000077,-48,-64227,108,18,-18,457*074c911d
%RAWIMUSA,2283,33183.050;2283,33183.050001894,00000077,62,-64245,111,18,-9,-886*bf0bf22c
%RAWIMUSA,2283,33183.060;2283,33183.060001894,00000077,45,-64241,103,-18,0,-960*7a4b00d3
%RAWIMUSA,2283,33183.070;2283,33183.070001894,00000077,-20,-64227,97,-18,9,1024*f230da33
%RAWIMUSA,2283,33183.080;2283,33183.080001894,00000077,101,-64251,111,9,-8,877*48ea3505
%RAWIMUSA,2283,33183.090;2283,33183.090001894,00000077,-42,-64229,109,18,-9,-493*6f3333c1
%RAWIMUSA,2283,33183.100;2283,33183.100001894,00000077,60,-64240,104,-9,0,-841*e661309f
%RAWIMUSA,2283,33183.110;2283,33183.110001894,00000077,74,-64247,98,-9,0,-82*3934255d
%RAWIMUSA,2283,33183.120;2283,33183.120001894,00000077,-48,-64226,104,-8,0,1015*c4665d02
%RAWIMUSA,2283,33183.130;2283,33183.130001894,00000077,90,-64249,110,18,-8,429*4dc86007
%RAWIMUSA,2283,33183.140;2283,33183.140001894,00000077,-8,-64231,101,9,-19,-950*e90eda01
%RAWIMUSA,2283,33183.150;2283,33183.150001894,00000077,38,-64233,100,-18,8,-832*6291cd99
%RAWIMUSA,2283,33183.160;2283,33183.160001894,00000077,76,-64249,106,-8,0,813*23965fb0
%RAWIMUSA,2283,33183.170;2283,33183.170001894,00000077,-55,-64225,105,9,0,987*cdcea3c6
%RAWIMUSA,2283,33183.180;2283,33183.180001894,00000077,101,-64250,105,9,-18,-447*be925d32
%RAWIMUSA,2283,33183.190;2283,33183.190001894,00000077,6,-64234,104,0,0,-969*fc53d0d5
%RAWIMUSA,2283,33183.200;2283,33183.200001894,00000077,1,-64233,108,-9,9,73*3dd6251d
%RAWIMUSA,2283,33183.210;2283,33183.210001894,00000077,100,-64249,109,-8,-8,832*58371f88
%RAWIMUSA,2283,33183.220;2283,33183.220001894,00000077,-47,-64223,101,9,-8,557*3b1d8bd0
%RAWIMUSA,2283,33183.230;2283,33183.230001894,00000077,90,-64247,100,18,-9,-886*483b93eb
%RAWIMUSA,2283,33183.240;2283,33183.240001894,00000077,17,-64240,106,-18,8,-996*7863acd1
%RAWIMUSA,2283,33183.250;2283,33183.250001894,00000077,-24,-64226,104,-18,0,969*f6a64940
%RAWIMUSA,2283,33183.260;2283,33183.260001894,00000077,115,-64251,102,9,-8,850*f2cb6e8a
%RAWIMUSA,2283,33183.270;2283,33183.270001894,00000077,-41,-64229,98,18,-9,-365*48c9f9e9
%RAWIMUSA,2283,33183.280;2283,33183.280001894,00000077,61,-64238,108,0,0,-859*31295b59
%RAWIMUSA,2283,33183.290;2283,33183.290001894,00000077,47,-64246,107,-18,0,-182*5ac2f559
%RAWIMUSA,2283,33183.300;2283,33183.300001894,00000077,-32,-64226,105,-8,0,1024*0b96cf3c
%RAWIMUSA,2283,33183.310;2283,33183.310001894,00000077,105,-64253,104,18,-8,503*029ff1c3
%RAWIMUSA,2283,33183.320;2283,33183.320001894,00000077,-28,-64229,101,9,-9,-932*2633e02e
%RAWIMUSA,2283,33183.330;2283,33183.330001894,00000077,45,-64237,104,-18,8,-841*f1404b64
%RAWIMUSA,2283,33183.340;2283,33183.340001894,00000077,72,-64247,106,-8,0,713*00230df4
%RAWIMUSA,2283,33183.350;2283,33183.350001894,00000077,-51,-64226,104,9,0,996*b6057587
%RAWIMUSA,2283,33183.360;2283,33183.360001894,00000077,98,-64246,100,18,-18,-356*02157f89
%RAWIMUSA,2283,33183.370;2283,33183.370001894,00000077,0,-64233,102,0,0,-969*ce2e9b43
%RAWIMUSA,2283,33183.380;2283,33183.380001894,00000077,8,-64235,109,-18,9,-27*c2e8d71f
%RAWIMUSA,2283,33183.390;2283,33183.390001894,00000077,96,-64247,110,-8,-8,841*90d6ec0b
%RAWIMUSA,2283,33183.400;2283,33183.400001894,00000077,-47,-64228,101,18,-8,658*caf79dc3
%RAWIMUSA,2283,33183.410;2283,33183.410001894,00000077,89,-64247,106,9,0,-905*0abd531c
%RAWIMUSA,2283,33183.420;2283,33183.420001894,00000077,13,-64236,103,-9,0,-987*19b5bab7
%RAWIMUSA,2283,33183.430;2283,33183.430001894,00000077,-6,-64229,106,-27,9,877*f7df4b5b
%RAWIMUSA,2283,33183.440;2283,33183.440001894,00000077,108,-64252,109,18,-17,841*8d56169e
%RAWIMUSA,2283,33183.450;2283,33183.450001894,00000077,-46,-64226,101,18,-9,-255*29c7cbf0
%RAWIMUSA,2283,33183.460;2283,33183.460001894,00000077,76,-64246,99,-9,0,-877*e9311fe6
%RAWIMUSA,2283,33183.470;2283,33183.470001894,00000077,35,-64239,101,-9,0,-274*0d98693a
%RAWIMUSA,2283,33183.480;2283,33183.480001894,00000077,-23,-64230,108,-8,0,1024*2d2800c3
%RAWIMUSA,2283,33183.490;2283,33183.490001894,00000077,110,-64251,113,18,-8,585*04246218
%RAWIMUSA,2283,33183.500;2283,33183.500001894,00000077,-38,-64223,90,18,-9,-895*c1e1986d
%RAWIMUSA,2283,33183.510;2283,33183.510001894,00000077,63,-64245,100,-18,8,-868*aec2f145
%RAWIMUSA,2283,33183.520;2283,33183.520001894,00000077,47,-64245,118,-18,0,631*1baf2af0
%RAWIMUSA,2283,33183.530;2283,33183.530001894,00000077,-32,-64223,109,18,-8,1024*e11995a2
%RAWIMUSA,2283,33183.540;2283,33183.540001894,00000077,103,-64251,91,9,-18,-283*0ec7c506
%RAWIMUSA,2283,33183.550;2283,33183.550001894,00000077,-27,-64232,103,0,8,-923*765761d8
%RAWIMUSA,2283,33183.560;2283,33183.560001894,00000077,51,-64241,125,-18,0,-164*47aa5da5
%RAWIMUSA,2283,33183.570;2283,33183.570001894,00000077,63,-64245,103,0,-8,832*52dc9066
%RAWIMUSA,2283,33183.580;2283,33183.580001894,00000077,-45,-64224,82,18,-8,795*162559be
%RAWIMUSA,2283,33183.590;2283,33183.590001894,00000077,110,-64250,114,9,-10,-950*5a36fb92
%RAWIMUSA,2283,33183.600;2283,33183.600001894,00000077,-17,-64231,126,-18,8,-941*9e8bf804
%RAWIMUSA,2283,33183.610;2283,33183.610001894,00000077,33,-64237,97,-18,0,749*a68d61b4
%RAWIMUSA,2283,33183.620;2283,33183.620001894,00000077,86,-64249,85,18,-8,832*9ab725d8
%RAWIMUSA,2283,33183.630;2283,33183.630001894,00000077,-51,-64224,109,18,-18,-118*f04fa27c
%RAWIMUSA,2283,33183.640;2283,33183.640001894,00000077,98,-64249,130,-18,8,-932*99334524
%RAWIMUSA,2283,33183.650;2283,33183.650001894,00000077,-1,-64233,97,-18,0,-338*0c691137
%RAWIMUSA,2283,33183.660;2283,33183.660001894,00000077,2,-64231,78,9,0,1033*581bbfae
%RAWIMUSA,2283,33183.670;2283,33183.670001894,00000077,109,-64249,113,18,-17,667*bd87b773
%RAWIMUSA,2283,33183.680;2283,33183.680001894,00000077,-55,-64225,126,0,0,-877*47ccf809
%RAWIMUSA,2283,33183.690;2283,33183.690001894,00000077,84,-64248,103,-18,8,-886*67143b0a
%RAWIMUSA,2283,33183.700;2283,33183.700001894,00000077,27,-64237,81,-8,0,539*55d02128
%RAWIMUSA,2283,33183.710;2283,33183.710001894,00000077,-15,-64230,101,9,-8,1015*2e81617e
%RAWIMUSA,2283,33183.720;2283,33183.720001894,00000077,105,-64248,131,18,-9,-191*cee5223c
%RAWIMUSA,2283,33183.730;2283,33183.730001894,00000077,-45,-64229,104,-9,0,-896*7eeb6c16
%RAWIMUSA,2283,33183.740;2283,33183.740001894,00000077,74,-64242,84,-18,8,-283*9011e579
%RAWIMUSA,2283,33183.750;2283,33183.750001894,00000077,41,-64242,100,0,-17,841*1910bfb9
%RAWIMUSA,2283,33183.760;2283,33183.760001894,00000077,-38,-64227,120,18,-8,905*2487a02c
%RAWIMUSA,2283,33183.770;2283,33183.770001894,00000077,109,-64252,112,0,0,-978*183ca445
%RAWIMUSA,2283,33183.780;2283,33183.780001894,00000077,-28,-64226,85,-18,0,-932*76b5926e
%RAWIMUSA,2283,33183.790;2283,33183.790001894,00000077,51,-64237,100,-8,9,640*2fe124df
%RAWIMUSA,2283,33183.800;2283,33183.800001894,00000077,65,-64247,121,18,-17,832*0874b047
%RAWIMUSA,2283,33183.810;2283,33183.810001894,00000077,-56,-64226,107,18,-9,0*5ab7b10c
%RAWIMUSA,2283,33183.820;2283,33183.820001894,00000077,111,-64247,92,-18,8,-941*3837dac3
%RAWIMUSA,2283,33183.830;2283,33183.830001894,00000077,-2,-64231,100,-9,0,-420*d32b49e5
%RAWIMUSA,2283,33183.840;2283,33183.840001894,00000077,10,-64230,119,0,-8,1015*65903b18
%RAWIMUSA,2283,33183.850;2283,33183.850001894,00000077,91,-64251,107,18,-17,768*14d8f416
%RAWIMUSA,2283,33183.860;2283,33183.860001894,00000077,-45,-64225,93,0,8,-868*2e71beef
%RAWIMUSA,2283,33183.870;2283,33183.870001894,00000077,97,-64245,107,-18,0,-886*dbd21c42
%RAWIMUSA,2283,33183.880;2283,33183.880001894,00000077,7,-64237,103,-8,-8,429*ded04b3e
%RAWIMUSA,2283,33183.890;2283,33183.890001894,00000077,-21,-64229,101,18,-8,1033*f520b3dd
%RAWIMUSA,2283,33183.900;2283,33183.900001894,00000077,124,-64252,108,9,-9,-109*3044a1ca
%RAWIMUSA,2283,33183.910;2283,33183.910001894,00000077,-40,-64227,100,-9,8,-905*279885ed
%RAWIMUSA,2283,33183.920;2283,33183.920001894,00000077,50,-64242,102,-18,0,-374*2960c463
%RAWIMUSA,2283,33183.930;2283,33183.930001894,00000077,54,-64244,107,9,-17,823*69044ef3
%RAWIMUSA,2283,33183.940;2283,33183.940001894,00000077,-26,-64222,108,9,0,1015*3e4b0a4b
%RAWIMUSA,2283,33183.950;2283,33183.950001894,00000077,104,-64253,102,9,0,-969*420f52d8
%RAWIMUSA,2283,33183.960;2283,33183.960001894,00000077,-40,-64229,93,-18,0,-932*e906f9f5
%RAWIMUSA,2283,33183.970;2283,33183.970001894,00000077,47,-64237,106,-8,0,539*430210d8
%RAWIMUSA,2283,33183.980;2283,33183.980001894,00000077,89,-64249,114,18,-17,823*c04f8e41
%RAWIMUSA,2283,33183.990;2283,33183.990001894,00000077,-59,-64228,100,9,-9,91*efde6c97
%RAWIMUSA,2283,33184.000;2283,33184.000001894,00000077,87,-64249,99,-9,8,-923*b3d8ccfa
%RAWIMUSA,2283,33184.010;2283,33184.010001894,00000077,9,-64235,105,-18,0,-530*459d3a37
%RAWIMUSA,2283,33184.020;2283,33184.020001894,00000077,13,-64232,109,0,-8,1033*3b82bcc9
%RAWIMUSA,2283,33184.030;2283,33184.030001894,00000077,95,-64251,110,18,-8,832*4aad3b4e
%RAWIMUSA,2283,33184.040;2283,33184.040001894,00000077,-61,-64226,97,0,0,-831*f980feb0
%RAWIMUSA,2283,33184.050;2283,33184.050001894,00000077,86,-64249,104,-18,8,-896*e72937b8
%RAWIMUSA,2283,33184.060;2283,33184.060001894,00000077,39,-64235,105,0,-8,338*9bff5b6c
%RAWIMUSA,2283,33184.070;2283,33184.070001894,00000077,-23,-64229,103,9,-8,1024*31c73d07
%RAWIMUSA,2283,33184.080;2283,33184.080001894,00000077,110,-64250,107,18,-9,0*99f670fb
%RAWIMUSA,2283,33184.090;2283,33184.090001894,00000077,-39,-64224,97,-18,8,-905*67cb6066
%RAWIMUSA,2283,33184.100;2283,33184.100001894,00000077,69,-64242,105,-18,0,-475*ef3d1d38
%RAWIMUSA,2283,33184.110;2283,33184.110001894,00000077,40,-64246,112,9,-8,841*440eb244
%RAWIMUSA,2283,33184.120;2283,33184.120001893,00000077,-41,-64226,102,18,-8,1024*24b4e9b8
%RAWIMUSA,2283,33184.130;2283,33184.130001893,00000077,120,-64251,99,0,8,-877*c448dbf3
%RAWIMUSA,2283,33184.140;2283,33184.140001893,00000077,-27,-64230,104,-18,0,-923*c62dfe9b
%RAWIMUSA,2283,33184.150;2283,33184.150001893,00000077,37,-64238,114,-8,-8,439*de541e7e
%RAWIMUSA,2283,33184.160;2283,33184.160001893,00000077,71,-64248,103,18,-8,841*241c91db
%RAWIMUSA,2283,33184.170;2283,33184.170001893,00000077,-39,-64223,94,18,0,192*7c3356da
%RAWIMUSA,2283,33184.180;2283,33184.180001893,00000077,103,-64249,109,-18,8,-941*fe5e7479
%RAWIMUSA,2283,33184.190;2283,33184.190001893,00000077,-17,-64231,115,-18,0,-621*c71aa251
%RAWIMUSA,2283,33184.200;2283,33184.200001893,00000077,18,-64233,101,9,-17,1005*d384d04c
%RAWIMUSA,2283,33184.210;2283,33184.210001893,00000077,100,-64253,98,18,-8,823*02b78e5c
%RAWIMUSA,2283,33184.220;2283,33184.220001893,00000077,-49,-64225,111,0,8,-703*254a283a
%RAWIMUSA,2283,33184.230;2283,33184.230001893,00000077,75,-64248,110,-18,0,-923*4747d7ec
%RAWIMUSA,2283,33184.240;2283,33184.240001893,00000077,15,-64236,100,-8,-9,256*c0d3b233
%RAWIMUSA,2283,33184.250;2283,33184.250001893,00000077,11,-64230,97,18,-8,1024*505f0447
%RAWIMUSA,2283,33184.260;2283,33184.260001893,00000077,100,-64248,110,9,0,82*c94e730b
%RAWIMUSA,2283,33184.270;2283,33184.270001893,00000077,-58,-64224,107,-18,8,-896*08e2cf43
%RAWIMUSA,2283,33184.280;2283,33184.280001893,00000077,78,-64247,99,-18,-9,-585*dcda5652
%RAWIMUSA,2283,33184.290;2283,33184.290001893,00000077,47,-64239,99,18,-8,841*00c56294
%RAWIMUSA,2283,33184.300;2283,33184.300001893,00000077,-27,-64229,107,9,-8,1033*d5eeb250
%RAWIMUSA,2283,33184.310;2283,33184.310001893,00000077,100,-64251,116,0,8,-804*4b78c99c
%RAWIMUSA,2283,33184.320;2283,33184.320001893,00000077,-32,-64226,100,-18,0,-914*146de315
%RAWIMUSA,2283,33184.330;2283,33184.330001893,00000077,67,-64242,97,-8,-9,320*77248c66
%RAWIMUSA,2283,33184.340;2283,33184.340001893,00000077,53,-64244,106,18,-8,832*9d13e291
%RAWIMUSA,2283,33184.350;2283,33184.350001893,00000077,-51,-64227,110,9,0,301*3a7f21cd
%RAWIMUSA,2283,33184.360;2283,33184.360001893,00000077,110,-64252,108,-18,0,-950*099ca05e
%RAWIMUSA,2283,33184.370;2283,33184.370001893,00000077,-8,-64230,99,-18,-9,-703*0cd15578
%RAWIMUSA,2283,33184.380;2283,33184.380001893,00000077,25,-64234,102,18,-8,1015*3d102346
%RAWIMUSA,2283,33184.390;2283,33184.390001893,00000077,78,-64248,111,9,-8,823*c1cad311
%RAWIMUSA,2283,33184.400;2283,33184.400001893,00000077,-45,-64224,101,0,8,-621*80c789cb
%RAWIMUSA,2283,33184.410;2283,33184.410001893,00000077,101,-64247,101,-18,0,-914*22fe5ad4
%RAWIMUSA,2283,33184.420;2283,33184.420001893,00000077,0,-64234,101,0,-9,155*5dffd3a6
%RAWIMUSA,2283,33184.430;2283,33184.430001893,00000077,-5,-64232,104,9,-8,1024*297fb911
%RAWIMUSA,2283,33184.440;2283,33184.440001893,00000077,108,-64253,106,9,0,182*4054cab5
%RAWIMUSA,2283,33184.450;2283,33184.450001893,00000077,-46,-64226,96,-18,8,-868*a4ebd31d
%RAWIMUSA,2283,33184.460;2283,33184.460001893,00000077,74,-64245,106,-9,-9,-703*039b9a28
%RAWIMUSA,2283,33184.470;2283,33184.470001893,00000077,31,-64238,109,18,-8,841*fcd915ae
%RAWIMUSA,2283,33184.480;2283,33184.480001893,00000077,-19,-64229,106,9,0,1033*72f847ee
%RAWIMUSA,2283,33184.490;2283,33184.490001893,00000077,114,-64247,106,-9,0,-685*ee890725
%RAWIMUSA,2283,33184.500;2283,33184.500001893,00000077,-38,-64228,101,-18,8,-905*8baa335f
%RAWIMUSA,2283,33184.510;2283,33184.510001893,00000077,58,-64244,108,0,-18,210*15fb5ffb
%RAWIMUSA,2283,33184.520;2283,33184.520001893,00000077,49,-64242,101,18,-8,832*e9a7dcfd
%RAWIMUSA,2283,33184.530;2283,33184.530001893,00000077,-28,-64225,99,9,9,420*a5a17267
%RAWIMUSA,2283,33184.540;2283,33184.540001893,00000077,112,-64251,113,-18,0,-969*78b72852
%RAWIMUSA,2283,33184.550;2283,33184.550001893,00000077,-25,-64228,107,-18,0,-786*f3be93e4
%RAWIMUSA,2283,33184.560;2283,33184.560001893,00000077,37,-64238,94,18,-8,996*19b906e4
%RAWIMUSA,2283,33184.570;2283,33184.570001893,00000077,74,-64248,96,18,-8,823*e270c7f8
%RAWIMUSA,2283,33184.580;2283,33184.580001893,00000077,-45,-64225,117,-9,8,-493*ac3ad331
%RAWIMUSA,2283,33184.590;2283,33184.590001893,00000077,99,-64249,114,-18,0,-941*751cd529
%RAWIMUSA,2283,33184.600;2283,33184.600001893,00000077,-8,-64231,90,0,-18,73*c5f92b01
%RAWIMUSA,2283,33184.610;2283,33184.610001893,00000077,14,-64236,97,18,0,1005*000e69c3
%RAWIMUSA,2283,33184.620;2283,33184.620001893,00000077,87,-64247,121,9,0,274*7800dd9d
%RAWIMUSA,2283,33184.630;2283,33184.630001893,00000077,-49,-64227,108,-18,8,-850*ed8c94a7
%RAWIMUSA,2283,33184.640;2283,33184.640001893,00000077,88,-64251,94,-18,-9,-841*7f9495d8
%RAWIMUSA,2283,33184.650;2283,33184.650001893,00000077,17,-64236,99,18,-17,868*933ea94e
%RAWIMUSA,2283,33184.660;2283,33184.660001893,00000077,4,-64230,117,18,0,1024*f412d704
%RAWIMUSA,2283,33184.670;2283,33184.670001893,00000077,101,-64251,108,-9,0,-621*e9f8f63e
%RAWIMUSA,2283,33184.680;2283,33184.680001893,00000077,-55,-64223,88,-18,8,-877*6d4d5f6f
%RAWIMUSA,2283,33184.690;2283,33184.690001893,00000077,79,-64246,101,0,-18,100*f7c717b5
%RAWIMUSA,2283,33184.700;2283,33184.700001893,00000077,33,-64239,115,18,0,841*93de4707
%RAWIMUSA,2283,33184.710;2283,33184.710001893,00000077,-17,-64226,110,9,0,512*cdcbf3aa
%RAWIMUSA,2283,33184.720;2283,33184.720001893,00000077,107,-64253,97,-18,0,-978*5ac9be94
%RAWIMUSA,2283,33184.730;2283,33184.730001893,00000077,-36,-64225,96,-9,-9,-877*517db8c4
%RAWIMUSA,2283,33184.740;2283,33184.740001893,00000077,62,-64246,113,9,-8,978*37e2cd31
%RAWIMUSA,2283,33184.750;2283,33184.750001893,00000077,49,-64244,112,18,0,832*fa967cc1
%RAWIMUSA,2283,33184.760;2283,33184.760001893,00000077,-39,-64226,93,-9,0,-383*c9d05e2c
%RAWIMUSA,2283,33184.770;2283,33184.770001893,00000077,123,-64253,99,-18,0,-969*5e9e2ad5
%RAWIMUSA,2283,33184.780;2283,33184.780001893,00000077,-24,-64226,110,9,-18,-9*1309037a
%RAWIMUSA,2283,33184.790;2283,33184.790001893,00000077,30,-64238,112,9,0,1005*f55ac56e
%RAWIMUSA,2283,33184.800;2283,33184.800001893,00000077,74,-64246,101,9,0,365*9b37ed51
%RAWIMUSA,2283,33184.810;2283,33184.810001893,00000077,-38,-64224,92,-18,8,-841*2ba019f0
%RAWIMUSA,2283,33184.820;2283,33184.820001893,00000077,96,-64248,109,-9,-19,-932*aca5aca4
%RAWIMUSA,2283,33184.830;2283,33184.830001893,00000077,-8,-64234,119,18,-8,877*85560525
%RAWIMUSA,2283,33184.840;2283,33184.840001893,00000077,19,-64235,104,9,0,1015*034a5958
%RAWIMUSA,2283,33184.850;2283,33184.850001893,00000077,84,-64247,93,-9,8,-530*fc3f8427
%RAWIMUSA,2283,33184.860;2283,33184.860001893,00000077,-46,-64226,102,-18,-9,-850*bc39c25a
%RAWIMUSA,2283,33184.870;2283,33184.870001893,00000077,96,-64251,123,9,-9,-36*31b8e971
%RAWIMUSA,2283,33184.880;2283,33184.880001893,00000077,1,-64235,104,9,-8,859*fe74f191
%RAWIMUSA,2283,33184.890;2283,33184.890001893,00000077,4,-64229,88,0,9,621*43663841
%RAWIMUSA,2283,33184.900;2283,33184.900001893,00000077,108,-64252,104,-18,0,-1005*8a472708
%RAWIMUSA,2283,33184.910;2283,33184.910001893,00000077,-51,-64227,118,-9,-9,-868*c4245739
%RAWIMUSA,2283,33184.920;2283,33184.920001893,00000077,73,-64247,108,18,-17,887*69934c0a
%RAWIMUSA,2283,33184.930;2283,33184.930001893,00000077,37,-64239,91,18,9,841*45b137bb
%RAWIMUSA,2283,33184.940;2283,33184.940001893,00000077,-25,-64224,102,-9,0,-274*e42705e0
%RAWIMUSA,2283,33184.950;2283,33184.950001893,00000077,115,-64253,119,-18,0,-978*a0029317
%RAWIMUSA,2283,33184.960;2283,33184.960001893,00000077,-40,-64225,105,9,-9,-82*1861edd6
%RAWIMUSA,2283,33184.970;2283,33184.970001893,00000077,54,-64243,96,18,-8,996*b07c7108
%RAWIMUSA,2283,33184.980;2283,33184.980001893,00000077,63,-64245,98,0,0,475*5fd9025d
%RAWIMUSA,2283,33184.990;2283,33184.990001893,00000077,-38,-64229,111,-18,8,-822*96e4c223
%RAWIMUSA,2283,33185.000;2283,33185.000001893,00000077,102,-64247,112,-9,-9,-950*867271fd
%RAWIMUSA,2283,33185.010;2283,33185.010001893,00000077,-20,-64230,93,18,-17,777*3fe5c297
%RAWIMUSA,2283,33185.020;2283,33185.020001893,00000077,27,-64233,97,18,9,1015*e92fd5a3
%RAWIMUSA,2283,33185.030;2283,33185.030001893,00000077,88,-64249,120,-18,8,-429*5ad48528
%RAWIMUSA,2283,33185.040;2283,33185.040001893,00000077,-51,-64227,105,-18,-9,-850*771a0291
%RAWIMUSA,2283,33185.050;2283,33185.050001893,00000077,93,-64250,94,9,-9,-137*8ac83094
%RAWIMUSA,2283,33185.060;2283,33185.060001893,00000077,6,-64235,97,18,-8,877*ad96a619
%RAWIMUSA,2283,33185.070;2283,33185.070001893,00000077,7,-64230,118,0,9,704*e32e14e0
%RAWIMUSA,2283,33185.080;2283,33185.080001893,00000077,91,-64249,112,-18,0,-1005*276ff0d1
%RAWIMUSA,2283,33185.090;2283,33185.090001893,00000077,-51,-64225,93,-9,-9,-868*e498eb27
%RAWIMUSA,2283,33185.100;2283,33185.100001893,00000077,81,-64246,98,18,-8,777*2269436f
%RAWIMUSA,2283,33185.110;2283,33185.110001893,00000077,29,-64238,115,18,0,859*1f00aa01
%RAWIMUSA,2283,33185.120;2283,33185.120001893,00000077,-17,-64231,114,-18,9,-182*67c70617
%RAWIMUSA,2283,33185.130;2283,33185.130001893,00000077,105,-64252,97,-18,-10,-987*30389e26
%RAWIMUSA,2283,33185.140;2283,33185.140001893,00000077,-39,-64227,91,9,-9,-155*476cb943
%RAWIMUSA,2283,33185.150;2283,33185.150001893,00000077,63,-64243,112,18,0,969*c612a8ef
%RAWIMUSA,2283,33185.160;2283,33185.160001893,00000077,48,-64242,116,-8,0,585*dbc972eb
%RAWIMUSA,2283,33185.170;2283,33185.170001893,00000077,-32,-64226,97,-9,0,-822*3337d49d
%RAWIMUSA,2283,33185.180;2283,33185.180001893,00000077,114,-64249,98,-9,-19,-978*ef9ca91c
%RAWIMUSA,2283,33185.190;2283,33185.190001893,00000077,-24,-64228,110,18,-8,704*d11153aa
%RAWIMUSA,2283,33185.200;2283,33185.200001893,00000077,38,-64244,116,9,9,996*6662c034
%RAWIMUSA,2283,33185.210;2283,33185.210001893,00000077,64,-64246,98,-9,0,-329*a5459d41
%RAWIMUSA,2283,33185.220;2283,33185.220001893,00000077,-32,-64223,93,-18,-9,-831*c27d96d3
%RAWIMUSA,2283,33185.230;2283,33185.230001893,00000077,109,-64248,112,9,-9,-255*2f49ddef
%RAWIMUSA,2283,33185.240;2283,33185.240001893,00000077,-18,-64228,116,18,0,896*c7e3e6f1
%RAWIMUSA,2283,33185.250;2283,33185.250001893,00000077,20,-64235,100,-8,9,813*0ab1227d
%RAWIMUSA,2283,33185.260;2283,33185.260001893,00000077,87,-64252,93,-9,-10,-1033*58efb16e
%RAWIMUSA,2283,33185.270;2283,33185.270001893,00000077,-54,-64224,105,-9,-9,-850*8decca24
%RAWIMUSA,2283,33185.280;2283,33185.280001893,00000077,93,-64250,115,18,-8,658*5c7bd5dd
%RAWIMUSA,2283,33185.290;2283,33185.290001893,00000077,9,-64237,106,9,9,868*4ee0971b
%RAWIMUSA,2283,33185.300;2283,33185.300001893,00000077,7,-64231,95,-18,0,-82*96b7bfca
%RAWIMUSA,2283,33185.310;2283,33185.310001893,00000077,98,-64250,105,-9,-10,-1005*17a18b8e
%RAWIMUSA,2283,33185.320;2283,33185.320001893,00000077,-55,-64222,109,9,-9,-246*2dabeeb4
%RAWIMUSA,2283,33185.330;2283,33185.330001893,00000077,80,-64248,106,18,0,951*7d1102f7
%RAWIMUSA,2283,33185.340;2283,33185.340001893,00000077,30,-64239,95,0,0,695*30fc92e4
%RAWIMUSA,2283,33185.350;2283,33185.350001893,00000077,-14,-64227,103,-18,0,-813*45e6d921
%RAWIMUSA,2283,33185.360;2283,33185.360001893,00000077,109,-64253,116,0,-19,-987*3af0f634
%RAWIMUSA,2283,33185.370;2283,33185.370001893,00000077,-45,-64227,101,18,0,631*430d6a5f
%RAWIMUSA,2283,33185.380;2283,33185.380001893,00000077,65,-64245,97,9,0,987*9647b08f
%RAWIMUSA,2283,33185.390;2283,33185.390001893,00000077,52,-64242,105,-18,0,-228*c2cff2f4
%RAWIMUSA,2283,33185.400;2283,33185.400001893,00000077,-39,-64228,108,-18,-9,-813*1a81f8dc
%RAWIMUSA,2283,33185.410;2283,33185.410001893,00000077,106,-64251,106,18,-9,-393*457e7713
%RAWIMUSA,2283,33185.420;2283,33185.420001893,00000077,-18,-64227,93,18,9,914*b03ad476
%RAWIMUSA,2283,33185.430;2283,33185.430001893,00000077,45,-64239,103,-8,9,905*0cf7e132
%RAWIMUSA,2283,33185.440;2283,33185.440001893,00000077,64,-64246,114,-18,-10,-1014*d100561e
%RAWIMUSA,2283,33185.450;2283,33185.450001893,00000077,-45,-64228,100,0,-9,-831*61bf3436
%RAWIMUSA,2283,33185.460;2283,33185.460001893,00000077,111,-64252,105,18,-8,530*1b8d701a
%RAWIMUSA,2283,33185.470;2283,33185.470001893,00000077,-1,-64232,104,9,9,877*4569d17a
%RAWIMUSA,2283,33185.480;2283,33185.480001893,00000077,-2,-64231,107,-18,0,18*67ce72cd
%RAWIMUSA,2283,33185.490;2283,33185.490001893,00000077,97,-64249,97,-9,-10,-1014*0de255d2
%RAWIMUSA,2283,33185.500;2283,33185.500001893,00000077,-44,-64226,105,9,-9,-329*621cfb01
%RAWIMUSA,2283,33185.510;2283,33185.510001893,00000077,89,-64252,119,18,0,960*51392b6c
%RAWIMUSA,2283,33185.520;2283,33185.520001893,00000077,8,-64236,101,-8,9,777*ca71593e
%RAWIMUSA,2283,33185.530;2283,33185.530001893,00000077,-18,-64226,87,-18,-9,-822*4f0db3ce
%RAWIMUSA,2283,33185.540;2283,33185.540001893,00000077,124,-64251,108,0,-10,-978*b0f234cf
%RAWIMUSA,2283,33185.550;2283,33185.550001893,00000077,-43,-64226,115,18,0,530*86e68489
%RAWIMUSA,2283,33185.560;2283,33185.560001893,00000077,47,-64245,105,9,0,969*0f59fb38
%RAWIMUSA,2283,33185.570;2283,33185.570001893,00000077,46,-64245,96,-18,0,-118*080a1716
%RAWIMUSA,2283,33185.580;2283,33185.580001893,00000077,-13,-64225,106,-18,-9,-822*2a54a25f
%RAWIMUSA,2283,33185.590;2283,33185.590001893,00000077,111,-64253,115,18,-9,-484*30b9e038
%RAWIMUSA,2283,33185.600;2283,33185.600001893,00000077,-45,-64227,104,18,0,914*7b77f4cb
%RAWIMUSA,2283,33185.610;2283,33185.610001893,00000077,48,-64242,92,-8,9,978*c33f2d3b
%RAWIMUSA,2283,33185.620;2283,33185.620001893,00000077,76,-64243,97,-18,-10,-1024*a5a103c6
%RAWIMUSA,2283,33185.630;2283,33185.630001893,00000077,-42,-64225,114,0,-9,-831*eb344ef9
%RAWIMUSA,2283,33185.640;2283,33185.640001893,00000077,92,-64251,114,18,-8,429*2202940f
%RAWIMUSA,2283,33185.650;2283,33185.650001893,00000077,-5,-64231,93,0,9,896*47668f28
%RAWIMUSA,2283,33185.660;2283,33185.660001893,00000077,26,-64233,94,-9,0,100*4be72e0c
%RAWIMUSA,2283,33185.670;2283,33185.670001893,00000077,90,-64250,116,-9,-19,-1014*42bf12ab
%RAWIMUSA,2283,33185.680;2283,33185.680001893,00000077,-64,-64224,120,9,-9,-420*1c43a9aa
%RAWIMUSA,2283,33185.690;2283,33185.690001893,00000077,95,-64250,97,18,9,923*1382292e
%RAWIMUSA,2283,33185.700;2283,33185.700001893,00000077,21,-64234,90,-8,0,868*dbc1da66
%RAWIMUSA,2283,33185.710;2283,33185.710001893,00000077,-5,-64232,109,-18,-9,-777*652289ff
%RAWIMUSA,2283,33185.720;2283,33185.720001893,00000077,89,-64249,121,0,-10,-1014*2fc63bdb
%RAWIMUSA,2283,33185.730;2283,33185.730001893,00000077,-46,-64223,97,18,0,457*5daf15c8
%RAWIMUSA,2283,33185.740;2283,33185.740001893,00000077,87,-64248,90,0,0,951*a3b6cfba
%RAWIMUSA,2283,33185.750;2283,33185.750001893,00000077,28,-64242,109,-9,0,18*53c8a7c6
%RAWIMUSA,2283,33185.760;2283,33185.760001893,00000077,-22,-64226,119,-18,-9,-822*83693e1a
%RAWIMUSA,2283,33185.770;2283,33185.770001893,00000077,103,-64251,101,18,-9,-612*fa8afc6b
%RAWIMUSA,2283,33185.780;2283,33185.780001893,00000077,-38,-64226,91,18,0,951*219d5743
%RAWIMUSA,2283,33185.790;2283,33185.790001893,00000077,67,-64246,114,-18,9,978*f5754fd8
%RAWIMUSA,2283,33185.800;2283,33185.800001893,00000077,46,-64244,115,-18,-19,-923*07ab5c53
%RAWIMUSA,2283,33185.810;2283,33185.810001893,00000077,-39,-64227,95,9,-9,-813*955fe24e
%RAWIMUSA,2283,33185.820;2283,33185.820001893,00000077,109,-64248,93,18,9,292*55f7ce5e
%RAWIMUSA,2283,33185.830;2283,33185.830001893,00000077,-18,-64225,105,0,0,923*c1862364
%RAWIMUSA,2283,33185.840;2283,33185.840001893,00000077,47,-64242,119,-18,0,182*3f28f876
%RAWIMUSA,2283,33185.850;2283,33185.850001893,00000077,51,-64242,105,-9,-19,-1005*37d2bc8f
%RAWIMUSA,2283,33185.860;2283,33185.860001893,00000077,-35,-64229,89,18,-9,-502*8b69fb50
%RAWIMUSA,2283,33185.870;2283,33185.870001893,00000077,115,-64250,107,18,9,887*2ad14536
%RAWIMUSA,2283,33185.880;2283,33185.880001893,00000077,-22,-64231,111,-18,9,905*2d1bc1ac
%RAWIMUSA,2283,33185.890;2283,33185.890001893,00000077,28,-64237,103,-18,-9,-694*26a10142
%RAWIMUSA,2283,33185.900;2283,33185.900001893,00000077,76,-64246,92,9,-19,-1024*04cae6d0
%RAWIMUSA,2283,33185.910;2283,33185.910001893,00000077,-39,-64226,98,18,9,393*57c7b362
%RAWIMUSA,2283,33185.920;2283,33185.920001893,00000077,103,-64249,118,0,0,923*240b18c6
%RAWIMUSA,2283,33185.930;2283,33185.930001893,00000077,-21,-64233,104,-18,-9,128*6182001e
%RAWIMUSA,2283,33185.940;2283,33185.940001893,00000077,22,-64234,93,-9,-9,-831*614ff05a
%RAWIMUSA,2283,33185.950;2283,33185.950001893,00000077,94,-64248,101,18,0,-731*465c61c1
%RAWIMUSA,2283,33185.960;2283,33185.960001893,00000077,-43,-64223,114,18,0,987*1be84071
%RAWIMUSA,2283,33185.970;2283,33185.970001893,00000077,81,-64246,114,-18,0,914*4603f2b2
%RAWIMUSA,2283,33185.980;2283,33185.980001893,00000077,5,-64235,93,-18,-9,-777*77076e40
%RAWIMUSA,2283,33185.990;2283,33185.990001893,00000077,17,-64233,94,9,-9,-813*98a16f71
%RAWIMUSA,2283,33186.000;2283,33186.000001893,00000077,93,-64249,113,18,9,173*eb87cc9a
%RAWIMUSA,2283,33186.010;2283,33186.010001893,00000077,-58,-64226,115,-8,9,978*1d82d815
%RAWIMUSA,2283,33186.020;2283,33186.020001893,00000077,92,-64250,96,-18,-9,237*3f62ce0d
%RAWIMUSA,2283,33186.030;2283,33186.030001892,00000077,26,-64236,93,0,-19,-987*f7805b5f
%RAWIMUSA,2283,33186.040;2283,33186.040001892,00000077,-11,-64228,114,18,0,-585*f56e6354
%RAWIMUSA,2283,33186.050;2283,33186.050001892,00000077,104,-64249,116,9,9,850*42651f81
%RAWIMUSA,2283,33186.060;2283,33186.060001892,00000077,-41,-64226,93,-8,0,951*32d90532
%RAWIMUSA,2283,33186.070;2283,33186.070001892,00000077,71,-64248,98,-18,-18,-630*ac5ca40d
%RAWIMUSA,2283,33186.080;2283,33186.080001892,00000077,33,-64241,113,9,-10,-1005*27542e9b
%RAWIMUSA,2283,33186.090;2283,33186.090001892,00000077,-27,-64227,110,18,9,301*ba249f1a
%RAWIMUSA,2283,33186.100;2283,33186.100001892,00000077,118,-64248,102,-8,0,868*f7ddd7ea
%RAWIMUSA,2283,33186.110;2283,33186.110001892,00000077,-31,-64226,92,-18,-9,274*465c4ce2
%RAWIMUSA,2283,33186.120;2283,33186.120001892,00000077,41,-64242,110,0,-9,-850*6769e38f
%RAWIMUSA,2283,33186.130;2283,33186.130001892,00000077,62,-64245,115,9,0,-841*eecad76c
%RAWIMUSA,2283,33186.140;2283,33186.140001892,00000077,-33,-64224,95,18,0,1015*16fc7033
%RAWIMUSA,2283,33186.150;2283,33186.150001892,00000077,110,-64251,94,-18,0,896*8315cdd0
%RAWIMUSA,2283,33186.160;2283,33186.160001892,00000077,-22,-64231,111,-18,-9,-658*256a89a4
%RAWIMUSA,2283,33186.170;2283,33186.170001892,00000077,17,-64236,112,9,-9,-841*f68be33f
%RAWIMUSA,2283,33186.180;2283,33186.180001892,00000077,99,-64249,99,18,0,54*b0acbbcc
%RAWIMUSA,2283,33186.190;2283,33186.190001892,00000077,-51,-64225,90,0,9,996*2a7f2a69
%RAWIMUSA,2283,33186.200;2283,33186.200001892,00000077,81,-64248,116,-18,-8,329*3834546d
%RAWIMUSA,2283,33186.210;2283,33186.210001892,00000077,10,-64234,113,-9,-19,-978*10324b34
%RAWIMUSA,2283,33186.220;2283,33186.220001892,00000077,4,-64232,96,18,8,-694*58e074f2
%RAWIMUSA,2283,33186.230;2283,33186.230001892,00000077,100,-64252,98,9,0,841*6c5cb506
%RAWIMUSA,2283,33186.240;2283,33186.240001892,00000077,-57,-64226,108,-18,0,969*d11bf91e
%RAWIMUSA,2283,33186.250;2283,33186.250001892,00000077,81,-64249,115,-18,-18,-548*c7c4165e
%RAWIMUSA,2283,33186.260;2283,33186.260001892,00000077,34,-64238,97,18,0,-996*e19445c6
%RAWIMUSA,2283,33186.270;2283,33186.270001892,00000077,-21,-64229,92,18,0,219*fc9319b6
%RAWIMUSA,2283,33186.280;2283,33186.280001892,00000077,107,-64249,111,-8,0,859*9768258f
%RAWIMUSA,2283,33186.290;2283,33186.290001892,00000077,-31,-64227,112,-18,-8,393*9e34551a
%RAWIMUSA,2283,33186.300;2283,33186.300001892,00000077,54,-64243,104,0,-9,-859*c4eb09c2
%RAWIMUSA,2283,33186.310;2283,33186.310001892,00000077,55,-64243,97,18,0,-941*12f92a90
%RAWIMUSA,2283,33186.320;2283,33186.320001892,00000077,-39,-64228,107,9,9,1024*47e17431
%RAWIMUSA,2283,33186.330;2283,33186.330001892,00000077,113,-64247,113,-18,0,887*f45f5194
%RAWIMUSA,2283,33186.340;2283,33186.340001892,00000077,-20,-64228,101,-18,-18,-548*940788f0
%RAWIMUSA,2283,33186.350;2283,33186.350001892,00000077,38,-64241,99,9,0,-831*2e5dc936
%RAWIMUSA,2283,33186.360;2283,33186.360001892,00000077,66,-64245,113,18,0,-54*4ec1d5ce
%RAWIMUSA,2283,33186.370;2283,33186.370001892,00000077,-46,-64227,107,-8,0,996*90e09108
%RAWIMUSA,2283,33186.380;2283,33186.380001892,00000077,113,-64251,98,-18,-8,411*bc1f919f
%RAWIMUSA,2283,33186.390;2283,33186.390001892,00000077,-3,-64231,102,0,-19,-969*78f4a09c
%RAWIMUSA,2283,33186.400;2283,33186.400001892,00000077,4,-64232,112,18,8,-795*cebcf6bb
%RAWIMUSA,2283,33186.410;2283,33186.410001892,00000077,89,-64248,107,9,9,832*f5e861df
%RAWIMUSA,2283,33186.420;2283,33186.420001892,00000077,-38,-64227,95,-18,-8,978*36945728
%RAWIMUSA,2283,33186.430;2283,33186.430001892,00000077,86,-64248,103,-9,-9,-457*cbf5a56b
%RAWIMUSA,2283,33186.440;2283,33186.440001892,00000077,4,-64237,111,9,-10,-996*9f4448b4
%RAWIMUSA,2283,33186.450;2283,33186.450001892,00000077,-3,-64232,107,18,9,118*40d71ff9
%RAWIMUSA,2283,33186.460;2283,33186.460001892,00000077,108,-64248,97,-8,0,841*e777ae6c
%RAWIMUSA,2283,33186.470;2283,33186.470001892,00000077,-45,-64226,101,-8,-8,503*ea2c820e
%RAWIMUSA,2283,33186.480;2283,33186.480001892,00000077,59,-64249,114,0,-19,-886*ced40e0b
%RAWIMUSA,2283,33186.490;2283,33186.490001892,00000077,43,-64242,112,18,8,-1005*c200c68f
%RAWIMUSA,2283,33186.500;2283,33186.500001892,00000077,-20,-64226,96,0,0,1015*2038283e
%RAWIMUSA,2283,33186.510;2283,33186.510001892,00000077,113,-64248,102,-8,-8,859*5bb5d55b
%RAWIMUSA,2283,33186.520;2283,33186.520001892,00000077,-41,-64229,105,-18,-9,-429*d11f21ca
%RAWIMUSA,2283,33186.530;2283,33186.530001892,00000077,47,-64242,110,18,0,-841*6b2a1aab
%RAWIMUSA,2283,33186.540;2283,33186.540001892,00000077,75,-64246,101,18,0,-146*d7633077
%RAWIMUSA,2283,33186.550;2283,33186.550001892,00000077,-47,-64224,98,-8,0,1024*c2ca0662
%RAWIMUSA,2283,33186.560;2283,33186.560001892,00000077,105,-64251,113,-18,-8,493*f8fa7f26
%RAWIMUSA,2283,33186.570;2283,33186.570001892,00000077,-10,-64231,111,0,-9,-960*e9499db4
%RAWIMUSA,2283,33186.580;2283,33186.580001892,00000077,25,-64232,102,9,0,-822*540e2eb7
%RAWIMUSA,2283,33186.590;2283,33186.590001892,00000077,85,-64247,95,9,9,759*5931bd6a
%RAWIMUSA,2283,33186.600;2283,33186.600001892,00000077,-57,-64226,101,-18,-8,996*0fcc5ca8
%RAWIMUSA,2283,33186.610;2283,33186.610001892,00000077,103,-64246,113,-9,-18,-374*eefab35a
%RAWIMUSA,2283,33186.620;2283,33186.620001892,00000077,17,-64234,105,18,0,-978*728162bf
%RAWIMUSA,2283,33186.630;2283,33186.630001892,00000077,-17,-64229,96,18,9,9*d3e29428
%RAWIMUSA,2283,33186.640;2283,33186.640001892,00000077,103,-64250,110,-8,-8,841*511e239d
%RAWIMUSA,2283,33186.650;2283,33186.650001892,00000077,-37,-64227,114,-18,-8,603*c4df25cf
%RAWIMUSA,2283,33186.660;2283,33186.660001892,00000077,71,-64244,106,0,-9,-886*e659ff7a
%RAWIMUSA,2283,33186.670;2283,33186.670001892,00000077,30,-64238,95,18,0,-987*28b2d966
%RAWIMUSA,2283,33186.680;2283,33186.680001892,00000077,-18,-64227,104,0,9,896*658945e0
%RAWIMUSA,2283,33186.690;2283,33186.690001892,00000077,110,-64248,114,-18,-8,859*03ea41cf
%RAWIMUSA,2283,33186.700;2283,33186.700001892,00000077,-40,-64226,102,-9,-18,-301*c359cdfd
%RAWIMUSA,2283,33186.710;2283,33186.710001892,00000077,62,-64245,95,18,0,-868*c80842b4
%RAWIMUSA,2283,33186.720;2283,33186.720001892,00000077,44,-64241,103,18,8,-237*5b5beb96
%RAWIMUSA,2283,33186.730;2283,33186.730001892,00000077,-25,-64225,114,-18,0,1024*60d6b857
%RAWIMUSA,2283,33186.740;2283,33186.740001892,00000077,108,-64252,113,-18,-18,557*2f3d3177
%RAWIMUSA,2283,33186.750;2283,33186.750001892,00000077,-31,-64229,96,9,-9,-914*aa633b57
%RAWIMUSA,2283,33186.760;2283,33186.760001892,00000077,45,-64241,99,18,8,-850*419ba30b
%RAWIMUSA,2283,33186.770;2283,33186.770001892,00000077,73,-64246,113,0,0,649*d9879211
%RAWIMUSA,2283,33186.780;2283,33186.780001892,00000077,-44,-64225,105,-18,-8,1015*7ad4eeae
%RAWIMUSA,2283,33186.790;2283,33186.790001892,00000077,102,-64249,98,-9,-9,-292*dafdd660
%RAWIMUSA,2283,33186.800;2283,33186.800001892,00000077,-9,-64232,98,18,0,-969*153c1b3e
%RAWIMUSA,2283,33186.810;2283,33186.810001892,00000077,18,-64234,109,18,9,-100*e635294f
%RAWIMUSA,2283,33186.820;2283,33186.820001892,00000077,92,-64250,113,-18,-8,832*fc27be86
%RAWIMUSA,2283,33186.830;2283,33186.830001892,00000077,-55,-64226,97,-18,-8,740*b35b3f74
%RAWIMUSA,2283,33186.840;2283,33186.840001892,00000077,89,-64247,96,9,-9,-905*7fa44f49
%RAWIMUSA,2283,33186.850;2283,33186.850001892,00000077,23,-64238,111,18,8,-987*87620310
%RAWIMUSA,2283,33186.860;2283,33186.860001892,00000077,-10,-64228,118,0,0,795*f0b27db6
%RAWIMUSA,2283,33186.870;2283,33186.870001892,00000077,102,-64247,94,-18,-8,841*e3bcd013
%RAWIMUSA,2283,33186.880;2283,33186.880001892,00000077,-45,-64228,92,-9,-9,-201*c5945723
%RAWIMUSA,2283,33186.890;2283,33186.890001892,00000077,74,-64247,120,18,8,-877*419735d9
%RAWIMUSA,2283,33186.900;2283,33186.900001892,00000077,44,-64239,117,18,0,-338*e04949c6
%RAWIMUSA,2283,33186.910;2283,33186.910001892,00000077,-36,-64227,94,-18,0,1033*5753c5d6
%RAWIMUSA,2283,33186.920;2283,33186.920001892,00000077,115,-64251,89,-18,-17,667*1f0ad246
%RAWIMUSA,2283,33186.930;2283,33186.930001892,00000077,-25,-64227,106,9,0,-923*e3f95a83
%RAWIMUSA,2283,33186.940;2283,33186.940001892,00000077,38,-64244,125,18,8,-850*8578c642
%RAWIMUSA,2283,33186.950;2283,33186.950001892,00000077,58,-64246,104,-8,-8,557*ba8cb51a
%RAWIMUSA,2283,33186.960;2283,33186.960001892,00000077,-30,-64222,76,-18,-8,1015*aadc14b6
%RAWIMUSA,2283,33186.970;2283,33186.970001892,00000077,111,-64250,101,0,-9,-201*3f328cda
%RAWIMUSA,2283,33186.980;2283,33186.980001892,00000077,-17,-64234,131,18,8,-950*f58307e3
%RAWIMUSA,2283,33186.990;2283,33186.990001892,00000077,18,-64235,115,9,8,-219*f27ccc94
%RAWIMUSA,2283,33187.000;2283,33187.000001892,00000077,87,-64250,73,-18,-8,813*dfe3ce4c
%RAWIMUSA,2283,33187.010;2283,33187.010001892,00000077,-38,-64224,86,-8,-8,841*936c4739
%RAWIMUSA,2283,33187.020;2283,33187.020001892,00000077,83,-64250,133,9,0,-923*1e0fa3a5
%RAWIMUSA,2283,33187.030;2283,33187.030001892,00000077,0,-64236,125,18,0,-987*7698a52b
%RAWIMUSA,2283,33187.040;2283,33187.040001892,00000077,11,-64229,75,-8,0,713*b715fb58
%RAWIMUSA,2283,33187.050;2283,33187.050001892,00000077,106,-64249,86,-18,-8,832*1a3e1dd7
%RAWIMUSA,2283,33187.060;2283,33187.060001892,00000077,-58,-64229,131,0,-18,-73*6d6f8a32
%RAWIMUSA,2283,33187.070;2283,33187.070001892,00000077,75,-64248,130,18,8,-896*6ef35ab4
%RAWIMUSA,2283,33187.080;2283,33187.080001892,00000077,37,-64238,75,9,0,-420*d6e42f2f
%RAWIMUSA,2283,33187.090;2283,33187.090001892,00000077,-15,-64230,79,-8,-8,1033*0a101b85
%RAWIMUSA,2283,33187.100;2283,33187.100001892,00000077,103,-64252,134,-18,-8,740*fec24515
%RAWIMUSA,2283,33187.110;2283,33187.110001892,00000077,-51,-64225,127,9,0,-896*ef98abf0
%RAWIMUSA,2283,33187.120;2283,33187.120001892,00000077,68,-64243,78,18,8,-877*a75eac8a
%RAWIMUSA,2283,33187.130;2283,33187.130001892,00000077,50,-64242,80,0,-8,466*a3ce9e2b
%RAWIMUSA,2283,33187.140;2283,33187.140001892,00000077,-40,-64227,130,-18,-8,1024*29573823
%RAWIMUSA,2283,33187.150;2283,33187.150001892,00000077,109,-64250,132,-9,-9,-127*dd8187d1
%RAWIMUSA,2283,33187.160;2283,33187.160001892,00000077,-19,-64227,80,18,8,-941*9f4e28e9
%RAWIMUSA,2283,33187.170;2283,33187.170001892,00000077,38,-64240,80,9,0,-301*0f1d0ec0
%RAWIMUSA,2283,33187.180;2283,33187.180001892,00000077,66,-64247,128,-8,-8,813*e8cbafc5
%RAWIMUSA,2283,33187.190;2283,33187.190001892,00000077,-42,-64224,124,-27,-8,951*cadf330a
%RAWIMUSA,2283,33187.200;2283,33187.200001892,00000077,106,-64251,88,18,0,-941*b1ef7c52
%RAWIMUSA,2283,33187.210;2283,33187.210001892,00000077,-7,-64230,81,18,0,-950*e4b39088
%RAWIMUSA,2283,33187.220;2283,33187.220001892,00000077,17,-64233,121,-8,-8,603*767713b5
%RAWIMUSA,2283,33187.230;2283,33187.230001892,00000077,93,-64250,131,-8,-8,823*3e0c409f
%RAWIMUSA,2283,33187.240;2283,33187.240001892,00000077,-50,-64224,84,-9,0,27*f4e7cf72
%RAWIMUSA,2283,33187.250;2283,33187.250001892,00000077,97,-64248,79,18,0,-914*4a64a853
%RAWIMUSA,2283,33187.260;2283,33187.260001892,00000077,16,-64235,116,18,0,-493*77cefc8e
%RAWIMUSA,2283,33187.270;2283,33187.270001892,00000077,-13,-64228,129,-18,0,1024*5fffb2ee
%RAWIMUSA,2283,33187.280;2283,33187.280001892,00000077,101,-64251,101,-18,-17,850*ae2330bb
%RAWIMUSA,2283,33187.290;2283,33187.290001892,00000077,-47,-64226,78,9,0,-886*ac349d19
%RAWIMUSA,2283,33187.300;2283,33187.300001892,00000077,71,-64245,106,18,8,-877*0c29c14d
%RAWIMUSA,2283,33187.310;2283,33187.310001892,00000077,42,-64243,129,-8,-8,365*247ca30b
%RAWIMUSA,2283,33187.320;2283,33187.320001892,00000077,-33,-64225,104,-18,-8,1024*555f7484
%RAWIMUSA,2283,33187.330;2283,33187.330001892,00000077,111,-64249,81,0,0,-27*3524ffd0
%RAWIMUSA,2283,33187.340;2283,33187.340001892,00000077,-27,-64228,96,18,0,-923*9c5954fc
%RAWIMUSA,2283,33187.350;2283,33187.350001892,00000077,41,-64242,129,9,0,-420*d100ec81
%RAWIMUSA,2283,33187.360;2283,33187.360001892,00000077,61,-64245,114,-18,-8,823*14ed44af
%RAWIMUSA,2283,33187.370;2283,33187.370001892,00000077,-34,-64226,80,-18,-8,1005*6e711171
%RAWIMUSA,2283,33187.380;2283,33187.380001892,00000077,107,-64249,96,18,0,-895*a606d926
%RAWIMUSA,2283,33187.390;2283,33187.390001892,00000077,-20,-64227,123,18,0,-950*d3e8456c
%RAWIMUSA,2283,33187.400;2283,33187.400001892,00000077,21,-64237,114,-18,0,493*489fc47f
%RAWIMUSA,2283,33187.410;2283,33187.410001892,00000077,94,-64247,87,-18,-8,823*39867947
%RAWIMUSA,2283,33187.420;2283,33187.420001892,00000077,-53,-64222,91,9,-9,146*b272fea4
%RAWIMUSA,2283,33187.430;2283,33187.430001892,00000077,100,-64249,125,18,8,-923*d3e65741
%RAWIMUSA,2283,33187.440;2283,33187.440001892,00000077,16,-64233,114,0,0,-603*06d1c16f
%RAWIMUSA,2283,33187.450;2283,33187.450001892,00000077,-4,-64229,82,-18,-8,1033*2ef7eb81
%RAWIMUSA,2283,33187.460;2283,33187.460001892,00000077,104,-64252,99,-8,-8,832*0f9e6a5f
%RAWIMUSA,2283,33187.470;2283,33187.470001892,00000077,-56,-64229,120,18,0,-795*bb1add8e
%RAWIMUSA,2283,33187.480;2283,33187.480001892,00000077,76,-64244,113,18,8,-868*e8974798
%RAWIMUSA,2283,33187.490;2283,33187.490001892,00000077,56,-64244,88,-8,-18,265*b3a300f7
%RAWIMUSA,2283,33187.500;2283,33187.500001892,00000077,-44,-64226,96,-18,-8,1024*56b52f8a
%RAWIMUSA,2283,33187.510;2283,33187.510001892,00000077,114,-64249,126,0,0,82*c4961704
%RAWIMUSA,2283,33187.520;2283,33187.520001892,00000077,-23,-64229,108,18,0,-932*815e6210
%RAWIMUSA,2283,33187.530;2283,33187.530001892,00000077,25,-64236,87,0,0,-511*bcf7b2ed
%RAWIMUSA,2283,33187.540;2283,33187.540001892,00000077,80,-64250,97,-8,-8,813*6ad1dd48
%RAWIMUSA,2283,33187.550;2283,33187.550001892,00000077,-51,-64228,119,-18,-8,987*8a2dfa04
%RAWIMUSA,2283,33187.560;2283,33187.560001892,00000077,108,-64248,117,18,8,-758*11385cd4
%RAWIMUSA,2283,33187.570;2283,33187.570001892,00000077,9,-64234,87,9,0,-978*97882f94
%RAWIMUSA,2283,33187.580;2283,33187.580001892,00000077,-16,-64232,97,-8,-8,402*87816b81
%RAWIMUSA,2283,33187.590;2283,33187.590001892,00000077,109,-64248,125,-18,-17,841*3bccda4e
%RAWIMUSA,2283,33187.600;2283,33187.600001892,00000077,-43,-64225,111,9,0,210*17bfa998
%RAWIMUSA,2283,33187.610;2283,33187.610001892,00000077,69,-64247,94,9,8,-877*79c6b51b
%RAWIMUSA,2283,33187.620;2283,33187.620001892,00000077,39,-64241,94,9,-9,-731*7c07bdf5
%RAWIMUSA,2283,33187.630;2283,33187.630001892,00000077,-27,-64225,113,-18,-8,1024*2de89be6
%RAWIMUSA,2283,33187.640;2283,33187.640001892,00000077,114,-64250,114,-8,-8,859*61e89b3b
%RAWIMUSA,2283,33187.650;2283,33187.650001892,00000077,-41,-64224,93,18,8,-713*49184f66
%RAWIMUSA,2283,33187.660;2283,33187.660001892,00000077,54,-64244,95,18,0,-859*2a09f828
%RAWIMUSA,2283,33187.670;2283,33187.670001892,00000077,63,-64243,117,-18,-18,155*72520dbc
%RAWIMUSA,2283,33187.680;2283,33187.680001892,00000077,-39,-64226,116,-18,-8,1033*9087899d
%RAWIMUSA,2283,33187.690;2283,33187.690001892,00000077,105,-64249,99,0,0,173*dd709ad7
%RAWIMUSA,2283,33187.700;2283,33187.700001892,00000077,-24,-64229,92,18,8,-923*cdf49737
%RAWIMUSA,2283,33187.710;2283,33187.710001892,00000077,42,-64237,110,9,-9,-612*192b72be
%RAWIMUSA,2283,33187.720;2283,33187.720001892,00000077,74,-64246,116,-18,-8,832*1985f43e
%RAWIMUSA,2283,33187.730;2283,33187.730001892,00000077,-47,-64224,99,-8,-8,1005*e667752c
%RAWIMUSA,2283,33187.740;2283,33187.740001892,00000077,104,-64249,97,9,8,-685*afc70826
%RAWIMUSA,2283,33187.750;2283,33187.750001892,00000077,-13,-64233,107,18,0,-960*bfee89e1
%RAWIMUSA,2283,33187.760;2283,33187.760001892,00000077,13,-64235,112,-18,-9,301*dd9259c5
%RAWIMUSA,2283,33187.770;2283,33187.770001892,00000077,82,-64252,103,-8,-17,813*72e527a6
%RAWIMUSA,2283,33187.780;2283,33187.780001892,00000077,-40,-64226,92,9,0,347*f9ebb84b
%RAWIMUSA,2283,33187.790;2283,33187.790001892,00000077,97,-64247,103,18,8,-914*3b67fa60
%RAWIMUSA,2283,33187.800;2283,33187.800001892,00000077,2,-64234,116,0,-9,-804*adbaceac
%RAWIMUSA,2283,33187.810;2283,33187.810001892,00000077,-1,-64234,104,-18,-8,1024*28186100
%RAWIMUSA,2283,33187.820;2283,33187.820001892,00000077,102,-64249,93,-8,-8,832*ca34213e
%RAWIMUSA,2283,33187.830;2283,33187.830001892,00000077,-45,-64224,99,18,8,-575*ba2b985a
%RAWIMUSA,2283,33187.840;2283,33187.840001892,00000077,88,-64248,120,18,0,-905*ddfd3a76
%RAWIMUSA,2283,33187.850;2283,33187.850001892,00000077,21,-64235,106,-18,-9,73*82a8dec8
%RAWIMUSA,2283,33187.860;2283,33187.860001892,00000077,-15,-64229,91,-18,-8,1024*19b163f1
%RAWIMUSA,2283,33187.870;2283,33187.870001892,00000077,113,-64250,108,9,9,265*5a4afc17
%RAWIMUSA,2283,33187.880;2283,33187.880001892,00000077,-41,-64226,112,18,0,-895*3ab5c2c8
%RAWIMUSA,2283,33187.890;2283,33187.890001892,00000077,61,-64245,105,-9,-9,-749*91c5926c
%RAWIMUSA,2283,33187.900;2283,33187.900001892,00000077,53,-64240,97,-8,-17,832*7b528775
%RAWIMUSA,2283,33187.910;2283,33187.910001892,00000077,-29,-64224,94,-8,0,1033*8a0eadc2
%RAWIMUSA,2283,33187.920;2283,33187.920001892,00000077,105,-64249,116,18,8,-612*ccd6b11a
%RAWIMUSA,2283,33187.930;2283,33187.930001892,00000077,-34,-64228,105,9,-9,-932*2fad9fb4
%RAWIMUSA,2283,33187.940;2283,33187.940001891,00000077,36,-64240,94,-18,-9,164*0525b67f
%RAWIMUSA,2283,33187.950;2283,33187.950001891,00000077,84,-64246,100,-8,-8,832*742b756a
%RAWIMUSA,2283,33187.960;2283,33187.960001891,00000077,-45,-64225,111,9,0,475*1788e1a6
%RAWIMUSA,2283,33187.970;2283,33187.970001891,00000077,98,-64249,117,18,8,-941*3f616942
%RAWIMUSA,2283,33187.980;2283,33187.980001891,00000077,-8,-64229,96,-9,-9,-886*588f405f
%RAWIMUSA,2283,33187.990;2283,33187.990001891,00000077,22,-64234,89,-18,-8,1024*29f961b9
%RAWIMUSA,2283,33188.000;2283,33188.000001891,00000077,85,-64251,113,0,0,823*4906d2fb
%RAWIMUSA,2283,33188.010;2283,33188.010001891,00000077,-54,-64227,116,9,0,-447*8faca7cb
%RAWIMUSA,2283,33188.020;2283,33188.020001891,00000077,97,-64248,100,18,0,-914*8c1b5273
%RAWIMUSA,2283,33188.030;2283,33188.030001891,00000077,9,-64232,90,-18,-9,0*05d39880
%RAWIMUSA,2283,33188.040;2283,33188.040001891,00000077,-3,-64234,110,-18,-8,1033*1d079744
%RAWIMUSA,2283,33188.050;2283,33188.050001891,00000077,100,-64252,120,18,0,338*cf80a79f
%RAWIMUSA,2283,33188.060;2283,33188.060001891,00000077,-50,-64228,96,9,8,-886*09624c85
%RAWIMUSA,2283,33188.070;2283,33188.070001891,00000077,84,-64244,92,0,-9,-868*0a659a3d
%RAWIMUSA,2283,33188.080;2283,33188.080001891,00000077,33,-64238,106,-18,-17,841*ced6e96b
%RAWIMUSA,2283,33188.090;2283,33188.090001891,00000077,-17,-64231,113,0,0,1033*8476e688
%RAWIMUSA,2283,33188.100;2283,33188.100001891,00000077,110,-64254,108,18,8,-539*547e3f37
%RAWIMUSA,2283,33188.110;2283,33188.110001891,00000077,-48,-64224,89,9,-9,-895*7c55f36a
%RAWIMUSA,2283,33188.120;2283,33188.120001891,00000077,65,-64246,103,-9,-9,54*8a97fe58
%RAWIMUSA,2283,33188.130;2283,33188.130001891,00000077,59,-64240,120,-18,-8,823*138ea23c
%RAWIMUSA,2283,33188.140;2283,33188.140001891,00000077,-38,-64221,101,9,9,567*53245bd3
%RAWIMUSA,2283,33188.150;2283,33188.150001891,00000077,106,-64250,93,18,0,-960*5d82d851
%RAWIMUSA,2283,33188.160;2283,33188.160001891,00000077,-22,-64225,108,0,-9,-932*b349191a
%RAWIMUSA,2283,33188.170;2283,33188.170001891,00000077,37,-64242,119,-27,-8,978*69178b74
%RAWIMUSA,2283,33188.180;2283,33188.180001891,00000077,70,-64248,105,0,0,823*316a4f8c
%RAWIMUSA,2283,33188.190;2283,33188.190001891,00000077,-52,-64224,87,18,8,-347*401a034b
%RAWIMUSA,2283,33188.200;2283,33188.200001891,00000077,110,-64248,104,9,-9,-923*7d52fade
%RAWIMUSA,2283,33188.210;2283,33188.210001891,00000077,-1,-64235,123,-18,-18,-91*2e7de8be
%RAWIMUSA,2283,33188.220;2283,33188.220001891,00000077,3,-64236,105,-18,0,1024*f871eaa8
%RAWIMUSA,2283,33188.230;2283,33188.230001891,00000077,86,-64249,86,18,0,439*ff44ec1e
%RAWIMUSA,2283,33188.240;2283,33188.240001891,00000077,-42,-64223,96,18,8,-868*8376b351
%RAWIMUSA,2283,33188.250;2283,33188.250001891,00000077,98,-64245,125,-9,-9,-905*6eaa9d5e
%RAWIMUSA,2283,33188.260;2283,33188.260001891,00000077,15,-64236,116,-18,-17,777*3f21925b
%RAWIMUSA,2283,33188.270;2283,33188.270001891,00000077,-21,-64230,88,0,9,1024*74b4f5be
%RAWIMUSA,2283,33188.280;2283,33188.280001891,00000077,115,-64252,101,18,0,-447*d998dd35
%RAWIMUSA,2283,33188.290;2283,33188.290001891,00000077,-45,-64226,116,0,0,-896*272aa496
%RAWIMUSA,2283,33188.300;2283,33188.300001891,00000077,67,-64245,112,-18,-18,-45*631b30f1
%RAWIMUSA,2283,33188.310;2283,33188.310001891,00000077,43,-64240,84,-8,0,832*c6678af8
%RAWIMUSA,2283,33188.320;2283,33188.320001891,00000077,-27,-64227,99,9,0,676*390f0e5f
%RAWIMUSA,2283,33188.330;2283,33188.330001891,00000077,108,-64252,128,18,0,-969*2adc39cd
%RAWIMUSA,2283,33188.340;2283,33188.340001891,00000077,-32,-64228,108,-9,-9,-914*35edf33e
%RAWIMUSA,2283,33188.350;2283,33188.350001891,00000077,52,-64243,86,-18,-8,859*07549870
%RAWIMUSA,2283,33188.360;2283,33188.360001891,00000077,65,-64242,101,0,0,832*2006be27
%RAWIMUSA,2283,33188.370;2283,33188.370001891,00000077,-32,-64227,120,18,8,-228*03445de2
%RAWIMUSA,2283,33188.380;2283,33188.380001891,00000077,102,-64250,108,9,-10,-950*08efe98d
%RAWIMUSA,2283,33188.390;2283,33188.390001891,00000077,-24,-64229,90,-18,-18,-164*81fed2b3
%RAWIMUSA,2283,33188.400;2283,33188.400001891,00000077,28,-64236,103,-8,0,1005*25e98575
%RAWIMUSA,2283,33188.410;2283,33188.410001891,00000077,86,-64248,116,18,9,521*5ccde523
%RAWIMUSA,2283,33188.420;2283,33188.420001891,00000077,-45,-64223,104,9,0,-841*75d84f12
%RAWIMUSA,2283,33188.430;2283,33188.430001891,00000077,93,-64248,97,-9,-9,-941*041fd241
%RAWIMUSA,2283,33188.440;2283,33188.440001891,00000077,2,-64230,106,-18,-17,704*23800a89
%RAWIMUSA,2283,33188.450;2283,33188.450001891,00000077,5,-64233,109,0,9,1024*44163799
%RAWIMUSA,2283,33188.460;2283,33188.460001891,00000077,101,-64253,103,18,0,-356*57309ac3
%RAWIMUSA,2283,33188.470;2283,33188.470001891,00000077,-48,-64226,97,9,0,-868*6680dcce
%RAWIMUSA,2283,33188.480;2283,33188.480001891,00000077,88,-64247,109,-18,-18,-173*89549c02
%RAWIMUSA,2283,33188.490;2283,33188.490001891,00000077,35,-64240,109,-8,0,841*6dad1b05
%RAWIMUSA,2283,33188.500;2283,33188.500001891,00000077,-27,-64226,97,18,9,786*5b2c99d3
%RAWIMUSA,2283,33188.510;2283,33188.510001891,00000077,105,-64250,95,18,-10,-987*cd0eba9a
%RAWIMUSA,2283,33188.520;2283,33188.520001891,00000077,-42,-64227,103,-18,-9,-914*8c9a1bb4
%RAWIMUSA,2283,33188.530;2283,33188.530001891,00000077,72,-64244,121,-18,-8,759*60e6c984
%RAWIMUSA,2283,33188.540;2283,33188.540001891,00000077,59,-64242,102,9,0,832*2312f777
%RAWIMUSA,2283,33188.550;2283,33188.550001891,00000077,-45,-64225,90,18,9,-127*a520aa01
%RAWIMUSA,2283,33188.560;2283,33188.560001891,00000077,108,-64250,109,0,-9,-960*a6761158
%RAWIMUSA,2283,33188.570;2283,33188.570001891,00000077,-24,-64229,114,-18,-18,-265*65ccfbdc
%RAWIMUSA,2283,33188.580;2283,33188.580001891,00000077,34,-64236,106,-18,9,1005*540f2a63
%RAWIMUSA,2283,33188.590;2283,33188.590001891,00000077,83,-64245,94,18,0,631*18c86279
%RAWIMUSA,2283,33188.600;2283,33188.600001891,00000077,-46,-64225,103,18,0,-841*9adcb626
%RAWIMUSA,2283,33188.610;2283,33188.610001891,00000077,102,-64249,117,-18,-9,-932*151114e1
%RAWIMUSA,2283,33188.620;2283,33188.620001891,00000077,-11,-64231,101,-18,-8,603*38de40e6
%RAWIMUSA,2283,33188.630;2283,33188.630001891,00000077,13,-64236,91,9,9,1015*7f03c1ce
%RAWIMUSA,2283,33188.640;2283,33188.640001891,00000077,93,-64249,106,18,-9,-265*5630dd5e
%RAWIMUSA,2283,33188.650;2283,33188.650001891,00000077,-49,-64223,110,0,0,-850*f6ac0e4d
%RAWIMUSA,2283,33188.660;2283,33188.660001891,00000077,95,-64247,110,-18,-18,-292*140bd4c8
%RAWIMUSA,2283,33188.670;2283,33188.670001891,00000077,3,-64235,94,-8,0,877*02844227
%RAWIMUSA,2283,33188.680;2283,33188.680001891,00000077,0,-64231,103,9,9,877*886c5e09
%RAWIMUSA,2283,33188.690;2283,33188.690001891,00000077,94,-64249,111,18,-10,-1014*0b89196a
%RAWIMUSA,2283,33188.700;2283,33188.700001891,00000077,-48,-64225,101,-18,-9,-868*20ba48f2
%RAWIMUSA,2283,33188.710;2283,33188.710001891,00000077,83,-64247,107,-8,0,631*519928d8
%RAWIMUSA,2283,33188.720;2283,33188.720001891,00000077,32,-64241,110,0,0,841*60164afd
%RAWIMUSA,2283,33188.730;2283,33188.730001891,00000077,-19,-64230,107,18,9,-9*9cb90496
%RAWIMUSA,2283,33188.740;2283,33188.740001891,00000077,113,-64252,104,0,-19,-987*efd6419d
%RAWIMUSA,2283,33188.750;2283,33188.750001891,00000077,-44,-64227,98,-18,-9,-338*07d4c22e
%RAWIMUSA,2283,33188.760;2283,33188.760001891,00000077,59,-64244,107,0,9,987*9c120de5
%RAWIMUSA,2283,33188.770;2283,33188.770001891,00000077,59,-64244,111,18,0,722*e1209e97
