%RAWIMUSA,2283,32677.840;2283,32677.840002093,00000077,-64217,-143,-529,-18,-9,-932*b19eb3be
%RAWIMUSA,2283,32677.850;2283,32677.850002093,00000077,-64201,15,-532,-18,-9,-850*269d9018
%RAWIMUSA,2283,32677.860;2283,32677.860002093,00000077,-64221,-171,-514,18,0,347*457a2be9
%RAWIMUSA,2283,32677.870;2283,32677.870002093,00000077,-64204,-38,-516,9,9,887*c8861114
%RAWIMUSA,2283,32677.880;2283,32677.880002093,00000077,-64210,-69,-532,-18,9,210*6835c200
%RAWIMUSA,2283,32677.890;2283,32677.890002093,00000077,-64217,-162,-530,-18,-10,-1014*cedb2892
%RAWIMUSA,2283,32677.900;2283,32677.900002093,00000077,-64200,20,-516,9,-9,-530*62dab62b
%RAWIMUSA,2283,32677.910;2283,32677.910002093,00000077,-64219,-163,-515,9,9,932*31b6a99e
%RAWIMUSA,2283,32677.920;2283,32677.920002093,00000077,-64204,-54,-528,0,9,877*dd85b9e0
%RAWIMUSA,2283,32677.930;2283,32677.930002093,00000077,-64209,-55,-529,-18,-9,-703*a0526ee9
%RAWIMUSA,2283,32677.940;2283,32677.940002093,00000077,-64215,-152,-516,-9,-10,-996*b46995e3
%RAWIMUSA,2283,32677.950;2283,32677.950002093,00000077,-64202,8,-518,9,9,374*9e41a28d
%RAWIMUSA,2283,32677.960;2283,32677.960002093,00000077,-64220,-166,-529,9,9,932*53e6f2c7
%RAWIMUSA,2283,32677.970;2283,32677.970002093,00000077,-64208,-46,-527,-9,0,109*6a57d6c7
%RAWIMUSA,2283,32677.980;2283,32677.980002093,00000077,-64205,-54,-522,-27,-9,-822*70c9628f
%RAWIMUSA,2283,32677.990;2283,32677.990002093,00000077,-64218,-158,-522,9,0,-722*a7eeffc4
%RAWIMUSA,2283,32678.000;2283,32678.000002093,00000077,-64200,11,-527,9,9,996*92388479
%RAWIMUSA,2283,32678.010;2283,32678.010002093,00000077,-64221,-167,-523,0,0,923*babeec8c
%RAWIMUSA,2283,32678.020;2283,32678.020002093,00000077,-64207,-45,-518,-18,0,-777*88acab7b
%RAWIMUSA,2283,32678.030;2283,32678.030002093,00000077,-64209,-50,-522,-18,-9,-831*79b60e70
%RAWIMUSA,2283,32678.040;2283,32678.040002093,00000077,-64214,-166,-522,18,0,182*18031e9a
%RAWIMUSA,2283,32678.050;2283,32678.050002093,00000077,-64204,20,-520,9,9,996*dcebebb8
%RAWIMUSA,2283,32678.060;2283,32678.060002093,00000077,-64217,-162,-523,-18,0,210*4d95d0cd
%RAWIMUSA,2283,32678.070;2283,32678.070002093,00000077,-64209,-58,-525,-18,-9,-969*1f9d2d29
%RAWIMUSA,2283,32678.080;2283,32678.080002093,00000077,-64208,-37,-516,9,0,-575*b1e6adf2
%RAWIMUSA,2283,32678.090;2283,32678.090002093,00000077,-64216,-167,-523,9,9,850*dce60772
%RAWIMUSA,2283,32678.100;2283,32678.100002093,00000077,-64205,10,-530,0,9,978*691b4958
%RAWIMUSA,2283,32678.110;2283,32678.110002093,00000077,-64215,-157,-521,-27,-9,-676*1c2eefd0
%RAWIMUSA,2283,32678.120;2283,32678.120002093,00000077,-64209,-71,-519,-9,-10,-978*a7ebb785
%RAWIMUSA,2283,32678.130;2283,32678.130002093,00000077,-64208,-27,-524,18,9,320*7f084b18
%RAWIMUSA,2283,32678.140;2283,32678.140002093,00000077,-64219,-174,-528,9,9,859*523e1168
%RAWIMUSA,2283,32678.150;2283,32678.150002093,00000077,-64201,11,-526,-18,-9,292*52d37e76
%RAWIMUSA,2283,32678.160;2283,32678.160002093,00000077,-64213,-146,-515,-27,0,-896*666897ec
%RAWIMUSA,2283,32678.170;2283,32678.170002093,00000077,-64210,-89,-526,9,-9,-804*15387710
%RAWIMUSA,2283,32678.180;2283,32678.180002093,00000077,-64204,-20,-531,9,9,1033*652663fb
%RAWIMUSA,2283,32678.190;2283,32678.190002093,00000077,-64219,-177,-520,0,9,850*8743ca2a
%RAWIMUSA,2283,32678.200;2283,32678.200002093,00000077,-64203,5,-512,-18,-9,-603*947fd7b0
%RAWIMUSA,2283,32678.210;2283,32678.210002093,00000077,-64216,-134,-523,-9,-9,-886*b247e6c0
%RAWIMUSA,2283,32678.220;2283,32678.220002093,00000077,-64212,-96,-537,18,9,91*b5353141
%RAWIMUSA,2283,32678.230;2283,32678.230002093,00000077,-64205,-10,-527,9,9,1024*1b970dc4
%RAWIMUSA,2283,32678.240;2283,32678.240002093,00000077,-64222,-186,-506,-18,-9,246*92b2353c
%RAWIMUSA,2283,32678.250;2283,32678.250002093,00000077,-64204,6,-521,-27,-9,-914*dc3c6e91
%RAWIMUSA,2283,32678.260;2283,32678.260002093,00000077,-64213,-114,-535,9,0,-722*c5a554f4
%RAWIMUSA,2283,32678.270;2283,32678.270002093,00000077,-64215,-112,-525,18,9,832*99bd5318
%RAWIMUSA,2283,32678.280;2283,32678.280002093,00000077,-64204,1,-513,-8,9,1033*4ed6fa37
%RAWIMUSA,2283,32678.290;2283,32678.290002093,00000077,-64217,-189,-516,-18,-9,-630*cddd07f1
%RAWIMUSA,2283,32678.300;2283,32678.300002093,00000077,-64202,-2,-536,-9,-9,-932*667c5d4d
%RAWIMUSA,2283,32678.310;2283,32678.310002093,00000077,-64213,-92,-527,9,9,192*39f466f8
%RAWIMUSA,2283,32678.320;2283,32678.320002093,00000077,-64217,-139,-508,18,9,832*de56b523
%RAWIMUSA,2283,32678.330;2283,32678.330002093,00000077,-64200,13,-519,-27,0,448*83802cae
%RAWIMUSA,2283,32678.340;2283,32678.340002093,00000077,-64219,-185,-534,-18,-9,-950*25300c93
%RAWIMUSA,2283,32678.350;2283,32678.350002093,00000077,-64205,-31,-528,18,0,-868*355b212c
%RAWIMUSA,2283,32678.360;2283,32678.360002093,00000077,-64210,-65,-511,9,0,1015*5e442614
%RAWIMUSA,2283,32678.370;2283,32678.370002093,00000077,-64218,-156,-515,-8,9,832*803303a7
%RAWIMUSA,2283,32678.380;2283,32678.380002093,00000077,-64199,10,-536,-18,-9,-475*2ccfa0d4
%RAWIMUSA,2283,32678.390;2283,32678.390002093,00000077,-64220,-166,-525,-9,-9,-914*a96d8dd9
%RAWIMUSA,2283,32678.400;2283,32678.400002093,00000077,-64208,-63,-510,9,9,0*b1f1b4ca
%RAWIMUSA,2283,32678.410;2283,32678.410002093,00000077,-64204,-38,-518,9,9,1024*6818e5d1
%RAWIMUSA,2283,32678.420;2283,32678.420002093,00000077,-64217,-176,-534,-18,-8,329*52e1734b
%RAWIMUSA,2283,32678.430;2283,32678.430002093,00000077,-64204,18,-528,-18,-9,-886*4d147447
%RAWIMUSA,2283,32678.440;2283,32678.440002093,00000077,-64216,-141,-512,9,0,-859*850e3447
%RAWIMUSA,2283,32678.450;2283,32678.450002093,00000077,-64209,-91,-519,9,9,850*149fdfa4
%RAWIMUSA,2283,32678.460;2283,32678.460002093,00000077,-64205,-15,-535,-8,0,1033*d4da6433
%RAWIMUSA,2283,32678.470;2283,32678.470002093,00000077,-64218,-178,-530,-18,-9,-557*2e02596f
%RAWIMUSA,2283,32678.480;2283,32678.480002093,00000077,-64204,7,-516,-9,-9,-905*3665556c
%RAWIMUSA,2283,32678.490;2283,32678.490002093,00000077,-64212,-119,-517,18,18,64*495e6387
%RAWIMUSA,2283,32678.500;2283,32678.500002093,00000077,-64212,-109,-531,9,0,850*5f1247fe
%RAWIMUSA,2283,32678.510;2283,32678.510002093,00000077,-64204,-3,-532,-27,-8,557*a4404634
%RAWIMUSA,2283,32678.520;2283,32678.520002093,00000077,-64218,-186,-513,-18,-9,-978*56f29435
%RAWIMUSA,2283,32678.530;2283,32678.530002093,00000077,-64204,4,-516,9,8,-923*80d06535
%RAWIMUSA,2283,32678.540;2283,32678.540002093,00000077,-64216,-117,-530,18,9,978*a27f4ff0
%RAWIMUSA,2283,32678.550;2283,32678.550002093,00000077,-64211,-107,-524,-8,0,859*4a158016
%RAWIMUSA,2283,32678.560;2283,32678.560002093,00000077,-64202,-5,-519,-27,-9,-347*0557e6ad
%RAWIMUSA,2283,32678.570;2283,32678.570002093,00000077,-64217,-178,-520,0,-10,-978*f08def5d
%RAWIMUSA,2283,32678.580;2283,32678.580002093,00000077,-64204,-9,-526,9,9,-27*6f2ce08b
%RAWIMUSA,2283,32678.590;2283,32678.590002093,00000077,-64213,-108,-525,0,9,978*77284ada
%RAWIMUSA,2283,32678.600;2283,32678.600002093,00000077,-64217,-99,-514,-18,-8,429*dc04ae14
%RAWIMUSA,2283,32678.610;2283,32678.610002093,00000077,-64199,-12,-526,-18,-9,-822*c8e4d8c8
%RAWIMUSA,2283,32678.620;2283,32678.620002093,00000077,-64218,-191,-535,9,8,-987*3ab94887
%RAWIMUSA,2283,32678.630;2283,32678.630002093,00000077,-64205,2,-523,18,9,868*a542bed3
%RAWIMUSA,2283,32678.640;2283,32678.640002093,00000077,-64213,-116,-504,-18,0,996*69040497
%RAWIMUSA,2283,32678.650;2283,32678.650002093,00000077,-64214,-110,-522,-18,-9,-475*e57e5e52
%RAWIMUSA,2283,32678.660;2283,32678.660002093,00000077,-64201,0,-544,0,-9,-813*8aad7124
%RAWIMUSA,2283,32678.670;2283,32678.670002093,00000077,-64220,-187,-521,9,9,-127*9dac5050
%RAWIMUSA,2283,32678.680;2283,32678.680002093,00000077,-64205,-8,-504,9,9,914*337bb80b
%RAWIMUSA,2283,32678.690;2283,32678.690002093,00000077,-64214,-98,-520,-27,-8,640*67098ee8
%RAWIMUSA,2283,32678.700;2283,32678.700002093,00000077,-64215,-142,-543,-9,-10,-1024*fc7234ee
%RAWIMUSA,2283,32678.710;2283,32678.710002093,00000077,-64200,16,-525,9,8,-832*7962dce6
%RAWIMUSA,2283,32678.720;2283,32678.720002093,00000077,-64221,-176,-505,9,9,795*41ce1a34
%RAWIMUSA,2283,32678.730;2283,32678.730002093,00000077,-64204,-30,-520,-8,-8,896*06cc4a0c
%RAWIMUSA,2283,32678.740;2283,32678.740002093,00000077,-64210,-80,-532,-27,-9,-246*c5017201
%RAWIMUSA,2283,32678.750;2283,32678.750002093,00000077,-64217,-150,-526,0,0,-1014*5fc93168
%RAWIMUSA,2283,32678.760;2283,32678.760002093,00000077,-64199,30,-513,18,18,-63*43e25dfc
%RAWIMUSA,2283,32678.770;2283,32678.770002093,00000077,-64221,-174,-517,0,0,941*730c2bbc
%RAWIMUSA,2283,32678.780;2283,32678.780002093,00000077,-64207,-61,-534,-18,-8,557*0dd30506
%RAWIMUSA,2283,32678.790;2283,32678.790002093,00000077,-64209,-38,-529,-18,-9,-822*b4ba226f
%RAWIMUSA,2283,32678.800;2283,32678.800002093,00000077,-64219,-168,-511,18,8,-1005*07dca565
%RAWIMUSA,2283,32678.810;2283,32678.810002093,00000077,-64203,14,-522,9,9,813*fa70c38c
%RAWIMUSA,2283,32678.820;2283,32678.820002093,00000077,-64216,-153,-530,-18,0,951*18ea63cc
%RAWIMUSA,2283,32678.830;2283,32678.830002093,00000077,-64209,-70,-523,-18,-9,-356*04d9b9a0
%RAWIMUSA,2283,32678.840;2283,32678.840002093,00000077,-64209,-24,-517,0,8,-822*07b0eab3
%RAWIMUSA,2283,32678.850;2283,32678.850002093,00000077,-64221,-183,-522,18,0,-274*6bd41ca9
%RAWIMUSA,2283,32678.860;2283,32678.860002093,00000077,-64202,2,-532,0,9,960*5131da3d
%RAWIMUSA,2283,32678.870;2283,32678.870002093,00000077,-64215,-137,-518,-18,-8,704*d1703cf9
%RAWIMUSA,2283,32678.880;2283,32678.880002093,00000077,-64210,-80,-516,-18,-10,-1005*2e3a8d37
%RAWIMUSA,2283,32678.890;2283,32678.890002093,00000077,-64209,-31,-528,18,8,-822*646d3cbe
%RAWIMUSA,2283,32678.900;2283,32678.900002093,00000077,-64216,-186,-528,9,9,631*13211983
%RAWIMUSA,2283,32678.910;2283,32678.910002093,00000077,-64201,17,-524,-18,-8,960*009eefa8
%RAWIMUSA,2283,32678.920;2283,32678.920002093,00000077,-64216,-143,-517,-18,-9,-201*c30898c6
%RAWIMUSA,2283,32678.930;2283,32678.930002093,00000077,-64212,-83,-525,0,0,-1005*544ca68e
%RAWIMUSA,2283,32678.940;2283,32678.940002093,00000077,-64205,-15,-530,18,9,-137*2c88b7c0
%RAWIMUSA,2283,32678.950;2283,32678.950002093,00000077,-64221,-185,-521,0,0,841*c96ed68c
%RAWIMUSA,2283,32678.960;2283,32678.960002093,00000077,-64203,5,-516,-27,-8,740*bdf3777e
%RAWIMUSA,2283,32678.970;2283,32678.970002093,00000077,-64214,-135,-522,-9,0,-877*c4d9f340
%RAWIMUSA,2283,32678.980;2283,32678.980002093,00000077,-64213,-88,-533,9,0,-1005*cc9946fa
%RAWIMUSA,2283,32678.990;2283,32678.990002093,00000077,-64205,-3,-522,9,9,768*ae4c7cd5
%RAWIMUSA,2283,32679.000;2283,32679.000002093,00000077,-64218,-190,-512,-18,-8,850*32518e95
%RAWIMUSA,2283,32679.010;2283,32679.010002093,00000077,-64203,4,-525,-18,-9,-173*b9299672
%RAWIMUSA,2283,32679.020;2283,32679.020002093,00000077,-64211,-120,-533,0,8,-859*328d5ab0
%RAWIMUSA,2283,32679.030;2283,32679.030002093,00000077,-64213,-105,-523,18,8,-383*458e72bc
%RAWIMUSA,2283,32679.040;2283,32679.040002093,00000077,-64202,3,-515,-8,-8,1024*3a225905
%RAWIMUSA,2283,32679.050;2283,32679.050002093,00000077,-64220,-183,-519,-18,0,713*e27b2657
%RAWIMUSA,2283,32679.060;2283,32679.060002093,00000077,-64203,-6,-530,-9,-9,-932*747c634d
%RAWIMUSA,2283,32679.070;2283,32679.070002093,00000077,-64207,-104,-526,9,8,-841*3107aeef
%RAWIMUSA,2283,32679.080;2283,32679.080002093,00000077,-64215,-131,-517,18,0,512*6eccb14c
%RAWIMUSA,2283,32679.090;2283,32679.090002093,00000077,-64202,16,-520,-27,0,1005*33f57dd0
%RAWIMUSA,2283,32679.100;2283,32679.100002093,00000077,-64218,-182,-529,-18,-9,-164*cad72314
%RAWIMUSA,2283,32679.110;2283,32679.110002093,00000077,-64200,-21,-529,9,0,-941*68a90890
%RAWIMUSA,2283,32679.120;2283,32679.120002093,00000077,-64212,-89,-519,9,8,-246*b404207d
%RAWIMUSA,2283,32679.130;2283,32679.130002093,00000077,-64214,-143,-514,0,0,832*b6f95ba2
%RAWIMUSA,2283,32679.140;2283,32679.140002093,00000077,-64199,10,-526,-27,-8,896*13192dfd
%RAWIMUSA,2283,32679.150;2283,32679.150002093,00000077,-64220,-179,-528,-9,0,-950*d128c187
%RAWIMUSA,2283,32679.160;2283,32679.160002093,00000077,-64205,-29,-520,18,8,-960*0ad6523f
%RAWIMUSA,2283,32679.170;2283,32679.170002093,00000077,-64210,-65,-516,9,0,658*e1eb3850
%RAWIMUSA,2283,32679.180;2283,32679.180002093,00000077,-64218,-168,-522,-18,-8,841*0f23e44c
%RAWIMUSA,2283,32679.190;2283,32679.190002093,00000077,-64199,19,-529,-27,-9,-27*e76540af
%RAWIMUSA,2283,32679.200;2283,32679.200002093,00000077,-64219,-159,-519,9,8,-914*f2a20b43
%RAWIMUSA,2283,32679.210;2283,32679.210002093,00000077,-64210,-59,-519,18,8,-457*cbd46c1e
%RAWIMUSA,2283,32679.220;2283,32679.220002093,00000077,-64205,-31,-525,-8,0,1024*ad73e8d9
%RAWIMUSA,2283,32679.230;2283,32679.230002093,00000077,-64222,-179,-524,-18,-8,786*119ddd0a
%RAWIMUSA,2283,32679.240;2283,32679.240002093,00000077,-64205,12,-521,-9,0,-896*2ab350e5
%RAWIMUSA,2283,32679.250;2283,32679.250002093,00000077,-64216,-140,-520,9,8,-896*2e422d8c
%RAWIMUSA,2283,32679.260;2283,32679.260002093,00000077,-64208,-83,-526,9,0,439*1941c313
%RAWIMUSA,2283,32679.270;2283,32679.270002093,00000077,-64207,-17,-527,-18,0,1033*93d93d56
%RAWIMUSA,2283,32679.280;2283,32679.280002093,00000077,-64218,-183,-518,-18,-9,-118*68753d59
%RAWIMUSA,2283,32679.290;2283,32679.290002093,00000077,-64202,9,-520,9,8,-896*0560d13c
%RAWIMUSA,2283,32679.300;2283,32679.300002093,00000077,-64214,-135,-526,9,8,-383*3b2b66cd
%RAWIMUSA,2283,32679.310;2283,32679.310002093,00000077,-64213,-98,-525,-8,-8,841*acbcbcca
%RAWIMUSA,2283,32679.320;2283,32679.320002093,00000077,-64203,-3,-521,-18,0,1024*13293957
%RAWIMUSA,2283,32679.330;2283,32679.330002093,00000077,-64221,-185,-520,-9,0,-978*2bde6f5c
%RAWIMUSA,2283,32679.340;2283,32679.340002093,00000077,-64200,-1,-525,18,8,-914*4fada0ee
%RAWIMUSA,2283,32679.350;2283,32679.350002093,00000077,-64212,-115,-526,9,0,521*00d3891c
%RAWIMUSA,2283,32679.360;2283,32679.360002093,00000077,-64217,-125,-522,-18,0,841*61a191e2
%RAWIMUSA,2283,32679.370;2283,32679.370002093,00000077,-64202,10,-522,-18,-9,100*db35f8e6
%RAWIMUSA,2283,32679.380;2283,32679.380002093,00000077,-64219,-188,-524,9,8,-960*4be0db4e
%RAWIMUSA,2283,32679.390;2283,32679.390002093,00000077,-64201,-14,-523,9,8,-511*fd7cc873
%RAWIMUSA,2283,32679.400;2283,32679.400002093,00000077,-64212,-93,-519,-8,0,996*b8c330ac
%RAWIMUSA,2283,32679.410;2283,32679.410002093,00000077,-64218,-135,-519,-18,-17,832*337a238c
%RAWIMUSA,2283,32679.420;2283,32679.420002093,00000077,-64199,5,-530,-9,8,-795*f7ccf5c0
%RAWIMUSA,2283,32679.430;2283,32679.430002093,00000077,-64220,-182,-525,18,8,-950*abe317db
%RAWIMUSA,2283,32679.440;2283,32679.440002093,00000077,-64205,-15,-521,0,0,374*99cc2c14
%RAWIMUSA,2283,32679.450;2283,32679.450002093,00000077,-64210,-68,-515,-18,-8,1024*86b70ecd
%RAWIMUSA,2283,32679.460;2283,32679.460002093,00000077,-64217,-166,-522,-18,-9,-27*501d284f
%RAWIMUSA,2283,32679.470;2283,32679.470002093,00000077,-64203,14,-532,9,8,-859*db84cb19
%RAWIMUSA,2283,32679.480;2283,32679.480002093,00000077,-64220,-165,-520,18,8,-539*f3ebfdd2
%RAWIMUSA,2283,32679.490;2283,32679.490002093,00000077,-64205,-40,-517,-8,-8,877*46be7ee3
%RAWIMUSA,2283,32679.500;2283,32679.500002093,00000077,-64206,-55,-524,-27,-8,1024*bf979275
%RAWIMUSA,2283,32679.510;2283,32679.510002093,00000077,-64217,-170,-525,0,8,-914*9880a05c
%RAWIMUSA,2283,32679.520;2283,32679.520002093,00000077,-64202,17,-522,18,8,-859*d7961414
%RAWIMUSA,2283,32679.530;2283,32679.530002093,00000077,-64218,-151,-516,0,0,365*f84617a1
%RAWIMUSA,2283,32679.540;2283,32679.540002093,00000077,-64206,-70,-526,-18,-8,859*898ab2b1
%RAWIMUSA,2283,32679.550;2283,32679.550002093,00000077,-64210,-37,-531,-27,0,219*82dbad3c
%RAWIMUSA,2283,32679.560;2283,32679.560002093,00000077,-64216,-171,-521,18,8,-996*8223ca9c
%RAWIMUSA,2283,32679.570;2283,32679.570002093,00000077,-64201,19,-517,9,0,-548*af1fe670
%RAWIMUSA,2283,32679.580;2283,32679.580002093,00000077,-64214,-153,-520,-8,-8,960*88a60165
%RAWIMUSA,2283,32679.590;2283,32679.590002093,00000077,-64213,-94,-530,-18,-8,859*a83833b2
%RAWIMUSA,2283,32679.600;2283,32679.600002093,00000077,-64205,-8,-522,-9,8,-685*1ff90733
%RAWIMUSA,2283,32679.610;2283,32679.610002093,00000077,-64216,-176,-514,18,8,-1005*f5e8e609
%RAWIMUSA,2283,32679.620;2283,32679.620002093,00000077,-64203,3,-527,0,0,320*d5d7aaf1
%RAWIMUSA,2283,32679.630;2283,32679.630002093,00000077,-64212,-138,-528,-18,-17,987*7fe8bab6
%RAWIMUSA,2283,32679.640;2283,32679.640002093,00000077,-64215,-100,-518,-18,0,91*dd1ad0c3
%RAWIMUSA,2283,32679.650;2283,32679.650002093,00000077,-64205,3,-519,9,8,-832*53f020c2
%RAWIMUSA,2283,32679.660;2283,32679.660002093,00000077,-64218,-192,-526,18,8,-703*00c31642
%RAWIMUSA,2283,32679.670;2283,32679.670002093,00000077,-64201,-4,-531,-18,-8,932*fc133bfd
%RAWIMUSA,2283,32679.680;2283,32679.680002093,00000077,-64216,-107,-518,-18,0,987*4d7bfb5c
%RAWIMUSA,2283,32679.690;2283,32679.690002093,00000077,-64215,-118,-510,0,0,-831*b55b2d54
%RAWIMUSA,2283,32679.700;2283,32679.700002094,00000077,-64199,9,-524,18,17,-832*2693896c
%RAWIMUSA,2283,32679.710;2283,32679.710002094,00000077,-64216,-199,-532,0,-9,210*1aa2216f
%RAWIMUSA,2283,32679.720;2283,32679.720002094,00000077,-64203,0,-520,-18,-8,914*280c2640
%RAWIMUSA,2283,32679.730;2283,32679.730002094,00000077,-64210,-78,-517,-18,0,310*8dec53b3
%RAWIMUSA,2283,32679.740;2283,32679.740002094,00000077,-64218,-153,-527,9,8,-1024*e7cfc1d2
%RAWIMUSA,2283,32679.750;2283,32679.750002094,00000077,-64200,6,-526,18,0,-603*3cc680e5
%RAWIMUSA,2283,32679.760;2283,32679.760002094,00000077,-64218,-172,-520,-18,-8,905*16c498d4
%RAWIMUSA,2283,32679.770;2283,32679.770002094,00000077,-64203,-22,-528,-18,0,887*2d44c9da
%RAWIMUSA,2283,32679.780;2283,32679.780002094,00000077,-64212,-71,-524,0,8,-585*fdee0360
%RAWIMUSA,2283,32679.790;2283,32679.790002094,00000077,-64220,-175,-510,9,0,-1024*f2953e16
%RAWIMUSA,2283,32679.800;2283,32679.800002094,00000077,-64200,29,-525,0,0,265*587f5483
%RAWIMUSA,2283,32679.810;2283,32679.810002094,00000077,-64218,-154,-535,-18,-8,941*498109fb
%RAWIMUSA,2283,32679.820;2283,32679.820002094,00000077,-64210,-75,-525,-9,0,192*1032e490
%RAWIMUSA,2283,32679.830;2283,32679.830002094,00000077,-64206,-42,-506,9,8,-813*a87b6ba7
%RAWIMUSA,2283,32679.840;2283,32679.840002094,00000077,-64218,-167,-516,9,8,-822*fa60007a
%RAWIMUSA,2283,32679.850;2283,32679.850002094,00000077,-64204,27,-539,-18,-8,960*a8281748
%RAWIMUSA,2283,32679.860;2283,32679.860002094,00000077,-64214,-156,-529,-18,-8,951*7c71ff71
%RAWIMUSA,2283,32679.870;2283,32679.870002094,00000077,-64208,-102,-511,9,8,-713*a67b6022
%RAWIMUSA,2283,32679.880;2283,32679.880002094,00000077,-64207,-16,-512,9,17,-813*7a5d28f5
%RAWIMUSA,2283,32679.890;2283,32679.890002094,00000077,-64217,-165,-530,0,-9,91*9f2cb34e
%RAWIMUSA,2283,32679.900;2283,32679.900002094,00000077,-64201,0,-532,-18,-8,941*8a021004
%RAWIMUSA,2283,32679.910;2283,32679.910002094,00000077,-64214,-134,-515,-18,9,356*e2d50fa9
%RAWIMUSA,2283,32679.920;2283,32679.920002094,00000077,-64213,-96,-516,18,0,-996*2a9d3ce2
%RAWIMUSA,2283,32679.930;2283,32679.930002094,00000077,-64205,-2,-527,9,0,-694*c48ed144
%RAWIMUSA,2283,32679.940;2283,32679.940002094,00000077,-64217,-190,-528,-18,-8,868*e6ddca26
%RAWIMUSA,2283,32679.950;2283,32679.950002094,00000077,-64203,3,-521,-18,0,932*928220c6
%RAWIMUSA,2283,32679.960;2283,32679.960002094,00000077,-64210,-106,-515,0,8,-521*b0b5c946
%RAWIMUSA,2283,32679.970;2283,32679.970002094,00000077,-64212,-112,-522,9,0,-1014*07836285
%RAWIMUSA,2283,32679.980;2283,32679.980002094,00000077,-64203,-8,-529,0,0,201*759ebe60
%RAWIMUSA,2283,32679.990;2283,32679.990002094,00000077,-64218,-186,-522,-18,-17,877*87e44361
%RAWIMUSA,2283,32680.000;2283,32680.000002094,00000077,-64204,0,-522,-8,9,356*19d5174b
%RAWIMUSA,2283,32680.010;2283,32680.010002094,00000077,-64213,-96,-524,9,8,-850*9c1e6f4b
%RAWIMUSA,2283,32680.020;2283,32680.020002094,00000077,-64217,-140,-527,9,0,-941*bacb07d9
%RAWIMUSA,2283,32680.030;2283,32680.030002094,00000077,-64200,13,-521,-18,-8,1024*efb3f15a
%RAWIMUSA,2283,32680.040;2283,32680.040002094,00000077,-64222,-179,-521,-18,0,896*a920f4ab
%RAWIMUSA,2283,32680.050;2283,32680.050002094,00000077,-64200,-23,-523,0,8,-557*d38211db
%RAWIMUSA,2283,32680.060;2283,32680.060002094,00000077,-64209,-84,-526,18,0,-841*937823aa
%RAWIMUSA,2283,32680.070;2283,32680.070002094,00000077,-64216,-146,-525,-9,-9,-36*4c9ecf74
%RAWIMUSA,2283,32680.080;2283,32680.080002094,00000077,-64199,17,-520,-18,0,1005*9a8741a2
%RAWIMUSA,2283,32680.090;2283,32680.090002094,00000077,-64220,-180,-525,-8,9,402*01e9dd32
%RAWIMUSA,2283,32680.100;2283,32680.100002094,00000077,-64206,-46,-527,18,8,-978*ec2fe8a7
%RAWIMUSA,2283,32680.110;2283,32680.110002094,00000077,-64208,-55,-523,9,-9,-795*221a6f7a
%RAWIMUSA,2283,32680.120;2283,32680.120002094,00000077,-64215,-160,-521,-18,-8,832*33ac468f
%RAWIMUSA,2283,32680.130;2283,32680.130002094,00000077,-64199,14,-523,-27,0,996*16705da9
%RAWIMUSA,2283,32680.140;2283,32680.140002094,00000077,-64223,-163,-525,9,17,-475*6554cba1
%RAWIMUSA,2283,32680.150;2283,32680.150002094,00000077,-64205,-64,-521,18,0,-987*395c4571
%RAWIMUSA,2283,32680.160;2283,32680.160002094,00000077,-64208,-41,-525,-9,-9,118*e1085e7e
%RAWIMUSA,2283,32680.170;2283,32680.170002094,00000077,-64215,-166,-522,-18,-8,841*226cdf84
%RAWIMUSA,2283,32680.180;2283,32680.180002094,00000077,-64204,18,-523,-8,9,521*5e764f5b
%RAWIMUSA,2283,32680.190;2283,32680.190002094,00000077,-64216,-152,-524,18,8,-914*93b70985
%RAWIMUSA,2283,32680.200;2283,32680.200002094,00000077,-64208,-72,-522,0,-10,-1005*8cc95050
%RAWIMUSA,2283,32680.210;2283,32680.210002094,00000077,-64207,-40,-521,-18,-8,1005*37ab5b54
%RAWIMUSA,2283,32680.220;2283,32680.220002094,00000077,-64217,-164,-519,-18,0,850*99be48f5
%RAWIMUSA,2283,32680.230;2283,32680.230002094,00000077,-64204,13,-527,9,8,-393*7667492c
%RAWIMUSA,2283,32680.240;2283,32680.240002094,00000077,-64215,-143,-521,18,0,-905*6a863ecc
%RAWIMUSA,2283,32680.250;2283,32680.250002094,00000077,-64209,-75,-520,-9,-9,-109*dada1d91
%RAWIMUSA,2283,32680.260;2283,32680.260002094,00000077,-64204,-24,-522,-27,0,1024*4db694bf
%RAWIMUSA,2283,32680.270;2283,32680.270002094,00000077,-64218,-176,-523,0,9,438*bd3fd585
%RAWIMUSA,2283,32680.280;2283,32680.280002094,00000077,-64203,11,-527,9,0,-905*e28c6a71
%RAWIMUSA,2283,32680.290;2283,32680.290002094,00000077,-64213,-137,-518,9,0,-877*c7a9017c
%RAWIMUSA,2283,32680.300;2283,32680.300002094,00000077,-64213,-100,-518,-18,-8,777*a69a60bd
%RAWIMUSA,2283,32680.310;2283,32680.310002094,00000077,-64204,-2,-528,-27,0,1024*6c3dd727
%RAWIMUSA,2283,32680.320;2283,32680.320002094,00000077,-64217,-185,-527,9,0,-447*0a791a49
%RAWIMUSA,2283,32680.330;2283,32680.330002094,00000077,-64205,-4,-518,18,0,-914*49c6252a
%RAWIMUSA,2283,32680.340;2283,32680.340002094,00000077,-64213,-118,-515,-9,0,-27*350e4049
%RAWIMUSA,2283,32680.350;2283,32680.350002094,00000077,-64212,-107,-526,-27,-8,832*2d0ea4b7
%RAWIMUSA,2283,32680.360;2283,32680.360002094,00000077,-64202,1,-528,0,9,667*04f22604
%RAWIMUSA,2283,32680.370;2283,32680.370002094,00000077,-64218,-197,-520,9,8,-969*99561362
%RAWIMUSA,2283,32680.380;2283,32680.380002094,00000077,-64204,-10,-516,9,-9,-932*751acfd7
%RAWIMUSA,2283,32680.390;2283,32680.390002094,00000077,-64212,-98,-522,-18,-8,877*4a4d6dcd
%RAWIMUSA,2283,32680.400;2283,32680.400002094,00000077,-64219,-121,-528,-18,0,832*6740deeb
%RAWIMUSA,2283,32680.410;2283,32680.410002094,00000077,-64202,3,-526,9,8,-246*b09aa92d
%RAWIMUSA,2283,32680.420;2283,32680.420002094,00000077,-64220,-187,-518,9,0,-960*e78b60ee
%RAWIMUSA,2283,32680.430;2283,32680.430002094,00000077,-64202,-13,-520,-9,-9,-155*a57a7e07
%RAWIMUSA,2283,32680.440;2283,32680.440002094,00000077,-64211,-83,-527,-18,0,1005*f2b16e1e
%RAWIMUSA,2283,32680.450;2283,32680.450002094,00000077,-64219,-144,-525,-8,9,521*8afd836c
%RAWIMUSA,2283,32680.460;2283,32680.460002094,00000077,-64198,8,-516,18,8,-831*f60dae73
%RAWIMUSA,2283,32680.470;2283,32680.470002094,00000077,-64221,-172,-518,0,-9,-960*91a405ce
%RAWIMUSA,2283,32680.480;2283,32680.480002094,00000077,-64204,-22,-530,-18,-8,740*6dd62d20
%RAWIMUSA,2283,32680.490;2283,32680.490002094,00000077,-64212,-83,-524,-18,9,1005*3a094400
%RAWIMUSA,2283,32680.500;2283,32680.500002094,00000077,-64217,-152,-518,18,0,-365*e3da2d43
%RAWIMUSA,2283,32680.510;2283,32680.510002094,00000077,-64200,29,-524,9,0,-850*a7eb326e
%RAWIMUSA,2283,32680.520;2283,32680.520002094,00000077,-64221,-167,-523,-9,0,-201*01809596
%RAWIMUSA,2283,32680.530;2283,32680.530002094,00000077,-64204,-49,-524,-27,-8,887*0bcbd293
%RAWIMUSA,2283,32680.540;2283,32680.540002094,00000077,-64205,-60,-524,0,9,768*9ce1c9b9
%RAWIMUSA,2283,32680.550;2283,32680.550002094,00000077,-64220,-159,-521,9,0,-1005*94387dd6
%RAWIMUSA,2283,32680.560;2283,32680.560002094,00000077,-64205,22,-520,9,-9,-877*14ae9f7c
%RAWIMUSA,2283,32680.570;2283,32680.570002094,00000077,-64215,-159,-522,-27,0,731*71ff1950
%RAWIMUSA,2283,32680.580;2283,32680.580002094,00000077,-64208,-78,-529,-18,0,850*1211d1db
%RAWIMUSA,2283,32680.590;2283,32680.590002094,00000077,-64205,-18,-527,18,9,-118*b12d58f4
%RAWIMUSA,2283,32680.600;2283,32680.600002094,00000077,-64218,-182,-515,9,0,-1005*29dbd6e6
%RAWIMUSA,2283,32680.610;2283,32680.610002094,00000077,-64201,0,-522,-18,-9,-219*9353d6aa
%RAWIMUSA,2283,32680.620;2283,32680.620002094,00000077,-64216,-132,-529,-18,0,978*958d8139
%RAWIMUSA,2283,32680.630;2283,32680.630002094,00000077,-64213,-86,-527,0,9,640*e0b665bb
%RAWIMUSA,2283,32680.640;2283,32680.640002094,00000077,-64204,-11,-515,9,0,-831*fecc4640
%RAWIMUSA,2283,32680.650;2283,32680.650002094,00000077,-64219,-190,-515,9,0,-987*03bf37d1
%RAWIMUSA,2283,32680.660;2283,32680.660002094,00000077,-64207,1,-533,-18,-8,676*527acbfd
%RAWIMUSA,2283,32680.670;2283,32680.670002094,00000077,-64212,-116,-529,-18,9,978*1fecf62d
%RAWIMUSA,2283,32680.680;2283,32680.680002094,00000077,-64212,-105,-516,9,8,-246*5b926261
%RAWIMUSA,2283,32680.690;2283,32680.690002094,00000077,-64203,-8,-517,18,-9,-822*7e83dbdf
%RAWIMUSA,2283,32680.700;2283,32680.700002094,00000077,-64218,-185,-527,-18,-9,-347*de68395e
%RAWIMUSA,2283,32680.710;2283,32680.710002094,00000077,-64205,3,-525,-18,9,923*cc37464e
%RAWIMUSA,2283,32680.720;2283,32680.720002094,00000077,-64211,-111,-519,0,0,841*600fa828
%RAWIMUSA,2283,32680.730;2283,32680.730002094,00000077,-64218,-127,-517,9,0,-1024*d01adf0a
%RAWIMUSA,2283,32680.740;2283,32680.740002094,00000077,-64198,17,-526,0,0,-822*8223f576
%RAWIMUSA,2283,32680.750;2283,32680.750002094,00000077,-64218,-183,-525,-18,-8,567*44a1f744
%RAWIMUSA,2283,32680.760;2283,32680.760002094,00000077,-64204,-18,-518,-18,9,905*1559f992
%RAWIMUSA,2283,32680.770;2283,32680.770002094,00000077,-64210,-87,-517,9,9,-45*50f248b1
%RAWIMUSA,2283,32680.780;2283,32680.780002094,00000077,-64216,-142,-527,18,-10,-1014*15947293
%RAWIMUSA,2283,32680.790;2283,32680.790002094,00000077,-64201,12,-528,-18,-9,-274*821d3e11
%RAWIMUSA,2283,32680.800;2283,32680.800002094,00000077,-64221,-180,-518,-18,0,914*c82fecb2
%RAWIMUSA,2283,32680.810;2283,32680.810002094,00000077,-64205,-31,-517,0,0,786*ff1250a0
%RAWIMUSA,2283,32680.820;2283,32680.820002094,00000077,-64211,-65,-526,9,8,-841*62b7838c
%RAWIMUSA,2283,32680.830;2283,32680.830002094,00000077,-64218,-172,-532,0,-10,-1014*e4b74467
%RAWIMUSA,2283,32680.840;2283,32680.840002094,00000077,-64200,22,-519,-18,0,612*9bedf64d
%RAWIMUSA,2283,32680.850;2283,32680.850002094,00000077,-64221,-157,-514,-8,9,951*4305581f
%RAWIMUSA,2283,32680.860;2283,32680.860002094,00000077,-64208,-68,-527,9,0,-155*bc752074
%RAWIMUSA,2283,32680.870;2283,32680.870002094,00000077,-64205,-30,-532,18,0,-813*e296f36b
%RAWIMUSA,2283,32680.880;2283,32680.880002094,00000077,-64215,-177,-519,-27,-18,-475*37928b52
%RAWIMUSA,2283,32680.890;2283,32680.890002094,00000077,-64205,15,-516,-18,9,960*c17f5f91
%RAWIMUSA,2283,32680.900;2283,32680.900002094,00000077,-64216,-144,-529,0,9,914*9de7376f
%RAWIMUSA,2283,32680.910;2283,32680.910002094,00000077,-64209,-87,-529,18,0,-996*17b8d797
%RAWIMUSA,2283,32680.920;2283,32680.920002094,00000077,-64204,0,-522,0,-9,-831*33836a7c
%RAWIMUSA,2283,32680.930;2283,32680.930002094,00000077,-64220,-188,-509,-27,0,438*99bb494a
%RAWIMUSA,2283,32680.940;2283,32680.940002094,00000077,-64202,2,-524,-8,9,932*2b048981
%RAWIMUSA,2283,32680.950;2283,32680.950002094,00000077,-64207,-122,-539,9,9,36*9442d8ed
%RAWIMUSA,2283,32680.960;2283,32680.960002094,00000077,-64215,-103,-520,18,-10,-1005*57a3023e
%RAWIMUSA,2283,32680.970;2283,32680.970002094,00000077,-64203,3,-509,-18,-9,-347*67b4f2ac
%RAWIMUSA,2283,32680.980;2283,32680.980002094,00000077,-64220,-188,-517,-27,9,868*9a0be19d
%RAWIMUSA,2283,32680.990;2283,32680.990002094,00000077,-64204,-8,-541,9,9,932*4ef899d2
%RAWIMUSA,2283,32681.000;2283,32681.000002094,00000077,-64211,-105,-526,18,-9,-850*9eb2427b
%RAWIMUSA,2283,32681.010;2283,32681.010002094,00000077,-64217,-112,-507,-9,-10,-1005*ff5a7bfe
%RAWIMUSA,2283,32681.020;2283,32681.020002094,00000077,-64202,-4,-520,-18,0,548*da47eaba
%RAWIMUSA,2283,32681.030;2283,32681.030002094,00000077,-64218,-185,-538,-8,9,877*a1e01788
%RAWIMUSA,2283,32681.040;2283,32681.040002094,00000077,-64202,-4,-527,9,0,18*9b956432
%RAWIMUSA,2283,32681.050;2283,32681.050002094,00000077,-64213,-104,-508,9,0,-859*3624ccd8
%RAWIMUSA,2283,32681.060;2283,32681.060002094,00000077,-64216,-137,-518,-18,-9,-585*fcd73417
%RAWIMUSA,2283,32681.070;2283,32681.070002094,00000077,-64204,10,-534,-18,9,1005*3b065c2a
%RAWIMUSA,2283,32681.080;2283,32681.080002094,00000077,-64219,-179,-530,9,9,887*21f4908d
%RAWIMUSA,2283,32681.090;2283,32681.090002094,00000077,-64203,-16,-513,9,-9,-895*19add28d
%RAWIMUSA,2283,32681.100;2283,32681.100002094,00000077,-64211,-100,-516,-9,0,-859*3d0afdc6
%RAWIMUSA,2283,32681.110;2283,32681.110002094,00000077,-64217,-132,-533,-18,0,310*f92c6786
%RAWIMUSA,2283,32681.120;2283,32681.120002094,00000077,-64201,5,-529,-8,0,1015*04291442
%RAWIMUSA,2283,32681.130;2283,32681.130002094,00000077,-64218,-182,-515,18,9,27*f6b68c64
%RAWIMUSA,2283,32681.140;2283,32681.140002094,00000077,-64206,-14,-519,9,-9,-923*4b3983a7
%RAWIMUSA,2283,32681.150;2283,32681.150002094,00000077,-64213,-93,-530,-27,-9,-466*55622627
%RAWIMUSA,2283,32681.160;2283,32681.160002094,00000077,-64216,-140,-525,-18,9,841*aaacc4e7
%RAWIMUSA,2283,32681.170;2283,32681.170002094,00000077,-64203,16,-521,9,9,1015*69f7e674
%RAWIMUSA,2283,32681.180;2283,32681.180002094,00000077,-64219,-183,-514,9,-9,-859*bdf12608
%RAWIMUSA,2283,32681.190;2283,32681.190002094,00000077,-64205,-20,-528,-9,-9,-960*1ee3b355
%RAWIMUSA,2283,32681.200;2283,32681.200002094,00000077,-64211,-71,-530,-18,0,448*29d028c6
%RAWIMUSA,2283,32681.210;2283,32681.210002094,00000077,-64218,-154,-515,-8,9,823*5bb805e2
%RAWIMUSA,2283,32681.220;2283,32681.220002094,00000077,-64202,16,-515,18,9,201*96ec6fdb
%RAWIMUSA,2283,32681.230;2283,32681.230002094,00000077,-64218,-173,-528,0,-9,-941*2b5cf8c0
%RAWIMUSA,2283,32681.240;2283,32681.240002094,00000077,-64206,-44,-531,-18,-9,-639*3b81ecb2
%RAWIMUSA,2283,32681.250;2283,32681.250002094,00000077,-64211,-49,-515,-18,9,1024*df413f8d
%RAWIMUSA,2283,32681.260;2283,32681.260002094,00000077,-64217,-157,-513,9,9,832*8c9f0d4f
%RAWIMUSA,2283,32681.270;2283,32681.270002094,00000077,-64199,9,-528,9,-9,-713*fed634e5
%RAWIMUSA,2283,32681.280;2283,32681.280002094,00000077,-64216,-164,-533,-9,-9,-923*3221eac5
%RAWIMUSA,2283,32681.290;2283,32681.290002094,00000077,-64205,-54,-518,-18,0,265*2b0322af
%RAWIMUSA,2283,32681.300;2283,32681.300002094,00000077,-64209,-48,-519,-8,19,1024*c1accb20
%RAWIMUSA,2283,32681.310;2283,32681.310002094,00000077,-64216,-158,-520,18,-9,91*f47c7677
%RAWIMUSA,2283,32681.320;2283,32681.320002094,00000077,-64203,17,-531,0,0,-868*31d3d223
%RAWIMUSA,2283,32681.330;2283,32681.330002094,00000077,-64217,-165,-522,-18,0,-639*915a8f08
%RAWIMUSA,2283,32681.340;2283,32681.340002094,00000077,-64206,-70,-514,-18,0,868*eadf3292
%RAWIMUSA,2283,32681.350;2283,32681.350002094,00000077,-64207,-37,-520,9,9,1024*37f85d25
%RAWIMUSA,2283,32681.360;2283,32681.360002094,00000077,-64218,-168,-527,18,0,-804*e22fadf7
%RAWIMUSA,2283,32681.370;2283,32681.370002094,00000077,-64204,12,-524,-18,-19,-895*83d323a5
%RAWIMUSA,2283,32681.380;2283,32681.380002094,00000077,-64214,-149,-518,-18,9,283*9425dfb3
%RAWIMUSA,2283,32681.390;2283,32681.390002094,00000077,-64207,-79,-523,0,9,859*89d88986
%RAWIMUSA,2283,32681.400;2283,32681.400002094,00000077,-64206,-23,-528,9,0,329*70bbb7d8
%RAWIMUSA,2283,32681.410;2283,32681.410002094,00000077,-64219,-176,-522,9,-10,-996*1a2186fc
%RAWIMUSA,2283,32681.420;2283,32681.420002094,00000077,-64204,15,-519,-18,0,-676*3238eae6
%RAWIMUSA,2283,32681.430;2283,32681.430002094,00000077,-64215,-137,-522,-18,9,978*f476a0f9
%RAWIMUSA,2283,32681.440;2283,32681.440002094,00000077,-64211,-100,-525,9,0,850*eecdc860
%RAWIMUSA,2283,32681.450;2283,32681.450002094,00000077,-64205,-6,-523,9,0,-585*ca8ba11b
%RAWIMUSA,2283,32681.460;2283,32681.460002094,00000077,-64219,-180,-520,-9,-10,-987*6231449a
%RAWIMUSA,2283,32681.470;2283,32681.470002094,00000077,-64204,3,-524,-18,0,228*7640bacc
%RAWIMUSA,2283,32681.480;2283,32681.480002094,00000077,-64213,-117,-524,-8,9,978*029b4ba2
%RAWIMUSA,2283,32681.490;2283,32681.490002094,00000077,-64216,-113,-522,18,0,192*f5e6a4cc
%RAWIMUSA,2283,32681.500;2283,32681.500002094,00000077,-64201,-3,-522,0,-9,-831*b1719b71
%RAWIMUSA,2283,32681.510;2283,32681.510002094,00000077,-64216,-176,-525,-18,-9,-804*6cb389fb
%RAWIMUSA,2283,32681.520;2283,32681.520002094,00000077,-64206,-10,-525,-18,9,923*7844003b
%RAWIMUSA,2283,32681.530;2283,32681.530002094,00000077,-64209,-108,-518,9,9,1005*84fd138b
%RAWIMUSA,2283,32681.540;2283,32681.540002094,00000077,-64215,-122,-524,18,-9,-722*d50df9ab
%RAWIMUSA,2283,32681.550;2283,32681.550002094,00000077,-64203,15,-527,-18,-9,-831*14ace4a5
%RAWIMUSA,2283,32681.560;2283,32681.560002094,00000077,-64219,-197,-522,-27,9,118*2d1f9804
%RAWIMUSA,2283,32681.570;2283,32681.570002094,00000077,-64203,-23,-518,0,9,914*a378343d
%RAWIMUSA,2283,32681.580;2283,32681.580002094,00000077,-64213,-80,-524,18,-8,402*64dd18f6
%RAWIMUSA,2283,32681.590;2283,32681.590002094,00000077,-64215,-130,-526,0,-10,-1024*a8ede4d4
%RAWIMUSA,2283,32681.600;2283,32681.600002094,00000077,-64201,-4,-521,-18,0,-713*ad1b7e50
%RAWIMUSA,2283,32681.610;2283,32681.610002094,00000077,-64219,-184,-519,-18,19,905*2280d7ff
%RAWIMUSA,2283,32681.620;2283,32681.620002094,00000077,-64205,-17,-521,18,0,905*d55f086f
%RAWIMUSA,2283,32681.630;2283,32681.630002094,00000077,-64214,-80,-524,9,-9,-493*ceef3320
%RAWIMUSA,2283,32681.640;2283,32681.640002094,00000077,-64215,-150,-524,-9,-10,-1024*2c9bc585
%RAWIMUSA,2283,32681.650;2283,32681.650002094,00000077,-64201,8,-523,-27,9,182*14d2e45b
%RAWIMUSA,2283,32681.660;2283,32681.660002094,00000077,-64221,-169,-522,0,9,905*8e00d70b
%RAWIMUSA,2283,32681.670;2283,32681.670002094,00000077,-64205,-24,-527,18,0,338*8ab20a6a
%RAWIMUSA,2283,32681.680;2283,32681.680002094,00000077,-64210,-79,-524,0,-9,-850*73247403
%RAWIMUSA,2283,32681.690;2283,32681.690002094,00000077,-64215,-150,-521,-18,0,-932*6e61c023
%RAWIMUSA,2283,32681.700;2283,32681.700002094,00000077,-64204,16,-529,-18,9,1005*ed686be9
%RAWIMUSA,2283,32681.710;2283,32681.710002094,00000077,-64220,-165,-524,18,0,923*e92dd22a
%RAWIMUSA,2283,32681.720;2283,32681.720002094,00000077,-64203,-43,-522,9,0,-566*b1c08a54
%RAWIMUSA,2283,32681.730;2283,32681.730002094,00000077,-64209,-69,-524,-18,-9,-841*649ea666
%RAWIMUSA,2283,32681.740;2283,32681.740002094,00000077,-64216,-153,-518,-18,18,-27*59d7fce0
%RAWIMUSA,2283,32681.750;2283,32681.750002094,00000077,-64203,22,-522,0,0,996*88264ee9
%RAWIMUSA,2283,32681.760;2283,32681.760002094,00000077,-64220,-170,-519,9,-8,429*6aa5bfd8
%RAWIMUSA,2283,32681.770;2283,32681.770002094,00000077,-64205,-53,-525,0,-10,-987*c7b44c47
%RAWIMUSA,2283,32681.780;2283,32681.780002094,00000077,-64206,-47,-527,-18,8,-795*056103c3
%RAWIMUSA,2283,32681.790;2283,32681.790002094,00000077,-64218,-165,-520,-18,9,841*6f42a9ec
%RAWIMUSA,2283,32681.800;2283,32681.800002094,00000077,-64205,13,-522,18,-8,969*007890fb
%RAWIMUSA,2283,32681.810;2283,32681.810002094,00000077,-64214,-153,-522,9,-9,-447*cf50b149
%RAWIMUSA,2283,32681.820;2283,32681.820002094,00000077,-64206,-76,-527,-18,0,-996*de993ad0
%RAWIMUSA,2283,32681.830;2283,32681.830002094,00000077,-64202,-22,-524,-18,18,109*c686e5c2
%RAWIMUSA,2283,32681.840;2283,32681.840002094,00000077,-64219,-187,-518,0,0,859*e2e03c61
%RAWIMUSA,2283,32681.850;2283,32681.850002094,00000077,-64203,12,-529,18,-8,493*4d35edde
%RAWIMUSA,2283,32681.860;2283,32681.860002094,00000077,-64212,-131,-526,-9,0,-859*09db70b2
%RAWIMUSA,2283,32681.870;2283,32681.870002094,00000077,-64215,-107,-520,-18,8,-1024*8ad11755
%RAWIMUSA,2283,32681.880;2283,32681.880002094,00000077,-64201,7,-518,-18,9,1005*c091053b
%RAWIMUSA,2283,32681.890;2283,32681.890002094,00000077,-64221,-191,-521,18,-8,877*f4117c34
%RAWIMUSA,2283,32681.900;2283,32681.900002094,00000077,-64207,-14,-529,9,-9,-420*89f0ab03
%RAWIMUSA,2283,32681.910;2283,32681.910002094,00000077,-64214,-99,-523,-18,-9,-859*eabcbb99
%RAWIMUSA,2283,32681.920;2283,32681.920002094,00000077,-64214,-126,-514,-18,9,-137*1a75b355
%RAWIMUSA,2283,32681.930;2283,32681.930002094,00000077,-64201,14,-529,9,19,1024*d4a0fae3
%RAWIMUSA,2283,32681.940;2283,32681.940002094,00000077,-64217,-188,-529,9,-8,493*166df961
%RAWIMUSA,2283,32681.950;2283,32681.950002094,00000077,-64201,-19,-519,0,-9,-932*1aeecfd2
%RAWIMUSA,2283,32681.960;2283,32681.960002094,00000077,-64213,-81,-517,-18,8,-841*564a38a2
%RAWIMUSA,2283,32681.970;2283,32681.970002094,00000077,-64219,-142,-526,-8,0,759*f6a44bce
%RAWIMUSA,2283,32681.980;2283,32681.980002094,00000077,-64201,11,-526,9,0,996*0ce937e6
%RAWIMUSA,2283,32681.990;2283,32681.990002094,00000077,-64220,-172,-520,9,-9,-393*6e924c6c
%RAWIMUSA,2283,32682.000;2283,32682.000002094,00000077,-64205,-33,-518,-18,8,-960*d7a63153
%RAWIMUSA,2283,32682.010;2283,32682.010002094,00000077,-64206,-71,-523,-18,9,0*275426ff
%RAWIMUSA,2283,32682.020;2283,32682.020002094,00000077,-64217,-156,-530,9,0,841*dc09ecb3
%RAWIMUSA,2283,32682.030;2283,32682.030002094,00000077,-64203,14,-521,9,-8,649*02be7cd1
%RAWIMUSA,2283,32682.040;2283,32682.040002094,00000077,-64225,-166,-511,0,-19,-932*228ebfb1
%RAWIMUSA,2283,32682.050;2283,32682.050002094,00000077,-64201,-40,-522,-27,8,-969*2ce2bbf4
%RAWIMUSA,2283,32682.060;2283,32682.060002094,00000077,-64208,-64,-537,-8,19,896*53c72834
%RAWIMUSA,2283,32682.070;2283,32682.070002094,00000077,-64214,-165,-524,18,0,841*5cf2cd31
%RAWIMUSA,2283,32682.080;2283,32682.080002094,00000077,-64200,18,-516,9,-9,-274*81f032d6
%RAWIMUSA,2283,32682.090;2283,32682.090002094,00000077,-64223,-163,-520,-27,0,-923*7d603b41
%RAWIMUSA,2283,32682.100;2283,32682.100002094,00000077,-64210,-66,-523,-18,0,-210*57a3ca95
%RAWIMUSA,2283,32682.110;2283,32682.110002094,00000077,-64207,-26,-521,9,0,1033*4460c036
%RAWIMUSA,2283,32682.120;2283,32682.120002094,00000077,-64217,-178,-521,18,-8,539*b0455e63
%RAWIMUSA,2283,32682.130;2283,32682.130002094,00000077,-64201,13,-530,-9,0,-896*e18fd1f5
%RAWIMUSA,2283,32682.140;2283,32682.140002094,00000077,-64210,-147,-522,-18,17,-886*cd649a3f
%RAWIMUSA,2283,32682.150;2283,32682.150002094,00000077,-64207,-88,-517,-8,0,676*4a1ed9d6
%RAWIMUSA,2283,32682.160;2283,32682.160002094,00000077,-64207,-1,-522,18,-8,1042*a5a65c81
%RAWIMUSA,2283,32682.170;2283,32682.170002094,00000077,-64220,-186,-524,0,-9,-347*b21a2027
%RAWIMUSA,2283,32682.180;2283,32682.180002094,00000077,-64205,-2,-524,-18,-9,-914*29e6dd68
%RAWIMUSA,2283,32682.190;2283,32682.190002094,00000077,-64212,-121,-521,-18,18,-137*7eddcbf5
%RAWIMUSA,2283,32682.200;2283,32682.200002094,00000077,-64212,-108,-523,9,0,832*a9664301
%RAWIMUSA,2283,32682.210;2283,32682.210002094,00000077,-64202,15,-527,18,0,768*3e81c948
%RAWIMUSA,2283,32682.220;2283,32682.220002094,00000077,-64218,-194,-525,-18,0,-978*8cf0592c
%RAWIMUSA,2283,32682.230;2283,32682.230002094,00000077,-64204,-11,-518,-9,0,-923*9ca052ea
%RAWIMUSA,2283,32682.240;2283,32682.240002094,00000077,-64215,-90,-520,-8,9,786*65b68db4
%RAWIMUSA,2283,32682.250;2283,32682.250002094,00000077,-64218,-139,-524,18,-8,823*09f2dda0
%RAWIMUSA,2283,32682.260;2283,32682.260002094,00000077,-64202,12,-526,0,-9,-137*d1046ebe
%RAWIMUSA,2283,32682.270;2283,32682.270002094,00000077,-64219,-177,-522,-18,8,-950*626bce3d
%RAWIMUSA,2283,32682.280;2283,32682.280002094,00000077,-64203,-25,-525,-18,8,-274*fc82e938
%RAWIMUSA,2283,32682.290;2283,32682.290002094,00000077,-64207,-73,-522,9,9,1015*c06322f8
%RAWIMUSA,2283,32682.300;2283,32682.300002094,00000077,-64217,-161,-524,18,-8,640*fb579126
%RAWIMUSA,2283,32682.310;2283,32682.310002094,00000077,-64202,15,-525,-9,-9,-859*67a00524
%RAWIMUSA,2283,32682.320;2283,32682.320002094,00000077,-64223,-168,-515,-27,0,-923*ac8f9eae
%RAWIMUSA,2283,32682.330;2283,32682.330002094,00000077,-64206,-44,-525,0,9,603*10232832
%RAWIMUSA,2283,32682.340;2283,32682.340002094,00000077,-64208,-56,-531,18,-8,1033*2ba8ee94
%RAWIMUSA,2283,32682.350;2283,32682.350002094,00000077,-64215,-166,-520,0,-9,-255*55288dac
%RAWIMUSA,2283,32682.360;2283,32682.360002094,00000077,-64196,16,-520,-18,17,-868*9bbdb56c
%RAWIMUSA,2283,32682.370;2283,32682.370002094,00000077,-64213,-160,-524,-18,0,-292*753cdbf7
%RAWIMUSA,2283,32682.380;2283,32682.380002094,00000077,-64210,-61,-529,9,0,868*5414cdce
%RAWIMUSA,2283,32682.390;2283,32682.390002094,00000077,-64205,-28,-519,18,-8,877*efd04bc7
%RAWIMUSA,2283,32682.400;2283,32682.400002094,00000077,-64221,-176,-513,-18,-10,-996*10dd5a1b
%RAWIMUSA,2283,32682.410;2283,32682.410002094,00000077,-64207,13,-524,-18,8,-886*68e5bee0
%RAWIMUSA,2283,32682.420;2283,32682.420002094,00000077,-64214,-153,-528,0,9,649*0478aa6b
%RAWIMUSA,2283,32682.430;2283,32682.430002094,00000077,-64211,-83,-525,9,-8,841*c7d3ea35
%RAWIMUSA,2283,32682.440;2283,32682.440002094,00000077,-64204,7,-520,9,0,-18*61454367
%RAWIMUSA,2283,32682.450;2283,32682.450002094,00000077,-64216,-196,-518,-18,0,-987*6e8f58f5
%RAWIMUSA,2283,32682.460;2283,32682.460002094,00000077,-64209,1,-526,-18,0,-347*82652a74
%RAWIMUSA,2283,32682.470;2283,32682.470002094,00000077,-64212,-113,-522,9,0,996*027e4ba7
%RAWIMUSA,2283,32682.480;2283,32682.480002094,00000077,-64218,-119,-520,18,-8,740*e6c374ea
%RAWIMUSA,2283,32682.490;2283,32682.490002094,00000077,-64198,3,-524,-18,8,-841*b1900979
%RAWIMUSA,2283,32682.500;2283,32682.500002094,00000077,-64218,-180,-528,-18,8,-960*a9039e30
%RAWIMUSA,2283,32682.510;2283,32682.510002094,00000077,-64202,-9,-523,0,0,530*2339c687
%RAWIMUSA,2283,32682.520;2283,32682.520002094,00000077,-64210,-99,-520,9,-8,1005*4a48276d
%RAWIMUSA,2283,32682.530;2283,32682.530002094,00000077,-64220,-145,-520,9,-18,-173*fca9fe86
%RAWIMUSA,2283,32682.540;2283,32682.540002094,00000077,-64203,16,-525,-18,8,-832*d479c9d3
%RAWIMUSA,2283,32682.550;2283,32682.550002094,00000077,-64221,-183,-523,-18,8,-429*51cfcf3a
%RAWIMUSA,2283,32682.560;2283,32682.560002094,00000077,-64202,-19,-521,9,0,896*47475c14
%RAWIMUSA,2283,32682.570;2283,32682.570002094,00000077,-64206,-77,-524,18,-8,969*6b223326
%RAWIMUSA,2283,32682.580;2283,32682.580002094,00000077,-64219,-163,-526,-18,0,-1024*c86c27cf
%RAWIMUSA,2283,32682.590;2283,32682.590002094,00000077,-64203,18,-520,-18,0,-850*0dd9d51a
%RAWIMUSA,2283,32682.600;2283,32682.600002094,00000077,-64224,-170,-515,0,0,484*0a20f394
%RAWIMUSA,2283,32682.610;2283,32682.610002094,00000077,-64205,-41,-523,9,-8,887*bf4e7d33
%RAWIMUSA,2283,32682.620;2283,32682.620002094,00000077,-64205,-50,-530,9,9,73*17d530a2
%RAWIMUSA,2283,32682.630;2283,32682.630002094,00000077,-64216,-165,-525,-18,8,-1014*b9e5c442
%RAWIMUSA,2283,32682.640;2283,32682.640002094,00000077,-64204,20,-517,-18,8,-383*7474b772
%RAWIMUSA,2283,32682.650;2283,32682.650002094,00000077,-64221,-167,-520,9,-17,941*3abc6131
%RAWIMUSA,2283,32682.660;2283,32682.660002094,00000077,-64212,-65,-529,18,-8,850*eaccc64b
%RAWIMUSA,2283,32682.670;2283,32682.670002094,00000077,-64207,-15,-525,-18,0,-813*369fc8d1
%RAWIMUSA,2283,32682.680;2283,32682.680002094,00000077,-64218,-186,-515,-18,17,-1005*398706fe
%RAWIMUSA,2283,32682.690;2283,32682.690002094,00000077,-64201,11,-526,0,9,475*64c755f9
%RAWIMUSA,2283,32682.700;2283,32682.700002094,00000077,-64209,-142,-531,9,-8,969*fa6b95d4
%RAWIMUSA,2283,32682.710;2283,32682.710002094,00000077,-64216,-92,-517,0,-9,-54*e8f0ab18
%RAWIMUSA,2283,32682.720;2283,32682.720002094,00000077,-64209,-1,-507,-18,0,-822*42b9c41a
%RAWIMUSA,2283,32682.730;2283,32682.730002094,00000077,-64224,-192,-522,-18,0,-566*58b0446b
%RAWIMUSA,2283,32682.740;2283,32682.740002094,00000077,-64200,2,-542,18,0,932*b67214c4
%RAWIMUSA,2283,32682.750;2283,32682.750002094,00000077,-64211,-107,-522,9,0,996*bf553910
%RAWIMUSA,2283,32682.760;2283,32682.760002094,00000077,-64214,-129,-506,-18,0,-960*f209f3c9
%RAWIMUSA,2283,32682.770;2283,32682.770002094,00000077,-64204,7,-526,-18,8,-832*62b95fb5
%RAWIMUSA,2283,32682.780;2283,32682.780002094,00000077,-64220,-187,-536,9,-8,365*faec0dda
%RAWIMUSA,2283,32682.790;2283,32682.790002094,00000077,-64202,-14,-520,9,-8,905*b195f10a
%RAWIMUSA,2283,32682.800;2283,32682.800002094,00000077,-64210,-85,-509,0,0,164*2b18e016
%RAWIMUSA,2283,32682.810;2283,32682.810002094,00000077,-64213,-155,-525,-27,17,-1014*4853c775
%RAWIMUSA,2283,32682.820;2283,32682.820002094,00000077,-64202,17,-536,-9,0,-475*aa2d306a
%RAWIMUSA,2283,32682.830;2283,32682.830002094,00000077,-64223,-170,-522,18,-8,905*8c5a4990
%RAWIMUSA,2283,32682.840;2283,32682.840002094,00000077,-64205,-35,-508,9,-8,877*9fcf648d
%RAWIMUSA,2283,32682.850;2283,32682.850002094,00000077,-64209,-62,-526,-18,8,-722*3ebc57cc
%RAWIMUSA,2283,32682.860;2283,32682.860002094,00000077,-64214,-164,-536,-18,8,-1024*59a1c47d
%RAWIMUSA,2283,32682.870;2283,32682.870002094,00000077,-64200,24,-521,0,0,411*f7da2184
%RAWIMUSA,2283,32682.880;2283,32682.880002094,00000077,-64221,-165,-513,18,-8,923*4b3a34d1
%RAWIMUSA,2283,32682.890;2283,32682.890002094,00000077,-64207,-65,-523,0,-9,73*3918c961
%RAWIMUSA,2283,32682.900;2283,32682.900002094,00000077,-64210,-36,-536,-27,8,-832*d7f21501
%RAWIMUSA,2283,32682.910;2283,32682.910002094,00000077,-64218,-164,-522,0,8,-676*470a998f
%RAWIMUSA,2283,32682.920;2283,32682.920002094,00000077,-64199,12,-514,9,0,960*006ab9f1
%RAWIMUSA,2283,32682.930;2283,32682.930002094,00000077,-64216,-154,-521,9,-8,941*583970b0
%RAWIMUSA,2283,32682.940;2283,32682.940002094,00000077,-64213,-76,-534,-18,8,-832*7d33001f
%RAWIMUSA,2283,32682.950;2283,32682.950002094,00000077,-64209,-21,-522,-18,0,-822*ebc283a2
%RAWIMUSA,2283,32682.960;2283,32682.960002094,00000077,-64220,-179,-512,0,-9,219*c92e582e
%RAWIMUSA,2283,32682.970;2283,32682.970002094,00000077,-64202,10,-523,18,0,951*d1174a6b
%RAWIMUSA,2283,32682.980;2283,32682.980002094,00000077,-64210,-145,-530,-9,9,228*85e75574
%RAWIMUSA,2283,32682.990;2283,32682.990002094,00000077,-64212,-88,-524,-18,0,-1005*9e292705
%RAWIMUSA,2283,32683.000;2283,32683.000002094,00000077,-64208,-10,-520,-9,0,-548*7680ec7d
%RAWIMUSA,2283,32683.010;2283,32683.010002094,00000077,-64219,-185,-514,18,-8,859*8782625b
%RAWIMUSA,2283,32683.020;2283,32683.020002094,00000077,-64204,6,-528,9,0,941*c0905452
%RAWIMUSA,2283,32683.030;2283,32683.030002094,00000077,-64210,-124,-528,-27,8,-667*d88347de
%RAWIMUSA,2283,32683.040;2283,32683.040002094,00000077,-64213,-111,-523,-18,8,-1005*0d0b5e3d
%RAWIMUSA,2283,32683.050;2283,32683.050002094,00000077,-64202,-3,-522,9,-8,347*2e5440f7
%RAWIMUSA,2283,32683.060;2283,32683.060002094,00000077,-64222,-187,-522,18,-17,877*8820bbc3
%RAWIMUSA,2283,32683.070;2283,32683.070002094,00000077,-64204,-4,-521,-9,9,237*15c2c29b
%RAWIMUSA,2283,32683.080;2283,32683.080002094,00000077,-64211,-102,-523,-27,17,-859*50b6d426
%RAWIMUSA,2283,32683.090;2283,32683.090002094,00000077,-64214,-123,-522,0,0,-795*6862b5b3
%RAWIMUSA,2283,32683.100;2283,32683.100002094,00000077,-64208,-4,-523,9,-17,1024*588c5854
%RAWIMUSA,2283,32683.110;2283,32683.110002094,00000077,-64218,-182,-519,9,-8,877*4cd7d56f
%RAWIMUSA,2283,32683.120;2283,32683.120002094,00000077,-64205,1,-521,-18,17,-676*d783a429
%RAWIMUSA,2283,32683.130;2283,32683.130002094,00000077,-64211,-111,-524,-18,8,-850*89f74cde
%RAWIMUSA,2283,32683.140;2283,32683.140002094,00000077,-64217,-125,-525,9,-18,100*b681f42c
%RAWIMUSA,2283,32683.150;2283,32683.150002094,00000077,-64204,6,-522,9,0,1024*bb167e51
%RAWIMUSA,2283,32683.160;2283,32683.160002094,00000077,-64217,-179,-519,-9,0,219*cb369119
%RAWIMUSA,2283,32683.170;2283,32683.170002094,00000077,-64203,-6,-524,-18,8,-923*d0c0e657
%RAWIMUSA,2283,32683.180;2283,32683.180002094,00000077,-64210,-104,-526,-9,0,-685*a4ffc973
%RAWIMUSA,2283,32683.190;2283,32683.190002094,00000077,-64218,-130,-521,18,-8,832*0f3d68ed
%RAWIMUSA,2283,32683.200;2283,32683.200002094,00000077,-64200,20,-520,9,0,1024*2eb606cd
%RAWIMUSA,2283,32683.210;2283,32683.210002094,00000077,-64217,-191,-525,-27,0,-649*c5d3caa4
%RAWIMUSA,2283,32683.220;2283,32683.220002094,00000077,-64202,-30,-527,-18,8,-941*ec959091
%RAWIMUSA,2283,32683.230;2283,32683.230002094,00000077,-64211,-74,-520,9,-9,237*e77b6776
%RAWIMUSA,2283,32683.240;2283,32683.240002094,00000077,-64217,-143,-520,18,0,832*1b13b05f
%RAWIMUSA,2283,32683.250;2283,32683.250002094,00000077,-64200,15,-527,-18,0,411*fdb8adc1
%RAWIMUSA,2283,32683.260;2283,32683.260002094,00000077,-64220,-185,-528,-18,17,-923*7fcdcc47
%RAWIMUSA,2283,32683.270;2283,32683.270002094,00000077,-64205,-44,-520,0,-9,-859*c9c08d74
%RAWIMUSA,2283,32683.280;2283,32683.280002094,00000077,-64211,-47,-517,9,-8,1033*e5bf2193
%RAWIMUSA,2283,32683.290;2283,32683.290002094,00000077,-64215,-172,-525,9,0,841*1327f4e2
%RAWIMUSA,2283,32683.300;2283,32683.300002094,00000077,-64200,19,-531,-18,8,-511*a55b4d7a
%RAWIMUSA,2283,32683.310;2283,32683.310002094,00000077,-64219,-154,-518,-27,0,-914*cfcd57eb
%RAWIMUSA,2283,32683.320;2283,32683.320002094,00000077,-64209,-71,-513,18,-9,27*0884d4c7
%RAWIMUSA,2283,32683.330;2283,32683.330002094,00000077,-64207,-32,-524,9,0,1024*db99a424
%RAWIMUSA,2283,32683.340;2283,32683.340002094,00000077,-64221,-171,-533,-8,0,301*99d83aa6
%RAWIMUSA,2283,32683.350;2283,32683.350002094,00000077,-64206,12,-526,-18,8,-886*400555ce
%RAWIMUSA,2283,32683.360;2283,32683.360002094,00000077,-64213,-136,-514,0,0,-822*7cdc42c4
%RAWIMUSA,2283,32683.370;2283,32683.370002094,00000077,-64209,-89,-521,9,-8,859*1184b0d9
%RAWIMUSA,2283,32683.380;2283,32683.380002094,00000077,-64206,-20,-534,0,0,1033*8e223e3d
%RAWIMUSA,2283,32683.390;2283,32683.390002094,00000077,-64221,-172,-522,-18,8,-594*c484f500
%RAWIMUSA,2283,32683.400;2283,32683.400002094,00000077,-64201,7,-518,-18,0,-886*e520f22f
%RAWIMUSA,2283,32683.410;2283,32683.410002094,00000077,-64220,-140,-520,9,0,91*d335f157
%RAWIMUSA,2283,32683.420;2283,32683.420002094,00000077,-64210,-80,-525,18,-8,850*a2fa4faa
%RAWIMUSA,2283,32683.430;2283,32683.430002094,00000077,-64206,-19,-523,-18,0,521*ed37573c
%RAWIMUSA,2283,32683.440;2283,32683.440002094,00000077,-64218,-187,-520,-18,8,-987*9e1be149
%RAWIMUSA,2283,32683.450;2283,32683.450002094,00000077,-64200,4,-524,0,0,-886*e79e3176
%RAWIMUSA,2283,32683.460;2283,32683.460002094,00000077,-64216,-118,-520,9,-8,978*af7af42b
%RAWIMUSA,2283,32683.470;2283,32683.470002094,00000077,-64214,-94,-517,9,0,859*4df8a46e
%RAWIMUSA,2283,32683.480;2283,32683.480002094,00000077,-64202,-16,-524,-27,8,-374*d300dfaf
%RAWIMUSA,2283,32683.490;2283,32683.490002094,00000077,-64222,-187,-530,-9,0,-987*749f3802
%RAWIMUSA,2283,32683.500;2283,32683.500002094,00000077,-64202,3,-518,9,-9,18*56f5dbca
%RAWIMUSA,2283,32683.510;2283,32683.510002094,00000077,-64214,-119,-516,18,0,960*86611efd
%RAWIMUSA,2283,32683.520;2283,32683.520002094,00000077,-64212,-98,-525,-18,0,411*f892d6b8
%RAWIMUSA,2283,32683.530;2283,32683.530002094,00000077,-64206,-22,-531,-18,8,-822*bff519f9
%RAWIMUSA,2283,32683.540;2283,32683.540002094,00000077,-64218,-177,-521,0,0,-996*f274ed88
%RAWIMUSA,2283,32683.550;2283,32683.550002094,00000077,-64203,7,-518,9,-8,923*d5b92f09
%RAWIMUSA,2283,32683.560;2283,32683.560002094,00000077,-64215,-136,-524,0,0,978*26de2ae1
%RAWIMUSA,2283,32683.570;2283,32683.570002094,00000077,-64212,-93,-525,-18,8,-484*d2b26783
%RAWIMUSA,2283,32683.580;2283,32683.580002094,00000077,-64202,-5,-523,-18,0,-822*915b6283
%RAWIMUSA,2283,32683.590;2283,32683.590002094,00000077,-64221,-187,-519,18,-9,-127*7f08929c
%RAWIMUSA,2283,32683.600;2283,32683.600002094,00000077,-64203,1,-524,9,0,941*b9b97abd
%RAWIMUSA,2283,32683.610;2283,32683.610002094,00000077,-64214,-123,-527,-18,9,585*88a8773c
%RAWIMUSA,2283,32683.620;2283,32683.620002094,00000077,-64214,-100,-522,-18,0,-1014*61a0e14a
%RAWIMUSA,2283,32683.630;2283,32683.630002094,00000077,-64203,5,-520,0,0,-822*5092f62e
%RAWIMUSA,2283,32683.640;2283,32683.640002094,00000077,-64217,-193,-520,18,-8,786*5019548a
%RAWIMUSA,2283,32683.650;2283,32683.650002094,00000077,-64204,-6,-525,-8,0,923*1e165b1f
%RAWIMUSA,2283,32683.660;2283,32683.660002094,00000077,-64212,-110,-524,-18,8,-301*28301b25
%RAWIMUSA,2283,32683.670;2283,32683.670002094,00000077,-64215,-112,-519,-9,0,-1005*8a61ee68
%RAWIMUSA,2283,32683.680;2283,32683.680002094,00000077,-64203,-3,-524,9,-9,-9*32f65085
%RAWIMUSA,2283,32683.690;2283,32683.690002094,00000077,-64220,-182,-526,9,0,877*1a1cd89c
%RAWIMUSA,2283,32683.700;2283,32683.700002094,00000077,-64202,0,-522,-18,9,585*07529c43
%RAWIMUSA,2283,32683.710;2283,32683.710002094,00000077,-64210,-111,-521,-18,0,-868*1148bcfc
%RAWIMUSA,2283,32683.720;2283,32683.720002094,00000077,-64217,-120,-522,9,0,-1014*b5a083cd
%RAWIMUSA,2283,32683.730;2283,32683.730002094,00000077,-64202,7,-524,9,-17,887*1232f41b
%RAWIMUSA,2283,32683.740;2283,32683.740002094,00000077,-64216,-183,-526,0,9,877*deba000f
%RAWIMUSA,2283,32683.750;2283,32683.750002094,00000077,-64201,-9,-527,-27,8,-319*c6501967
%RAWIMUSA,2283,32683.760;2283,32683.760002094,00000077,-64210,-103,-520,-9,0,-850*f49ee136
%RAWIMUSA,2283,32683.770;2283,32683.770002094,00000077,-64216,-137,-518,18,-9,-246*7d77c4a0
%RAWIMUSA,2283,32683.780;2283,32683.780002094,00000077,-64204,12,-527,9,0,996*19b81b61
%RAWIMUSA,2283,32683.790;2283,32683.790002094,00000077,-64223,-181,-525,-18,9,612*67c0cff4
%RAWIMUSA,2283,32683.800;2283,32683.800002094,00000077,-64206,-19,-521,-18,0,-950*5ff05114
%RAWIMUSA,2283,32683.810;2283,32683.810002094,00000077,-64209,-78,-522,0,0,-841*0cea6974
%RAWIMUSA,2283,32683.820;2283,32683.820002094,00000077,-64217,-157,-524,18,-8,658*f2375bd9
%RAWIMUSA,2283,32683.830;2283,32683.830002094,00000077,-64200,17,-521,-8,9,996*c5fd0836
%RAWIMUSA,2283,32683.840;2283,32683.840002094,00000077,-64220,-168,-520,-18,8,-274*84e3926c
%RAWIMUSA,2283,32683.850;2283,32683.850002094,00000077,-64204,-35,-525,-9,-9,-969*2ddb8988
%RAWIMUSA,2283,32683.860;2283,32683.860002094,00000077,-64210,-64,-524,9,-9,-118*54c221e3
%RAWIMUSA,2283,32683.870;2283,32683.870002094,00000077,-64217,-155,-518,18,0,841*2dfb8271
%RAWIMUSA,2283,32683.880;2283,32683.880002094,00000077,-64201,14,-525,-18,9,749*2b2a3df0
%RAWIMUSA,2283,32683.890;2283,32683.890002094,00000077,-64219,-167,-522,-18,0,-923*9e2c49a5
%RAWIMUSA,2283,32683.900;2283,32683.900002094,00000077,-64208,-49,-525,0,-10,-978*83e62670
%RAWIMUSA,2283,32683.910;2283,32683.910002094,00000077,-64207,-50,-519,18,0,795*337468b4
%RAWIMUSA,2283,32683.920;2283,32683.920002094,00000077,-64217,-169,-524,-8,9,841*9dff7ea6
%RAWIMUSA,2283,32683.930;2283,32683.930002094,00000077,-64201,19,-530,-18,9,-173*c99f1145
%RAWIMUSA,2283,32683.940;2283,32683.940002094,00000077,-64216,-154,-521,-9,-9,-896*35d0528d
%RAWIMUSA,2283,32683.950;2283,32683.950002094,00000077,-64213,-79,-512,9,-9,-338*8e077d47
%RAWIMUSA,2283,32683.960;2283,32683.960002094,00000077,-64203,-16,-527,9,9,1042*0b6f3e4f
%RAWIMUSA,2283,32683.970;2283,32683.970002094,00000077,-64219,-184,-528,-18,9,658*dc425195
%RAWIMUSA,2283,32683.980;2283,32683.980002094,00000077,-64203,17,-515,-18,0,-905*4d6eae7e
%RAWIMUSA,2283,32683.990;2283,32683.990002094,00000077,-64215,-137,-517,9,-9,-868*f496a16e
%RAWIMUSA,2283,32684.000;2283,32684.000002094,00000077,-64211,-119,-531,9,-8,557*861f7de0
%RAWIMUSA,2283,32684.010;2283,32684.010002094,00000077,-64207,0,-530,-8,9,1033*855e898b
%RAWIMUSA,2283,32684.020;2283,32684.020002094,00000077,-64222,-177,-515,-18,8,-228*b67d8c82
%RAWIMUSA,2283,32684.030;2283,32684.030002094,00000077,-64204,2,-513,-9,-9,-932*9aa2e930
%RAWIMUSA,2283,32684.040;2283,32684.040002094,00000077,-64212,-126,-534,9,-9,-228*af9fe99c
%RAWIMUSA,2283,32684.050;2283,32684.050002094,00000077,-64218,-132,-532,9,0,832*6a88b390
%RAWIMUSA,2283,32684.060;2283,32684.060002094,00000077,-64201,23,-516,-18,9,868*6112deb8
%RAWIMUSA,2283,32684.070;2283,32684.070002094,00000077,-64221,-183,-511,-18,0,-969*ed3b3a8a
%RAWIMUSA,2283,32684.080;2283,32684.080002094,00000077,-64204,-32,-532,9,-9,-941*61934c16
%RAWIMUSA,2283,32684.090;2283,32684.090002094,00000077,-64210,-79,-529,9,0,676*9ee4ccde
%RAWIMUSA,2283,32684.100;2283,32684.100002094,00000077,-64217,-130,-513,-8,9,850*e7f3fdbf
%RAWIMUSA,2283,32684.110;2283,32684.110002094,00000077,-64200,1,-518,-18,9,-45*42199f91
%RAWIMUSA,2283,32684.120;2283,32684.120002094,00000077,-64218,-183,-530,-9,-9,-941*25d67874
%RAWIMUSA,2283,32684.130;2283,32684.130002094,00000077,-64208,-18,-528,18,-9,-383*7e21f583
%RAWIMUSA,2283,32684.140;2283,32684.140002094,00000077,-64209,-62,-513,0,0,1015*49fc434e
%RAWIMUSA,2283,32684.150;2283,32684.150002094,00000077,-64218,-159,-518,-18,9,731*0a0e4eb1
%RAWIMUSA,2283,32684.160;2283,32684.160002094,00000077,-64203,8,-535,-18,0,-850*298f39a8
%RAWIMUSA,2283,32684.170;2283,32684.170002094,00000077,-64221,-168,-526,9,-9,-923*4ad434ea
%RAWIMUSA,2283,32684.180;2283,32684.180002094,00000077,-64206,-39,-515,18,0,493*ee3c21d0
%RAWIMUSA,2283,32684.190;2283,32684.190002094,00000077,-64207,-49,-520,-18,9,1015*488190d0
%RAWIMUSA,2283,32684.200;2283,32684.200002094,00000077,-64217,-174,-527,-18,9,-146*2700ec09
%RAWIMUSA,2283,32684.210;2283,32684.210002094,00000077,-64202,17,-527,0,-9,-868*be3cc3cc
%RAWIMUSA,2283,32684.220;2283,32684.220002094,00000077,-64219,-153,-516,9,-9,-402*4b23d589
%RAWIMUSA,2283,32684.230;2283,32684.230002094,00000077,-64210,-71,-520,9,0,877*2574d063
%RAWIMUSA,2283,32684.240;2283,32684.240002094,00000077,-64205,-39,-531,-27,9,978*52149b16
%RAWIMUSA,2283,32684.250;2283,32684.250002094,00000077,-64217,-168,-530,-18,0,-1005*caf3a482
%RAWIMUSA,2283,32684.260;2283,32684.260002094,00000077,-64204,19,-521,18,-9,-877*e4aad51c
%RAWIMUSA,2283,32684.270;2283,32684.270002094,00000077,-64218,-156,-510,9,0,503*9cd1b941
%RAWIMUSA,2283,32684.280;2283,32684.280002094,00000077,-64214,-79,-523,-8,9,868*960b3728
%RAWIMUSA,2283,32684.290;2283,32684.290002094,00000077,-64204,-24,-539,-18,0,82*c06d8040
%RAWIMUSA,2283,32684.300;2283,32684.300002094,00000077,-64217,-179,-529,-9,-10,-996*a12b9404
%RAWIMUSA,2283,32684.310;2283,32684.310002094,00000077,-64203,13,-512,18,-9,-429*0c09e145
%RAWIMUSA,2283,32684.320;2283,32684.320002094,00000077,-64213,-140,-514,0,19,960*cad2c88a
%RAWIMUSA,2283,32684.330;2283,32684.330002094,00000077,-64215,-91,-537,-18,0,850*4ef6d4aa
%RAWIMUSA,2283,32684.340;2283,32684.340002094,00000077,-64206,-12,-532,-18,0,-822*00a069dd
%RAWIMUSA,2283,32684.350;2283,32684.350002094,00000077,-64216,-180,-510,9,-19,-987*fd120bda
%RAWIMUSA,2283,32684.360;2283,32684.360002094,00000077,-64201,2,-518,18,9,466*a59e70b7
%RAWIMUSA,2283,32684.370;2283,32684.370002094,00000077,-64215,-120,-533,-18,9,978*d341cda6
%RAWIMUSA,2283,32684.380;2283,32684.380002094,00000077,-64213,-104,-529,-18,0,-45*7a27168b
%RAWIMUSA,2283,32684.390;2283,32684.390002094,00000077,-64208,-1,-518,0,-9,-822*b33714a3
%RAWIMUSA,2283,32684.400;2283,32684.400002094,00000077,-64218,-191,-516,9,-9,-557*e0bada35
%RAWIMUSA,2283,32684.410;2283,32684.410002094,00000077,-64206,9,-534,9,9,932*d0ea3c6b
%RAWIMUSA,2283,32684.420;2283,32684.420002094,00000077,-64212,-105,-524,-27,0,987*9481f070
%RAWIMUSA,2283,32684.430;2283,32684.430002094,00000077,-64219,-130,-510,-18,0,-969*610186cf
%RAWIMUSA,2283,32684.440;2283,32684.440002094,00000077,-64200,8,-520,18,-9,-831*94d98389
%RAWIMUSA,2283,32684.450;2283,32684.450002094,00000077,-64217,-188,-531,9,0,356*76680c20
%RAWIMUSA,2283,32684.460;2283,32684.460002094,00000077,-64203,-14,-530,-18,9,896*81716fd2
%RAWIMUSA,2283,32684.470;2283,32684.470002094,00000077,-64212,-79,-510,-18,0,173*d875c553
%RAWIMUSA,2283,32684.480;2283,32684.480002094,00000077,-64218,-155,-516,0,-10,-1024*ea8396bd
%RAWIMUSA,2283,32684.490;2283,32684.490002094,00000077,-64201,18,-539,18,0,-484*4ab91cfe
