%RAWIMUSA,2283,32649.010;2283,32649.010002087,00000077,-64215,-126,-515,-18,8,-868*c91a3be9
%RAWIMUSA,2283,32649.020;2283,32649.020002087,00000077,-64217,-107,-524,-18,9,631*abb40dac
%RAWIMUSA,2283,32649.030;2283,32649.030002087,00000077,-64201,5,-531,9,0,1024*b2461b84
%RAWIMUSA,2283,32649.040;2283,32649.040002087,00000077,-64221,-193,-518,9,-18,-292*48e802a4
%RAWIMUSA,2283,32649.050;2283,32649.050002087,00000077,-64203,-4,-514,-9,0,-932*25e3a3b1
%RAWIMUSA,2283,32649.060;2283,32649.060002087,00000077,-64212,-97,-524,-18,9,-155*2f15226c
%RAWIMUSA,2283,32649.070;2283,32649.070002087,00000077,-64220,-134,-530,0,9,832*c7100850
%RAWIMUSA,2283,32649.080;2283,32649.080002087,00000077,-64198,15,-522,9,-8,795*f61d85d6
%RAWIMUSA,2283,32649.090;2283,32649.090002087,00000077,-64220,-181,-512,9,-10,-950*c7c9ea9b
%RAWIMUSA,2283,32649.100;2283,32649.100002087,00000077,-64206,-28,-525,-18,8,-960*2d50467a
%RAWIMUSA,2283,32649.110;2283,32649.110002087,00000077,-64210,-64,-529,-27,0,759*ffb83edc
%RAWIMUSA,2283,32649.120;2283,32649.120002087,00000077,-64216,-158,-520,18,0,832*914a7e51
%RAWIMUSA,2283,32649.130;2283,32649.130002087,00000077,-64200,19,-517,9,0,-109*5940e43b
%RAWIMUSA,2283,32649.140;2283,32649.140002087,00000077,-64218,-166,-525,-18,-9,-923*70cc674b
%RAWIMUSA,2283,32649.150;2283,32649.150002087,00000077,-64208,-53,-528,-18,8,-347*00d4ea33
%RAWIMUSA,2283,32649.160;2283,32649.160002087,00000077,-64207,-50,-523,0,9,1024*fb24ab3a
%RAWIMUSA,2283,32649.170;2283,32649.170002087,00000077,-64216,-168,-519,18,-8,685*89f55ffe
%RAWIMUSA,2283,32649.180;2283,32649.180002087,00000077,-64201,16,-525,0,-9,-868*653693d8
%RAWIMUSA,2283,32649.190;2283,32649.190002087,00000077,-64217,-153,-525,-18,8,-914*f6fe24a2
%RAWIMUSA,2283,32649.200;2283,32649.200002087,00000077,-64209,-69,-520,-18,9,557*b34a7fa5
%RAWIMUSA,2283,32649.210;2283,32649.210002087,00000077,-64205,-31,-523,18,0,1033*9c464853
%RAWIMUSA,2283,32649.220;2283,32649.220002087,00000077,-64218,-185,-523,9,-18,-219*e3b69e63
%RAWIMUSA,2283,32649.230;2283,32649.230002087,00000077,-64205,12,-517,-18,0,-896*25e13288
%RAWIMUSA,2283,32649.240;2283,32649.240002087,00000077,-64212,-132,-519,-18,8,-292*4c623fd7
%RAWIMUSA,2283,32649.250;2283,32649.250002087,00000077,-64212,-97,-528,9,9,841*d28cb7cb
%RAWIMUSA,2283,32649.260;2283,32649.260002087,00000077,-64207,0,-523,9,-8,914*aa957496
%RAWIMUSA,2283,32649.270;2283,32649.270002087,00000077,-64217,-192,-517,0,-10,-978*644cf1e0
%RAWIMUSA,2283,32649.280;2283,32649.280002087,00000077,-64203,4,-524,-18,8,-914*60767e8d
%RAWIMUSA,2283,32649.290;2283,32649.290002087,00000077,-64210,-113,-531,-18,9,631*1aa30175
%RAWIMUSA,2283,32649.300;2283,32649.300002087,00000077,-64218,-115,-519,18,-8,832*c52af700
%RAWIMUSA,2283,32649.310;2283,32649.310002087,00000077,-64200,3,-515,9,0,9*8ca83ac2
%RAWIMUSA,2283,32649.320;2283,32649.320002087,00000077,-64221,-186,-524,-18,-9,-969*17e4a31b
%RAWIMUSA,2283,32649.330;2283,32649.330002087,00000077,-64202,-5,-529,-27,8,-383*a828c92a
%RAWIMUSA,2283,32649.340;2283,32649.340002087,00000077,-64213,-101,-523,9,0,996*eb0f07bd
%RAWIMUSA,2283,32649.350;2283,32649.350002087,00000077,-64217,-134,-514,9,-8,768*f800b738
%RAWIMUSA,2283,32649.360;2283,32649.360002087,00000077,-64200,18,-522,0,-9,-831*4b2b12b0
%RAWIMUSA,2283,32649.370;2283,32649.370002087,00000077,-64220,-178,-531,-18,8,-960*970aab6b
%RAWIMUSA,2283,32649.380;2283,32649.380002087,00000077,-64207,-26,-520,-8,9,493*6c23ee4c
%RAWIMUSA,2283,32649.390;2283,32649.390002087,00000077,-64212,-81,-514,9,-8,1005*ef77aa02
%RAWIMUSA,2283,32649.400;2283,32649.400002087,00000077,-64215,-146,-526,18,-9,-118*281f5894
%RAWIMUSA,2283,32649.410;2283,32649.410002087,00000077,-64204,18,-534,-18,0,-859*12e29a4a
%RAWIMUSA,2283,32649.420;2283,32649.420002087,00000077,-64216,-177,-518,-18,8,-447*15df0a61
%RAWIMUSA,2283,32649.430;2283,32649.430002087,00000077,-64205,-40,-517,0,0,877*60debaf4
%RAWIMUSA,2283,32649.440;2283,32649.440002087,00000077,-64209,-61,-528,18,-8,1015*b1b5025a
%RAWIMUSA,2283,32649.450;2283,32649.450002087,00000077,-64219,-163,-531,0,-10,-1024*112f5b3a
%RAWIMUSA,2283,32649.460;2283,32649.460002087,00000077,-64199,12,-516,-27,8,-868*e8526e8b
%RAWIMUSA,2283,32649.470;2283,32649.470002087,00000077,-64221,-165,-513,-8,9,466*56051fa6
%RAWIMUSA,2283,32649.480;2283,32649.480002087,00000077,-64207,-52,-533,18,-8,877*95c237a9
%RAWIMUSA,2283,32649.490;2283,32649.490002087,00000077,-64209,-40,-533,9,-9,100*d50de52c
%RAWIMUSA,2283,32649.500;2283,32649.500002087,00000077,-64216,-173,-513,-18,8,-1005*248faa26
%RAWIMUSA,2283,32649.510;2283,32649.510002087,00000077,-64206,7,-514,-18,8,-438*d7846682
%RAWIMUSA,2283,32649.520;2283,32649.520002087,00000077,-64214,-145,-525,0,0,951*e9c16cb6
%RAWIMUSA,2283,32649.530;2283,32649.530002087,00000077,-64209,-64,-532,18,-17,850*80ebd763
%RAWIMUSA,2283,32649.540;2283,32649.540002087,00000077,-64208,-38,-519,-9,0,-786*41d70239
%RAWIMUSA,2283,32649.550;2283,32649.550002087,00000077,-64218,-185,-505,-18,8,-996*b2cbe709
%RAWIMUSA,2283,32649.560;2283,32649.560002087,00000077,-64202,23,-531,-8,9,438*0cbcc6d8
%RAWIMUSA,2283,32649.570;2283,32649.570002087,00000077,-64214,-139,-536,18,-8,969*aa3af212
%RAWIMUSA,2283,32649.580;2283,32649.580002087,00000077,-64211,-97,-518,9,-9,-18*3db7801f
%RAWIMUSA,2283,32649.590;2283,32649.590002087,00000077,-64204,0,-513,-27,8,-822*2b8e5d72
%RAWIMUSA,2283,32649.600;2283,32649.600002087,00000077,-64219,-184,-526,-18,8,-603*8e5c67b0
%RAWIMUSA,2283,32649.610;2283,32649.610002087,00000077,-64205,5,-536,9,-8,932*c5036294
%RAWIMUSA,2283,32649.620;2283,32649.620002087,00000077,-64210,-119,-520,9,-8,987*42eabe2c
%RAWIMUSA,2283,32649.630;2283,32649.630002087,00000077,-64216,-125,-510,0,0,-923*4e9bd15c
%RAWIMUSA,2283,32649.640;2283,32649.640002087,00000077,-64200,17,-528,-27,8,-832*33286326
%RAWIMUSA,2283,32649.650;2283,32649.650002087,00000077,-64219,-186,-531,-8,9,320*c887419b
%RAWIMUSA,2283,32649.660;2283,32649.660002087,00000077,-64202,-19,-520,18,-8,914*9fd8fab7
%RAWIMUSA,2283,32649.670;2283,32649.670002087,00000077,-64212,-88,-512,9,-9,201*4434a8c0
%RAWIMUSA,2283,32649.680;2283,32649.680002087,00000077,-64217,-146,-527,-18,8,-1014*80646738
%RAWIMUSA,2283,32649.690;2283,32649.690002087,00000077,-64200,16,-536,-27,8,-521*5cc386de
%RAWIMUSA,2283,32649.700;2283,32649.700002087,00000077,-64220,-177,-520,9,-8,923*2259ae8e
%RAWIMUSA,2283,32649.710;2283,32649.710002087,00000077,-64206,-39,-511,18,0,877*c3fc737c
%RAWIMUSA,2283,32649.720;2283,32649.720002087,00000077,-64210,-54,-526,-9,0,-676*8bce0f4d
%RAWIMUSA,2283,32649.730;2283,32649.730002087,00000077,-64219,-170,-539,-18,8,-1024*45b0f7cc
%RAWIMUSA,2283,32649.740;2283,32649.740002087,00000077,-64204,17,-522,-8,0,374*766b992c
%RAWIMUSA,2283,32649.750;2283,32649.750002087,00000077,-64219,-158,-509,9,-8,932*8231a873
%RAWIMUSA,2283,32649.760;2283,32649.760002087,00000077,-64208,-61,-521,9,0,91*78d9427f
%RAWIMUSA,2283,32649.770;2283,32649.770002087,00000077,-64207,-30,-536,-18,8,-822*25c19f82
%RAWIMUSA,2283,32649.780;2283,32649.780002087,00000077,-64217,-176,-516,-18,0,-722*8c0c1529
%RAWIMUSA,2283,32649.790;2283,32649.790002087,00000077,-64202,14,-512,9,0,969*d746f67f
%RAWIMUSA,2283,32649.800;2283,32649.800002087,00000077,-64217,-150,-522,9,0,969*5fb7d0ac
%RAWIMUSA,2283,32649.810;2283,32649.810002087,00000077,-64210,-80,-535,-9,-9,-804*4d5f9952
%RAWIMUSA,2283,32649.820;2283,32649.820002087,00000077,-64205,-12,-521,-18,8,-832*0c1be5fc
%RAWIMUSA,2283,32649.830;2283,32649.830002087,00000077,-64218,-187,-507,-9,0,182*3684f97e
%RAWIMUSA,2283,32649.840;2283,32649.840002087,00000077,-64204,13,-528,18,0,960*851732cf
%RAWIMUSA,2283,32649.850;2283,32649.850002087,00000077,-64211,-137,-537,0,-9,274*59526fa2
%RAWIMUSA,2283,32649.860;2283,32649.860002087,00000077,-64213,-100,-518,-18,8,-1005*ad62f32d
%RAWIMUSA,2283,32649.870;2283,32649.870002087,00000077,-64206,3,-508,-18,8,-603*b4c2a75a
%RAWIMUSA,2283,32649.880;2283,32649.880002087,00000077,-64222,-186,-524,9,-8,877*a6ed0562
%RAWIMUSA,2283,32649.890;2283,32649.890002087,00000077,-64203,-1,-539,9,-8,941*09253912
%RAWIMUSA,2283,32649.900;2283,32649.900002087,00000077,-64211,-119,-521,-9,0,-621*a57f51e1
%RAWIMUSA,2283,32649.910;2283,32649.910002087,00000077,-64215,-119,-509,-18,8,-1014*90b0ea97
%RAWIMUSA,2283,32649.920;2283,32649.920002087,00000077,-64203,8,-526,0,0,301*3c88a333
%RAWIMUSA,2283,32649.930;2283,32649.930002087,00000077,-64219,-189,-533,9,-8,868*2a41ca66
%RAWIMUSA,2283,32649.940;2283,32649.940002087,00000077,-64201,-7,-521,0,0,274*206c6c36
%RAWIMUSA,2283,32649.950;2283,32649.950002087,00000077,-64215,-108,-516,-18,8,-859*ca1be7d8
%RAWIMUSA,2283,32649.960;2283,32649.960002087,00000077,-64215,-121,-524,-18,8,-822*9cd55edd
%RAWIMUSA,2283,32649.970;2283,32649.970002087,00000077,-64201,2,-532,18,-8,1033*d9abbe9b
%RAWIMUSA,2283,32649.980;2283,32649.980002087,00000077,-64219,-188,-515,9,-8,887*b02e28ef
%RAWIMUSA,2283,32649.990;2283,32649.990002087,00000077,-64203,-2,-515,-9,8,-649*ac005ade
%RAWIMUSA,2283,32650.000;2283,32650.000002087,00000077,-64209,-90,-532,-27,8,-841*e1555fdf
%RAWIMUSA,2283,32650.010;2283,32650.010002087,00000077,-64218,-144,-530,0,0,54*4ca7beb4
%RAWIMUSA,2283,32650.020;2283,32650.020002087,00000077,-64201,11,-515,18,-8,1015*f4191545
%RAWIMUSA,2283,32650.030;2283,32650.030002087,00000077,-64220,-177,-513,0,-9,283*4c6973a5
%RAWIMUSA,2283,32650.040;2283,32650.040002087,00000077,-64206,-21,-533,-18,8,-950*15069137
%RAWIMUSA,2283,32650.050;2283,32650.050002087,00000077,-64209,-81,-533,-18,8,-703*e6126ef0
%RAWIMUSA,2283,32650.060;2283,32650.060002087,00000077,-64215,-154,-516,9,-8,832*edc5e7df
%RAWIMUSA,2283,32650.070;2283,32650.070002087,00000077,-64200,20,-511,18,0,996*e8ae9634
%RAWIMUSA,2283,32650.080;2283,32650.080002087,00000077,-64221,-178,-534,-18,0,-594*f1cf9406
%RAWIMUSA,2283,32650.090;2283,32650.090002087,00000077,-64207,-43,-535,-18,8,-969*0e675ba9
%RAWIMUSA,2283,32650.100;2283,32650.100002087,00000077,-64211,-55,-516,0,0,201*962a02f9
%RAWIMUSA,2283,32650.110;2283,32650.110002087,00000077,-64215,-158,-510,9,-8,841*112c2a8a
%RAWIMUSA,2283,32650.120;2283,32650.120002087,00000077,-64199,14,-530,0,0,439*7e81d295
%RAWIMUSA,2283,32650.130;2283,32650.130002087,00000077,-64221,-170,-532,-18,8,-923*253e4e6a
%RAWIMUSA,2283,32650.140;2283,32650.140002087,00000077,-64207,-58,-516,-18,0,-905*7ab07a2f
%RAWIMUSA,2283,32650.150;2283,32650.150002087,00000077,-64206,-30,-514,18,0,1024*7be2dc55
%RAWIMUSA,2283,32650.160;2283,32650.160002087,00000077,-64216,-176,-526,9,-8,850*0f98a3df
%RAWIMUSA,2283,32650.170;2283,32650.170002087,00000077,-64203,12,-534,-18,8,-484*9be3c84e
%RAWIMUSA,2283,32650.180;2283,32650.180002087,00000077,-64217,-154,-517,-18,8,-905*335db5a8
%RAWIMUSA,2283,32650.190;2283,32650.190002087,00000077,-64207,-82,-514,0,-9,-18*44de9d2a
%RAWIMUSA,2283,32650.200;2283,32650.200002087,00000077,-64206,-21,-530,18,0,1033*769a9505
%RAWIMUSA,2283,32650.210;2283,32650.210002087,00000077,-64219,-184,-531,0,-8,338*d920b23f
%RAWIMUSA,2283,32650.220;2283,32650.220002087,00000077,-64204,10,-520,-27,8,-896*9182c1fd
%RAWIMUSA,2283,32650.230;2283,32650.230002087,00000077,-64214,-128,-513,-9,8,-859*20647be0
%RAWIMUSA,2283,32650.240;2283,32650.240002087,00000077,-64212,-97,-525,9,-8,850*4e74bd8b
%RAWIMUSA,2283,32650.250;2283,32650.250002088,00000077,-64205,-17,-533,18,-8,1042*776dad97
%RAWIMUSA,2283,32650.260;2283,32650.260002088,00000077,-64219,-179,-517,-18,8,-557*82f1fbab
%RAWIMUSA,2283,32650.270;2283,32650.270002088,00000077,-64203,15,-520,-18,8,-905*3b5babc0
%RAWIMUSA,2283,32650.280;2283,32650.280002088,00000077,-64213,-132,-528,0,-9,64*0957f3a8
%RAWIMUSA,2283,32650.290;2283,32650.290002088,00000077,-64212,-100,-529,9,-8,850*c948ce26
%RAWIMUSA,2283,32650.300;2283,32650.300002088,00000077,-64204,-5,-522,0,9,567*e1689de0
%RAWIMUSA,2283,32650.310;2283,32650.310002088,00000077,-64221,-185,-514,-18,8,-996*4cabdc05
%RAWIMUSA,2283,32650.320;2283,32650.320002088,00000077,-64201,4,-524,-18,0,-914*cf5d89f0
%RAWIMUSA,2283,32650.330;2283,32650.330002088,00000077,-64213,-114,-528,18,-8,960*c3ffb786
%RAWIMUSA,2283,32650.340;2283,32650.340002088,00000077,-64215,-109,-522,9,0,832*f033c634
%RAWIMUSA,2283,32650.350;2283,32650.350002088,00000077,-64203,-4,-517,-18,8,-329*292fa4ec
%RAWIMUSA,2283,32650.360;2283,32650.360002088,00000077,-64216,-186,-523,-18,8,-987*6eea7262
%RAWIMUSA,2283,32650.370;2283,32650.370002088,00000077,-64203,1,-527,9,-9,-27*490cd634
%RAWIMUSA,2283,32650.380;2283,32650.380002088,00000077,-64210,-103,-521,9,-8,987*6594d705
%RAWIMUSA,2283,32650.390;2283,32650.390002088,00000077,-64217,-129,-515,0,0,429*4f9c5216
%RAWIMUSA,2283,32650.400;2283,32650.400002088,00000077,-64198,4,-525,-27,8,-822*4f1242dd
%RAWIMUSA,2283,32650.410;2283,32650.410002088,00000077,-64221,-186,-523,-9,8,-960*608c449b
%RAWIMUSA,2283,32650.420;2283,32650.420002088,00000077,-64202,-18,-519,9,-8,841*27357d37
%RAWIMUSA,2283,32650.430;2283,32650.430002088,00000077,-64211,-87,-524,18,-8,1015*3c67df0d
%RAWIMUSA,2283,32650.440;2283,32650.440002088,00000077,-64217,-144,-524,-27,8,-484*687696a2
%RAWIMUSA,2283,32650.450;2283,32650.450002088,00000077,-64196,15,-522,-18,8,-841*56f9d039
%RAWIMUSA,2283,32650.460;2283,32650.460002088,00000077,-64222,-180,-529,9,-9,-118*5e34face
%RAWIMUSA,2283,32650.470;2283,32650.470002088,00000077,-64202,-27,-527,9,-8,887*aac5b0b2
%RAWIMUSA,2283,32650.480;2283,32650.480002088,00000077,-64213,-80,-518,-8,0,658*f60fd80b
%RAWIMUSA,2283,32650.490;2283,32650.490002088,00000077,-64216,-149,-516,-18,8,-1014*07e4ed29
%RAWIMUSA,2283,32650.500;2283,32650.500002088,00000077,-64204,19,-526,-9,0,-850*24f2c0c1
%RAWIMUSA,2283,32650.510;2283,32650.510002088,00000077,-64222,-178,-527,18,-8,795*21fb67f9
%RAWIMUSA,2283,32650.520;2283,32650.520002088,00000077,-64206,-43,-521,9,0,877*ebe25593
%RAWIMUSA,2283,32650.530;2283,32650.530002088,00000077,-64208,-53,-515,-27,8,-228*3d238165
%RAWIMUSA,2283,32650.540;2283,32650.540002088,00000077,-64218,-162,-525,-18,8,-1005*09103341
%RAWIMUSA,2283,32650.550;2283,32650.550002088,00000077,-64201,15,-530,9,-9,-91*abbb4a5f
%RAWIMUSA,2283,32650.560;2283,32650.560002088,00000077,-64220,-151,-517,9,-8,941*0f0b9205
%RAWIMUSA,2283,32650.570;2283,32650.570002088,00000077,-64207,-66,-517,0,0,557*8aa4c829
%RAWIMUSA,2283,32650.580;2283,32650.580002088,00000077,-64204,-34,-526,-27,8,-822*b0ce3e7e
%RAWIMUSA,2283,32650.590;2283,32650.590002088,00000077,-64219,-176,-525,0,0,-1005*1265dcec
%RAWIMUSA,2283,32650.600;2283,32650.600002088,00000077,-64205,16,-522,9,-8,777*ab8a0083
%RAWIMUSA,2283,32650.610;2283,32650.610002088,00000077,-64213,-139,-519,9,0,960*8f816777
%RAWIMUSA,2283,32650.620;2283,32650.620002088,00000077,-64209,-87,-529,-18,8,-356*2ba6e2d8
%RAWIMUSA,2283,32650.630;2283,32650.630002088,00000077,-64204,-19,-525,-18,0,-822*d414c3b0
%RAWIMUSA,2283,32650.640;2283,32650.640002088,00000077,-64220,-183,-519,9,-9,-255*a87eacf1
%RAWIMUSA,2283,32650.650;2283,32650.650002088,00000077,-64200,5,-517,9,-8,941*c4eb68be
%RAWIMUSA,2283,32650.660;2283,32650.660002088,00000077,-64215,-128,-522,-8,18,731*9f7c0ec4
%RAWIMUSA,2283,32650.670;2283,32650.670002088,00000077,-64212,-108,-533,-18,0,-1014*b7a45c83
%RAWIMUSA,2283,32650.680;2283,32650.680002088,00000077,-64203,3,-521,-9,0,-822*e453c74a
%RAWIMUSA,2283,32650.690;2283,32650.690002088,00000077,-64223,-192,-509,18,-8,649*c55d460b
%RAWIMUSA,2283,32650.700;2283,32650.700002088,00000077,-64203,-6,-522,9,9,932*4cec7957
%RAWIMUSA,2283,32650.710;2283,32650.710002088,00000077,-64210,-114,-538,-27,9,-173*f48d8559
%RAWIMUSA,2283,32650.720;2283,32650.720002088,00000077,-64216,-108,-526,-18,0,-1014*e2adc87c
%RAWIMUSA,2283,32650.730;2283,32650.730002088,00000077,-64201,4,-502,9,-9,-155*4ee93562
%RAWIMUSA,2283,32650.740;2283,32650.740002088,00000077,-64220,-189,-519,9,-8,868*0048158f
%RAWIMUSA,2283,32650.750;2283,32650.750002088,00000077,-64208,-7,-550,-8,9,722*31a9951d
%RAWIMUSA,2283,32650.760;2283,32650.760002088,00000077,-64209,-100,-528,-18,8,-859*b3335e31
%RAWIMUSA,2283,32650.770;2283,32650.770002088,00000077,-64215,-129,-500,0,-10,-1024*d9c425ae
%RAWIMUSA,2283,32650.780;2283,32650.780002088,00000077,-64201,11,-518,9,-8,749*013504ad
%RAWIMUSA,2283,32650.790;2283,32650.790002088,00000077,-64219,-184,-546,9,9,896*013a4170
%RAWIMUSA,2283,32650.800;2283,32650.800002088,00000077,-64206,-21,-529,-27,0,-210*84da2804
%RAWIMUSA,2283,32650.810;2283,32650.810002088,00000077,-64210,-77,-498,-18,8,-841*8f1f5dc5
%RAWIMUSA,2283,32650.820;2283,32650.820002088,00000077,-64214,-155,-514,9,-9,-383*544152ce
%RAWIMUSA,2283,32650.830;2283,32650.830002088,00000077,-64202,23,-544,18,-8,996*bc6c6a9b
%RAWIMUSA,2283,32650.840;2283,32650.840002088,00000077,-64217,-164,-528,-8,9,768*c341d2a0
%RAWIMUSA,2283,32650.850;2283,32650.850002088,00000077,-64205,-48,-508,-27,8,-978*46f5e43d
%RAWIMUSA,2283,32650.860;2283,32650.860002088,00000077,-64208,-56,-515,0,-9,-831*4bd5d996
%RAWIMUSA,2283,32650.870;2283,32650.870002088,00000077,-64214,-169,-542,9,-8,521*fa646883
%RAWIMUSA,2283,32650.880;2283,32650.880002088,00000077,-64203,19,-530,9,9,969*e5af0a74
%RAWIMUSA,2283,32650.890;2283,32650.890002088,00000077,-64216,-149,-507,-27,0,-109*d50a6e3c
%RAWIMUSA,2283,32650.900;2283,32650.900002088,00000077,-64204,-77,-517,-18,8,-996*3f7f8a5d
%RAWIMUSA,2283,32650.910;2283,32650.910002088,00000077,-64204,-37,-538,18,-9,-237*e02d4df2
%RAWIMUSA,2283,32650.920;2283,32650.920002088,00000077,-64217,-178,-530,9,0,841*c3726842
%RAWIMUSA,2283,32650.930;2283,32650.930002088,00000077,-64204,14,-510,-8,0,859*acf62f67
%RAWIMUSA,2283,32650.940;2283,32650.940002088,00000077,-64216,-138,-516,-27,8,-886*a7bcc332
%RAWIMUSA,2283,32650.950;2283,32650.950002088,00000077,-64212,-94,-534,0,-10,-1014*e8be25ab
%RAWIMUSA,2283,32650.960;2283,32650.960002088,00000077,-64204,0,-530,18,0,667*7df30d49
%RAWIMUSA,2283,32650.970;2283,32650.970002088,00000077,-64221,-189,-510,0,0,868*d04a45d9
%RAWIMUSA,2283,32650.980;2283,32650.980002088,00000077,-64204,1,-512,-18,9,-73*0e37ed48
%RAWIMUSA,2283,32650.990;2283,32650.990002088,00000077,-64213,-120,-537,-18,0,-859*dc8cfa65
%RAWIMUSA,2283,32651.000;2283,32651.000002088,00000077,-64217,-115,-528,18,-9,-484*f1102eee
%RAWIMUSA,2283,32651.010;2283,32651.010002088,00000077,-64200,10,-511,9,-8,1024*77b6a6a5
%RAWIMUSA,2283,32651.020;2283,32651.020002088,00000077,-64219,-187,-516,-8,9,832*a2df2e46
%RAWIMUSA,2283,32651.030;2283,32651.030002088,00000077,-64205,-15,-534,-27,8,-950*4718b793
%RAWIMUSA,2283,32651.040;2283,32651.040002088,00000077,-64209,-86,-532,0,0,-850*831e57c5
%RAWIMUSA,2283,32651.050;2283,32651.050002088,00000077,-64220,-140,-508,18,-8,420*150c7b9d
%RAWIMUSA,2283,32651.060;2283,32651.060002088,00000077,-64200,14,-514,-8,9,1015*70167cbc
%RAWIMUSA,2283,32651.070;2283,32651.070002088,00000077,-64220,-174,-534,-18,9,-45*6c3a74ff
%RAWIMUSA,2283,32651.080;2283,32651.080002088,00000077,-64209,-31,-534,-9,-9,-969*298fd62a
%RAWIMUSA,2283,32651.090;2283,32651.090002088,00000077,-64205,-72,-516,9,0,-356*323fac49
%RAWIMUSA,2283,32651.100;2283,32651.100002088,00000077,-64218,-161,-511,18,-8,841*47bda93e
%RAWIMUSA,2283,32651.110;2283,32651.110002088,00000077,-64203,21,-526,-18,9,987*a714056e
%RAWIMUSA,2283,32651.120;2283,32651.120002088,00000077,-64218,-161,-531,-27,8,-923*a70993d5
%RAWIMUSA,2283,32651.130;2283,32651.130002088,00000077,-64206,-51,-523,0,-10,-987*1e5479a5
%RAWIMUSA,2283,32651.140;2283,32651.140002088,00000077,-64210,-51,-516,18,-8,567*611e19d5
%RAWIMUSA,2283,32651.150;2283,32651.150002088,00000077,-64219,-175,-520,0,9,850*645b8373
%RAWIMUSA,2283,32651.160;2283,32651.160002088,00000077,-64202,18,-533,-18,9,64*cf5cdc4e
%RAWIMUSA,2283,32651.170;2283,32651.170002088,00000077,-64218,-151,-524,-18,0,-905*c833b01f
%RAWIMUSA,2283,32651.180;2283,32651.180002088,00000077,-64208,-77,-517,18,-9,-566*d7026512
%RAWIMUSA,2283,32651.190;2283,32651.190002088,00000077,-64207,-23,-522,9,0,1033*264d9622
%RAWIMUSA,2283,32651.200;2283,32651.200002088,00000077,-64216,-184,-529,-18,9,859*fe4a090b
%RAWIMUSA,2283,32651.210;2283,32651.210002088,00000077,-64204,15,-528,-18,0,-850*126152e1
%RAWIMUSA,2283,32651.220;2283,32651.220002088,00000077,-64211,-136,-518,9,-9,-877*2002efe8
%RAWIMUSA,2283,32651.230;2283,32651.230002088,00000077,-64209,-101,-518,9,-9,320*a245bfbd
%RAWIMUSA,2283,32651.240;2283,32651.240002088,00000077,-64202,2,-527,0,19,1033*164cca08
%RAWIMUSA,2283,32651.250;2283,32651.250002088,00000077,-64219,-186,-523,-18,0,9*0bacd7b7
%RAWIMUSA,2283,32651.260;2283,32651.260002088,00000077,-64204,-6,-520,-9,0,-923*7c8c82bb
%RAWIMUSA,2283,32651.270;2283,32651.270002088,00000077,-64211,-114,-524,9,-9,-484*8c1463f4
%RAWIMUSA,2283,32651.280;2283,32651.280002088,00000077,-64217,-116,-526,18,0,832*9387d2b5
%RAWIMUSA,2283,32651.290;2283,32651.290002088,00000077,-64203,11,-521,-27,9,1015*b45bd5d9
%RAWIMUSA,2283,32651.300;2283,32651.300002088,00000077,-64219,-188,-517,-18,0,-886*16e04b02
%RAWIMUSA,2283,32651.310;2283,32651.310002088,00000077,-64204,-11,-523,0,0,-923*2fb9d253
%RAWIMUSA,2283,32651.320;2283,32651.320002088,00000077,-64212,-99,-527,18,-8,420*aa33c3b1
%RAWIMUSA,2283,32651.330;2283,32651.330002088,00000077,-64216,-121,-523,0,9,832*b416d72c
%RAWIMUSA,2283,32651.340;2283,32651.340002088,00000077,-64199,2,-521,-27,9,219*14361dd7
%RAWIMUSA,2283,32651.350;2283,32651.350002088,00000077,-64219,-186,-524,-9,-9,-950*15ec40de
%RAWIMUSA,2283,32651.360;2283,32651.360002088,00000077,-64202,-7,-527,18,-9,-603*66a20c7e
%RAWIMUSA,2283,32651.370;2283,32651.370002088,00000077,-64209,-95,-522,9,0,996*3d1dc7aa
%RAWIMUSA,2283,32651.380;2283,32651.380002088,00000077,-64217,-150,-521,-18,9,832*c3a3bad3
%RAWIMUSA,2283,32651.390;2283,32651.390002088,00000077,-64198,13,-520,-18,0,-694*6fbad998
%RAWIMUSA,2283,32651.400;2283,32651.400002088,00000077,-64221,-174,-522,9,-10,-950*8dc15526
%RAWIMUSA,2283,32651.410;2283,32651.410002088,00000077,-64206,-21,-528,9,0,283*36b64655
%RAWIMUSA,2283,32651.420;2283,32651.420002088,00000077,-64209,-88,-525,-8,9,1005*c581ffc5
%RAWIMUSA,2283,32651.430;2283,32651.430002088,00000077,-64216,-155,-519,-18,9,82*6f719721
%RAWIMUSA,2283,32651.440;2283,32651.440002088,00000077,-64199,22,-522,-9,-9,-841*c1a06b2d
%RAWIMUSA,2283,32651.450;2283,32651.450002088,00000077,-64223,-175,-527,18,-9,-658*07112011
%RAWIMUSA,2283,32651.460;2283,32651.460002088,00000077,-64208,-43,-525,9,9,877*382c1e24
%RAWIMUSA,2283,32651.470;2283,32651.470002088,00000077,-64210,-50,-519,-18,9,1015*5e89a9f6
%RAWIMUSA,2283,32651.480;2283,32651.480002088,00000077,-64218,-159,-525,-27,0,-813*97e0a34a
%RAWIMUSA,2283,32651.490;2283,32651.490002088,00000077,-64201,12,-527,9,-9,-859*ad31d95a
%RAWIMUSA,2283,32651.500;2283,32651.500002088,00000077,-64216,-165,-519,9,-9,265*67dbcd07
%RAWIMUSA,2283,32651.510;2283,32651.510002088,00000077,-64210,-55,-517,0,9,868*7cd68ea3
%RAWIMUSA,2283,32651.520;2283,32651.520002088,00000077,-64207,-37,-525,-27,9,320*49160221
%RAWIMUSA,2283,32651.530;2283,32651.530002088,00000077,-64218,-167,-529,0,-10,-1005*fc1726a8
%RAWIMUSA,2283,32651.540;2283,32651.540002088,00000077,-64203,5,-524,9,0,-649*37d23db1
%RAWIMUSA,2283,32651.550;2283,32651.550002088,00000077,-64214,-152,-515,9,0,951*e6856ef2
%RAWIMUSA,2283,32651.560;2283,32651.560002088,00000077,-64209,-64,-523,-18,9,859*10618853
%RAWIMUSA,2283,32651.570;2283,32651.570002088,00000077,-64206,-33,-530,-18,0,-575*1b9bda6a
%RAWIMUSA,2283,32651.580;2283,32651.580002088,00000077,-64219,-170,-519,9,-10,-1005*40af938a
%RAWIMUSA,2283,32651.590;2283,32651.590002088,00000077,-64203,14,-520,18,0,237*b688a0c7
%RAWIMUSA,2283,32651.600;2283,32651.600002088,00000077,-64216,-148,-524,-8,9,951*35ec1dfe
%RAWIMUSA,2283,32651.610;2283,32651.610002088,00000077,-64210,-79,-526,-27,0,192*2d5fd3bc
%RAWIMUSA,2283,32651.620;2283,32651.620002088,00000077,-64206,-26,-521,-9,0,-822*ce8ab15a
%RAWIMUSA,2283,32651.630;2283,32651.630002088,00000077,-64217,-177,-514,18,-9,-822*3ed28b95
%RAWIMUSA,2283,32651.640;2283,32651.640002088,00000077,-64202,15,-529,9,9,960*07495f51
%RAWIMUSA,2283,32651.650;2283,32651.650002088,00000077,-64214,-147,-532,-18,0,960*ab1bac0c
%RAWIMUSA,2283,32651.660;2283,32651.660002088,00000077,-64211,-93,-518,-27,0,-694*e2446536
%RAWIMUSA,2283,32651.670;2283,32651.670002088,00000077,-64208,-13,-517,9,-9,-813*43386dcf
%RAWIMUSA,2283,32651.680;2283,32651.680002088,00000077,-64218,-179,-526,18,0,82*f9880b43
%RAWIMUSA,2283,32651.690;2283,32651.690002088,00000077,-64203,5,-531,-8,9,951*a200df2d
%RAWIMUSA,2283,32651.700;2283,32651.700002088,00000077,-64211,-124,-525,-27,9,374*80ac7f97
%RAWIMUSA,2283,32651.710;2283,32651.710002088,00000077,-64211,-100,-515,0,-10,-1005*9c496f3e
%RAWIMUSA,2283,32651.720;2283,32651.720002088,00000077,-64202,-5,-522,9,-9,-703*5d0af17e
%RAWIMUSA,2283,32651.730;2283,32651.730002088,00000077,-64219,-193,-528,9,9,868*752f0044
%RAWIMUSA,2283,32651.740;2283,32651.740002088,00000077,-64204,8,-523,-18,9,932*600072cc
%RAWIMUSA,2283,32651.750;2283,32651.750002088,00000077,-64211,-108,-520,-27,0,-511*c942b4a1
%RAWIMUSA,2283,32651.760;2283,32651.760002088,00000077,-64220,-132,-521,18,-10,-1005*661a9b3d
%RAWIMUSA,2283,32651.770;2283,32651.770002088,00000077,-64200,10,-521,9,0,192*3fa1ab07
%RAWIMUSA,2283,32651.780;2283,32651.780002088,00000077,-64218,-185,-526,-8,9,905*2414e1ef
%RAWIMUSA,2283,32651.790;2283,32651.790002088,00000077,-64201,-11,-525,-18,0,347*0963fa57
%RAWIMUSA,2283,32651.800;2283,32651.800002088,00000077,-64210,-81,-523,-9,0,-831*ffeacea7
%RAWIMUSA,2283,32651.810;2283,32651.810002088,00000077,-64220,-154,-520,18,-10,-950*13f1c100
%RAWIMUSA,2283,32651.820;2283,32651.820002088,00000077,-64200,25,-521,0,9,1005*14bd6133
%RAWIMUSA,2283,32651.830;2283,32651.830002088,00000077,-64221,-173,-526,-18,9,914*f6a1ff52
%RAWIMUSA,2283,32651.840;2283,32651.840002088,00000077,-64204,-48,-525,-18,-9,-566*0fd688b7
%RAWIMUSA,2283,32651.850;2283,32651.850002088,00000077,-64210,-50,-522,9,0,-831*3b22a9c4
%RAWIMUSA,2283,32651.860;2283,32651.860002088,00000077,-64215,-164,-518,18,0,-27*4aa65e77
%RAWIMUSA,2283,32651.870;2283,32651.870002088,00000077,-64200,18,-528,-8,9,978*bb624761
%RAWIMUSA,2283,32651.880;2283,32651.880002088,00000077,-64219,-166,-525,-27,9,438*76b7412e
%RAWIMUSA,2283,32651.890;2283,32651.890002088,00000077,-64208,-70,-523,0,-19,-987*0d168539
%RAWIMUSA,2283,32651.900;2283,32651.900002088,00000077,-64207,-30,-524,9,0,-786*03a1f436
%RAWIMUSA,2283,32651.910;2283,32651.910002088,00000077,-64219,-178,-522,9,9,841*e3aa0401
%RAWIMUSA,2283,32651.920;2283,32651.920002088,00000077,-64205,16,-525,-18,9,960*72cd453f
%RAWIMUSA,2283,32651.930;2283,32651.930002088,00000077,-64216,-141,-518,-18,-9,-438*da633ea6
%RAWIMUSA,2283,32651.940;2283,32651.940002088,00000077,-64210,-83,-519,9,-10,-1005*4776dd55
%RAWIMUSA,2283,32651.950;2283,32651.950002088,00000077,-64205,-21,-526,18,9,109*2e099bd6
%RAWIMUSA,2283,32651.960;2283,32651.960002088,00000077,-64218,-184,-520,-18,0,850*352cbb1f
%RAWIMUSA,2283,32651.970;2283,32651.970002088,00000077,-64203,17,-523,-27,0,503*281f09bc
%RAWIMUSA,2283,32651.980;2283,32651.980002088,00000077,-64213,-127,-521,0,0,-877*3e1ebbaf
%RAWIMUSA,2283,32651.990;2283,32651.990002088,00000077,-64213,-104,-525,18,-10,-996*943ddbf0
%RAWIMUSA,2283,32652.000;2283,32652.000002088,00000077,-64206,0,-525,0,9,1005*8f7955da
%RAWIMUSA,2283,32652.010;2283,32652.010002088,00000077,-64219,-187,-519,-18,9,868*9b1ac819
%RAWIMUSA,2283,32652.020;2283,32652.020002088,00000077,-64202,7,-522,-18,-9,-438*4f9c60e1
%RAWIMUSA,2283,32652.030;2283,32652.030002088,00000077,-64214,-109,-525,9,-9,-859*32eccf6a
%RAWIMUSA,2283,32652.040;2283,32652.040002088,00000077,-64213,-125,-519,18,9,-127*04aaea80
%RAWIMUSA,2283,32652.050;2283,32652.050002088,00000077,-64200,7,-522,-18,9,1015*bfe2ae30
%RAWIMUSA,2283,32652.060;2283,32652.060002088,00000077,-64221,-182,-526,-18,0,484*99dddb07
%RAWIMUSA,2283,32652.070;2283,32652.070002088,00000077,-64202,-16,-529,0,-9,-932*f5e897b6
%RAWIMUSA,2283,32652.080;2283,32652.080002088,00000077,-64211,-93,-519,18,0,-841*d8bde066
%RAWIMUSA,2283,32652.090;2283,32652.090002088,00000077,-64217,-133,-520,-8,9,759*4b7fbf86
%RAWIMUSA,2283,32652.100;2283,32652.100002088,00000077,-64198,17,-528,-18,0,1005*418fa519
%RAWIMUSA,2283,32652.110;2283,32652.110002088,00000077,-64219,-190,-526,-18,-9,-411*f06bdd82
%RAWIMUSA,2283,32652.120;2283,32652.120002088,00000077,-64204,-31,-521,18,-10,-960*76ecdd86
%RAWIMUSA,2283,32652.130;2283,32652.130002088,00000077,-64210,-66,-521,9,9,-9*03478ce1
%RAWIMUSA,2283,32652.140;2283,32652.140002088,00000077,-64215,-152,-525,-18,9,850*60444b4b
%RAWIMUSA,2283,32652.150;2283,32652.150002088,00000077,-64202,10,-529,-18,-8,640*8caaec1f
%RAWIMUSA,2283,32652.160;2283,32652.160002088,00000077,-64221,-174,-516,9,-9,-923*1385115f
%RAWIMUSA,2283,32652.170;2283,32652.170002088,00000077,-64204,-44,-517,9,0,-969*ee76a2af
%RAWIMUSA,2283,32652.180;2283,32652.180002088,00000077,-64211,-45,-533,0,9,896*6966c4cf
%RAWIMUSA,2283,32652.190;2283,32652.190002088,00000077,-64218,-177,-526,-27,9,841*0afeb3d0
%RAWIMUSA,2283,32652.200;2283,32652.200002088,00000077,-64202,20,-516,-9,-9,-274*2dd5276e
%RAWIMUSA,2283,32652.210;2283,32652.210002088,00000077,-64218,-147,-519,9,-9,-905*0aa9b70d
%RAWIMUSA,2283,32652.220;2283,32652.220002088,00000077,-64211,-67,-528,18,8,-210*646c13da
%RAWIMUSA,2283,32652.230;2283,32652.230002088,00000077,-64205,-41,-527,-27,9,1042*3be8dc56
%RAWIMUSA,2283,32652.240;2283,32652.240002088,00000077,-64218,-179,-515,-18,-8,539*be490ffc
%RAWIMUSA,2283,32652.250;2283,32652.250002088,00000077,-64203,26,-518,9,-9,-868*36458682
%RAWIMUSA,2283,32652.260;2283,32652.260002088,00000077,-64216,-137,-527,9,0,-896*b7678b7f
%RAWIMUSA,2283,32652.270;2283,32652.270002088,00000077,-64211,-92,-528,0,9,676*7c25948e
%RAWIMUSA,2283,32652.280;2283,32652.280002088,00000077,-64204,-26,-521,-27,9,1033*eeb93c59
%RAWIMUSA,2283,32652.290;2283,32652.290002088,00000077,-64221,-173,-515,-9,-9,-338*9c4966bf
%RAWIMUSA,2283,32652.300;2283,32652.300002088,00000077,-64203,8,-525,18,-9,-914*2730ff7c
%RAWIMUSA,2283,32652.310;2283,32652.310002088,00000077,-64212,-131,-526,9,8,-155*80c6ab35
%RAWIMUSA,2283,32652.320;2283,32652.320002088,00000077,-64214,-98,-522,-18,9,841*ef739eb1
%RAWIMUSA,2283,32652.330;2283,32652.330002088,00000077,-64201,-6,-521,-18,-8,777*aed88530
%RAWIMUSA,2283,32652.340;2283,32652.340002088,00000077,-64220,-191,-525,0,-10,-987*1353d041
%RAWIMUSA,2283,32652.350;2283,32652.350002088,00000077,-64204,0,-524,18,8,-914*145c8716
%RAWIMUSA,2283,32652.360;2283,32652.360002088,00000077,-64216,-116,-520,-8,9,759*101a7cc5
%RAWIMUSA,2283,32652.370;2283,32652.370002088,00000077,-64214,-107,-526,-18,-8,850*af6147a8
%RAWIMUSA,2283,32652.380;2283,32652.380002088,00000077,-64201,-5,-523,-9,0,-146*83519147
%RAWIMUSA,2283,32652.390;2283,32652.390002088,00000077,-64219,-183,-521,9,-10,-978*f36a9d65
%RAWIMUSA,2283,32652.400;2283,32652.400002088,00000077,-64205,-11,-521,18,8,-246*628178bc
%RAWIMUSA,2283,32652.410;2283,32652.410002088,00000077,-64212,-105,-523,-27,9,996*563512bd
%RAWIMUSA,2283,32652.420;2283,32652.420002088,00000077,-64217,-115,-522,-18,0,631*4292e8c1
%RAWIMUSA,2283,32652.430;2283,32652.430002088,00000077,-64202,2,-526,9,-9,-831*62f6b210
%RAWIMUSA,2283,32652.440;2283,32652.440002088,00000077,-64219,-188,-520,18,8,-969*cad564ad
%RAWIMUSA,2283,32652.450;2283,32652.450002088,00000077,-64205,-7,-521,-8,0,658*30b1d52d
%RAWIMUSA,2283,32652.460;2283,32652.460002088,00000077,-64211,-100,-522,-18,0,987*9e7a309c
%RAWIMUSA,2283,32652.470;2283,32652.470002088,00000077,-64218,-114,-522,-9,-9,-265*fd46a7bb
%RAWIMUSA,2283,32652.480;2283,32652.480002088,00000077,-64199,-8,-524,9,0,-831*9c799e53
%RAWIMUSA,2283,32652.490;2283,32652.490002088,00000077,-64223,-182,-523,9,8,-338*65b5eabd
%RAWIMUSA,2283,32652.500;2283,32652.500002088,00000077,-64202,0,-524,-18,0,905*811e0c2e
%RAWIMUSA,2283,32652.510;2283,32652.510002088,00000077,-64211,-95,-517,-18,0,859*97fe29d4
%RAWIMUSA,2283,32652.520;2283,32652.520002088,00000077,-64218,-148,-520,9,-10,-1014*eeab60ad
%RAWIMUSA,2283,32652.530;2283,32652.530002088,00000077,-64199,15,-530,18,8,-841*8317e815
%RAWIMUSA,2283,32652.540;2283,32652.540002088,00000077,-64220,-172,-526,-8,0,576*dc49afc4
%RAWIMUSA,2283,32652.550;2283,32652.550002088,00000077,-64203,-18,-520,-18,0,905*3145218b
%RAWIMUSA,2283,32652.560;2283,32652.560002088,00000077,-64210,-91,-518,-9,-9,-45*18064a86
%RAWIMUSA,2283,32652.570;2283,32652.570002088,00000077,-64214,-149,-525,9,0,-1024*cd793755
%RAWIMUSA,2283,32652.580;2283,32652.580002088,00000077,-64201,26,-530,9,8,-274*fb48be99
%RAWIMUSA,2283,32652.590;2283,32652.590002088,00000077,-64219,-177,-518,-27,9,914*c2743e08
%RAWIMUSA,2283,32652.600;2283,32652.600002088,00000077,-64205,-43,-518,-18,-8,795*fa3d4959
%RAWIMUSA,2283,32652.610;2283,32652.610002088,00000077,-64209,-50,-524,9,-9,-831*642c1e6f
%RAWIMUSA,2283,32652.620;2283,32652.620002088,00000077,-64215,-169,-527,18,8,-1014*27edd807
%RAWIMUSA,2283,32652.630;2283,32652.630002088,00000077,-64202,12,-524,-8,9,603*5a4aa2ce
%RAWIMUSA,2283,32652.640;2283,32652.640002088,00000077,-64220,-167,-515,-27,-8,941*7fa7cdfe
%RAWIMUSA,2283,32652.650;2283,32652.650002088,00000077,-64209,-53,-521,0,0,-137*7a226cc1
%RAWIMUSA,2283,32652.660;2283,32652.660002088,00000077,-64203,-29,-530,9,0,-822*dba65e9d
%RAWIMUSA,2283,32652.670;2283,32652.670002088,00000077,-64221,-184,-524,9,8,-475*b45a5b90
%RAWIMUSA,2283,32652.680;2283,32652.680002088,00000077,-64201,7,-519,-18,9,978*c69fc1ae
%RAWIMUSA,2283,32652.690;2283,32652.690002088,00000077,-64216,-136,-521,-27,-8,896*67c6d39b
%RAWIMUSA,2283,32652.700;2283,32652.700002088,00000077,-64211,-80,-530,18,-10,-996*1340d638
%RAWIMUSA,2283,32652.710;2283,32652.710002088,00000077,-64203,-18,-524,9,8,-822*f86d980c
%RAWIMUSA,2283,32652.720;2283,32652.720002088,00000077,-64221,-190,-515,-8,9,420*710b3bda
%RAWIMUSA,2283,32652.730;2283,32652.730002088,00000077,-64202,15,-523,-18,-8,951*8ba03243
%RAWIMUSA,2283,32652.740;2283,32652.740002088,00000077,-64213,-127,-527,-9,0,27*acb6b36c
%RAWIMUSA,2283,32652.750;2283,32652.750002088,00000077,-64213,-106,-523,18,0,-1005*04bad9bc
%RAWIMUSA,2283,32652.760;2283,32652.760002088,00000077,-64204,-4,-521,0,8,-347*640758c6
%RAWIMUSA,2283,32652.770;2283,32652.770002088,00000077,-64219,-177,-519,-18,0,859*992207cb
%RAWIMUSA,2283,32652.780;2283,32652.780002088,00000077,-64200,2,-526,-27,-8,941*add6ed1a
%RAWIMUSA,2283,32652.790;2283,32652.790002088,00000077,-64213,-129,-521,18,0,-859*c86c86b7
%RAWIMUSA,2283,32652.800;2283,32652.800002088,00000077,-64216,-115,-521,18,0,-1014*78c6f3fb
%RAWIMUSA,2283,32652.810;2283,32652.810002088,00000077,-64202,24,-524,-18,18,548*f187ddbf
%RAWIMUSA,2283,32652.820;2283,32652.820002088,00000077,-64218,-192,-525,-18,-8,877*9cebd602
%RAWIMUSA,2283,32652.830;2283,32652.830002088,00000077,-64204,-17,-525,0,-9,18*a3de07dc
%RAWIMUSA,2283,32652.840;2283,32652.840002088,00000077,-64211,-95,-517,9,8,-841*a6e140ff
%RAWIMUSA,2283,32652.850;2283,32652.850002088,00000077,-64219,-139,-519,9,0,-603*ec914190
%RAWIMUSA,2283,32652.860;2283,32652.860002088,00000077,-64199,12,-531,-18,9,1024*eb6b5ea3
%RAWIMUSA,2283,32652.870;2283,32652.870002088,00000077,-64222,-185,-525,-18,-8,905*05726c47
%RAWIMUSA,2283,32652.880;2283,32652.880002088,00000077,-64205,-19,-515,9,0,-896*98770e32
%RAWIMUSA,2283,32652.890;2283,32652.890002088,00000077,-64213,-80,-520,18,0,-841*cba81a1d
%RAWIMUSA,2283,32652.900;2283,32652.900002088,00000077,-64219,-146,-532,-18,9,292*d344f9cf
%RAWIMUSA,2283,32652.910;2283,32652.910002088,00000077,-64202,6,-524,-18,-8,996*ba35ba11
%RAWIMUSA,2283,32652.920;2283,32652.920002088,00000077,-64221,-174,-517,0,-9,64*5ab16328
%RAWIMUSA,2283,32652.930;2283,32652.930002088,00000077,-64206,-23,-525,18,8,-960*8b813038
%RAWIMUSA,2283,32652.940;2283,32652.940002088,00000077,-64209,-67,-526,0,8,-466*2db851ae
%RAWIMUSA,2283,32652.950;2283,32652.950002088,00000077,-64217,-164,-517,-18,0,841*77de77c8
%RAWIMUSA,2283,32652.960;2283,32652.960002088,00000077,-64203,20,-520,-18,-8,987*c7a040db
%RAWIMUSA,2283,32652.970;2283,32652.970002088,00000077,-64217,-169,-526,9,0,-822*f0bb5a30
%RAWIMUSA,2283,32652.980;2283,32652.980002088,00000077,-64205,-50,-530,9,0,-996*8867b400
%RAWIMUSA,2283,32652.990;2283,32652.990002088,00000077,-64206,-48,-520,-18,9,448*08d36d35
%RAWIMUSA,2283,32653.000;2283,32653.000002088,00000077,-64219,-168,-516,-8,-8,841*6a22f630
%RAWIMUSA,2283,32653.010;2283,32653.010002088,00000077,-64201,17,-527,0,0,182*05947cbd
%RAWIMUSA,2283,32653.020;2283,32653.020002088,00000077,-64218,-157,-527,9,0,-905*07986112
%RAWIMUSA,2283,32653.030;2283,32653.030002088,00000077,-64209,-68,-522,0,8,-658*2fe6a13c
%RAWIMUSA,2283,32653.040;2283,32653.040002088,00000077,-64203,-25,-517,-18,0,1024*6b54432d
%RAWIMUSA,2283,32653.050;2283,32653.050002088,00000077,-64218,-180,-522,-18,-8,850*c7c2abe2
%RAWIMUSA,2283,32653.060;2283,32653.060002088,00000077,-64203,15,-530,18,0,-740*8c27d5da
%RAWIMUSA,2283,32653.070;2283,32653.070002088,00000077,-64216,-142,-524,9,8,-886*ee7e914c
%RAWIMUSA,2283,32653.080;2283,32653.080002088,00000077,-64210,-91,-516,-18,0,219*7a2fe81d
%RAWIMUSA,2283,32653.090;2283,32653.090002088,00000077,-64207,-14,-525,-18,0,1033*21342cc1
%RAWIMUSA,2283,32653.100;2283,32653.100002088,00000077,-64218,-179,-524,0,-9,100*1073f88a
%RAWIMUSA,2283,32653.110;2283,32653.110002088,00000077,-64199,8,-525,18,8,-914*af5b4ff9
%RAWIMUSA,2283,32653.120;2283,32653.120002088,00000077,-64212,-133,-519,-9,8,-594*99bf4fb7
%RAWIMUSA,2283,32653.130;2283,32653.130002088,00000077,-64213,-116,-523,-18,-8,841*439fc498
%RAWIMUSA,2283,32653.140;2283,32653.140002088,00000077,-64202,11,-526,-18,0,1015*f78344d4
%RAWIMUSA,2283,32653.150;2283,32653.150002088,00000077,-64219,-192,-521,9,-9,-767*304e62df
%RAWIMUSA,2283,32653.160;2283,32653.160002088,00000077,-64204,-5,-521,18,8,-941*82655a8b
%RAWIMUSA,2283,32653.170;2283,32653.170002088,00000077,-64209,-96,-525,-18,9,329*25de89bd
%RAWIMUSA,2283,32653.180;2283,32653.180002088,00000077,-64217,-144,-522,-18,-8,832*2514fc75
%RAWIMUSA,2283,32653.190;2283,32653.190002088,00000077,-64200,19,-523,0,-9,310*72c60be6
%RAWIMUSA,2283,32653.200;2283,32653.200002088,00000077,-64219,-187,-520,18,8,-960*988c70e0
%RAWIMUSA,2283,32653.210;2283,32653.210002088,00000077,-64205,-25,-520,-9,8,-740*12abc2b5
%RAWIMUSA,2283,32653.220;2283,32653.220002088,00000077,-64210,-59,-528,-18,0,1033*b9d756cb
%RAWIMUSA,2283,32653.230;2283,32653.230002088,00000077,-64215,-165,-522,-8,-17,823*a247e9c6
%RAWIMUSA,2283,32653.240;2283,32653.240002088,00000077,-64201,14,-514,9,8,-603*85eb9ab0
%RAWIMUSA,2283,32653.250;2283,32653.250002088,00000077,-64217,-165,-521,18,8,-914*91e0e125
%RAWIMUSA,2283,32653.260;2283,32653.260002088,00000077,-64206,-52,-536,-18,0,155*9a34240a
%RAWIMUSA,2283,32653.270;2283,32653.270002088,00000077,-64207,-35,-521,-18,-8,1033*e0230d1f
%RAWIMUSA,2283,32653.280;2283,32653.280002088,00000077,-64218,-181,-511,0,0,192*78dd70fb
%RAWIMUSA,2283,32653.290;2283,32653.290002088,00000077,-64203,18,-522,18,8,-886*a903b537
%RAWIMUSA,2283,32653.300;2283,32653.300002088,00000077,-64215,-140,-532,-9,8,-703*2e79d4a9
%RAWIMUSA,2283,32653.310;2283,32653.310002088,00000077,-64209,-97,-531,-18,-8,841*82db330b
%RAWIMUSA,2283,32653.320;2283,32653.320002088,00000077,-64205,-6,-510,-18,-8,1042*caa18d50
%RAWIMUSA,2283,32653.330;2283,32653.330002088,00000077,-64216,-189,-510,18,0,-685*268a27b2
%RAWIMUSA,2283,32653.340;2283,32653.340002088,00000077,-64205,8,-541,9,8,-923*78c1815d
%RAWIMUSA,2283,32653.350;2283,32653.350002088,00000077,-64213,-124,-531,-18,0,219*9dbc65c8
%RAWIMUSA,2283,32653.360;2283,32653.360002088,00000077,-64216,-134,-508,-18,-8,841*db1b4f8f
%RAWIMUSA,2283,32653.370;2283,32653.370002088,00000077,-64204,22,-513,9,0,420*090b381f
%RAWIMUSA,2283,32653.380;2283,32653.380002088,00000077,-64219,-188,-534,9,8,-969*1699a9b6
%RAWIMUSA,2283,32653.390;2283,32653.390002088,00000077,-64204,-17,-528,0,0,-822*9d204de6
%RAWIMUSA,2283,32653.400;2283,32653.400002088,00000077,-64210,-82,-513,-27,0,1015*227207c9
%RAWIMUSA,2283,32653.410;2283,32653.410002088,00000077,-64214,-148,-517,-8,-8,832*3c0a50c7
%RAWIMUSA,2283,32653.420;2283,32653.420002088,00000077,-64203,17,-538,9,0,-493*9e12d506
%RAWIMUSA,2283,32653.430;2283,32653.430002088,00000077,-64222,-177,-524,18,8,-932*737a1575
%RAWIMUSA,2283,32653.440;2283,32653.440002088,00000077,-64206,-37,-513,-27,0,54*02bcf8a1
%RAWIMUSA,2283,32653.450;2283,32653.450002088,00000077,-64208,-53,-521,-18,0,1033*9b29b8c6
%RAWIMUSA,2283,32653.460;2283,32653.460002088,00000077,-64218,-161,-533,9,-9,301*80734418
%RAWIMUSA,2283,32653.470;2283,32653.470002088,00000077,-64200,11,-525,18,8,-850*6166b8e2
%RAWIMUSA,2283,32653.480;2283,32653.480002088,00000077,-64219,-164,-512,-9,0,-850*452e6b47
%RAWIMUSA,2283,32653.490;2283,32653.490002088,00000077,-64210,-52,-521,-18,-8,868*e2ebdb55
%RAWIMUSA,2283,32653.500;2283,32653.500002088,00000077,-64208,-41,-531,-8,-8,1024*18188889
%RAWIMUSA,2283,32653.510;2283,32653.510002088,00000077,-64215,-165,-522,9,8,-603*5b3a0fdb
%RAWIMUSA,2283,32653.520;2283,32653.520002088,00000077,-64200,11,-519,9,17,-877*3b5f22ef
%RAWIMUSA,2283,32653.530;2283,32653.530002088,00000077,-64214,-156,-522,-18,0,64*984541d8
%RAWIMUSA,2283,32653.540;2283,32653.540002088,00000077,-64211,-75,-530,-18,-8,868*943657ef
%RAWIMUSA,2283,32653.550;2283,32653.550002088,00000077,-64209,-21,-525,0,0,530*841ff2bb
%RAWIMUSA,2283,32653.560;2283,32653.560002088,00000077,-64220,-182,-514,18,0,-996*b1eaed98
%RAWIMUSA,2283,32653.570;2283,32653.570002088,00000077,-64203,11,-521,-9,0,-877*b9627016
%RAWIMUSA,2283,32653.580;2283,32653.580002088,00000077,-64212,-137,-530,-18,0,978*0f55c5d8
%RAWIMUSA,2283,32653.590;2283,32653.590002088,00000077,-64212,-106,-526,-8,0,841*f1a992aa
%RAWIMUSA,2283,32653.600;2283,32653.600002088,00000077,-64202,0,-516,9,8,-365*492c6efe
%RAWIMUSA,2283,32653.610;2283,32653.610002088,00000077,-64220,-184,-521,9,0,-987*94f70693
%RAWIMUSA,2283,32653.620;2283,32653.620002088,00000077,-64205,0,-529,-18,-9,-9*daf03e9e
%RAWIMUSA,2283,32653.630;2283,32653.630002088,00000077,-64215,-107,-519,-27,-8,996*cadce9e1
%RAWIMUSA,2283,32653.640;2283,32653.640002088,00000077,-64217,-129,-517,18,0,393*9246ecad
%RAWIMUSA,2283,32653.650;2283,32653.650002088,00000077,-64202,14,-527,9,8,-841*e318c06f
%RAWIMUSA,2283,32653.660;2283,32653.660002088,00000077,-64217,-183,-528,-9,0,-950*4adfa7a1
%RAWIMUSA,2283,32653.670;2283,32653.670002088,00000077,-64201,-18,-527,-18,0,877*ae3cbd91
%RAWIMUSA,2283,32653.680;2283,32653.680002088,00000077,-64208,-80,-517,-8,0,1015*35dcbf9a
%RAWIMUSA,2283,32653.690;2283,32653.690002088,00000077,-64220,-137,-521,18,0,-521*d24b548c
%RAWIMUSA,2283,32653.700;2283,32653.700002088,00000077,-64205,8,-527,9,8,-841*1c9b1901
%RAWIMUSA,2283,32653.710;2283,32653.710002088,00000077,-64224,-179,-522,-27,-18,-73*6f3694d0
%RAWIMUSA,2283,32653.720;2283,32653.720002088,00000077,-64207,-29,-519,-18,0,896*62622fe4
%RAWIMUSA,2283,32653.730;2283,32653.730002088,00000077,-64205,-64,-523,9,9,612*5b1ec9c2
%RAWIMUSA,2283,32653.740;2283,32653.740002088,00000077,-64216,-153,-528,18,8,-1014*7741686a
%RAWIMUSA,2283,32653.750;2283,32653.750002088,00000077,-64200,7,-521,-9,0,-850*532e31e3
%RAWIMUSA,2283,32653.760;2283,32653.760002088,00000077,-64219,-167,-522,-27,-8,841*d234445f
%RAWIMUSA,2283,32653.770;2283,32653.770002088,00000077,-64208,-42,-528,0,-8,877*73a9c03d
%RAWIMUSA,2283,32653.780;2283,32653.780002088,00000077,-64210,-60,-520,9,0,-274*6c0cb07e
%RAWIMUSA,2283,32653.790;2283,32653.790002088,00000077,-64218,-155,-517,9,8,-996*f9f3a85c
%RAWIMUSA,2283,32653.800;2283,32653.800002088,00000077,-64199,16,-526,-18,0,-45*ab2fbc25
%RAWIMUSA,2283,32653.810;2283,32653.810002088,00000077,-64216,-168,-532,-27,0,923*73dd730f
%RAWIMUSA,2283,32653.820;2283,32653.820002088,00000077,-64202,-53,-522,18,0,530*250ec113
%RAWIMUSA,2283,32653.830;2283,32653.830002088,00000077,-64208,-59,-513,9,8,-822*caf5c1f9
%RAWIMUSA,2283,32653.840;2283,32653.840002088,00000077,-64218,-154,-522,-9,-10,-1014*286c3221
%RAWIMUSA,2283,32653.850;2283,32653.850002088,00000077,-64203,18,-530,-27,-8,859*f2c4fc31
%RAWIMUSA,2283,32653.860;2283,32653.860002088,00000077,-64220,-170,-522,0,0,923*c54258c5
%RAWIMUSA,2283,32653.870;2283,32653.870002088,00000077,-64204,-56,-518,18,8,-365*ac4007d8
%RAWIMUSA,2283,32653.880;2283,32653.880002088,00000077,-64207,-53,-521,0,17,-822*d4628526
%RAWIMUSA,2283,32653.890;2283,32653.890002088,00000077,-64218,-152,-534,-18,-9,-255*96517e3e
%RAWIMUSA,2283,32653.900;2283,32653.900002088,00000077,-64202,15,-529,-18,-17,996*c66d27cc
%RAWIMUSA,2283,32653.910;2283,32653.910002088,00000077,-64221,-165,-509,9,9,640*6211e107
%RAWIMUSA,2283,32653.920;2283,32653.920002088,00000077,-64208,-61,-517,18,8,-987*4614852b
%RAWIMUSA,2283,32653.930;2283,32653.930002088,00000077,-64207,-40,-533,-18,0,-822*9b5dafe0
%RAWIMUSA,2283,32653.940;2283,32653.940002088,00000077,-64218,-170,-528,-18,-8,658*a4a887dc
%RAWIMUSA,2283,32653.950;2283,32653.950002088,00000077,-64203,14,-519,0,0,978*8bbf0304
%RAWIMUSA,2283,32653.960;2283,32653.960002088,00000077,-64213,-149,-514,9,8,-246*1bc269d6
%RAWIMUSA,2283,32653.970;2283,32653.970002088,00000077,-64209,-70,-527,9,8,-987*71816a67
%RAWIMUSA,2283,32653.980;2283,32653.980002088,00000077,-64206,-34,-530,-27,-9,-100*217642d5
%RAWIMUSA,2283,32653.990;2283,32653.990002088,00000077,-64222,-172,-515,-8,-8,850*290181cd
%RAWIMUSA,2283,32654.000;2283,32654.000002088,00000077,-64206,12,-514,9,0,731*349e9702
%RAWIMUSA,2283,32654.010;2283,32654.010002088,00000077,-64217,-138,-527,18,8,-905*9f78a247
%RAWIMUSA,2283,32654.020;2283,32654.020002088,00000077,-64208,-82,-533,-18,0,-1005*2004b078
%RAWIMUSA,2283,32654.030;2283,32654.030002088,00000077,-64202,-27,-520,-18,0,804*4af251d4
%RAWIMUSA,2283,32654.040;2283,32654.040002088,00000077,-64217,-181,-512,0,0,841*b8aabd2c
%RAWIMUSA,2283,32654.050;2283,32654.050002088,00000077,-64207,12,-521,18,0,-191*d0d40a5c
%RAWIMUSA,2283,32654.060;2283,32654.060002088,00000077,-64216,-134,-525,-9,0,-877*26215322
%RAWIMUSA,2283,32654.070;2283,32654.070002088,00000077,-64214,-96,-528,-18,-9,-329*a440e2e8
%RAWIMUSA,2283,32654.080;2283,32654.080002088,00000077,-64199,-12,-520,-18,0,1033*27393daf
%RAWIMUSA,2283,32654.090;2283,32654.090002088,00000077,-64219,-183,-514,18,9,667*720cde58
%RAWIMUSA,2283,32654.100;2283,32654.100002088,00000077,-64203,4,-527,9,8,-914*833782ff
%RAWIMUSA,2283,32654.110;2283,32654.110002088,00000077,-64212,-122,-530,-18,0,-859*e8927656
%RAWIMUSA,2283,32654.120;2283,32654.120002088,00000077,-64216,-109,-519,-8,-18,557*b99347b8
%RAWIMUSA,2283,32654.130;2283,32654.130002088,00000077,-64206,7,-514,0,0,1033*12d9017f
%RAWIMUSA,2283,32654.140;2283,32654.140002088,00000077,-64219,-191,-525,18,8,-219*1bb43f67
%RAWIMUSA,2283,32654.150;2283,32654.150002088,00000077,-64200,-13,-532,0,8,-923*2b1dc106
%RAWIMUSA,2283,32654.160;2283,32654.160002088,00000077,-64210,-106,-515,-27,0,-228*58344a27
%RAWIMUSA,2283,32654.170;2283,32654.170002088,00000077,-64216,-111,-517,-8,-8,832*c7af98e5
%RAWIMUSA,2283,32654.180;2283,32654.180002088,00000077,-64204,3,-530,18,0,877*a1e74821
%RAWIMUSA,2283,32654.190;2283,32654.190002088,00000077,-64219,-190,-527,9,0,-969*3490b104
%RAWIMUSA,2283,32654.200;2283,32654.200002088,00000077,-64205,-12,-514,-18,0,-932*b05054cd
%RAWIMUSA,2283,32654.210;2283,32654.210002088,00000077,-64209,-81,-515,-18,0,685*37d51cc1
%RAWIMUSA,2283,32654.220;2283,32654.220002088,00000077,-64215,-144,-533,0,9,823*93a2159f
%RAWIMUSA,2283,32654.230;2283,32654.230002088,00000077,-64202,11,-529,18,0,-27*661234d8
%RAWIMUSA,2283,32654.240;2283,32654.240002088,00000077,-64223,-173,-510,0,0,-941*e07412d5
%RAWIMUSA,2283,32654.250;2283,32654.250002088,00000077,-64207,-22,-511,-27,-9,-393*bdcd62bc
%RAWIMUSA,2283,32654.260;2283,32654.260002088,00000077,-64209,-87,-530,-8,0,1015*f2e0facc
%RAWIMUSA,2283,32654.270;2283,32654.270002088,00000077,-64217,-152,-532,9,9,731*eac8c391
%RAWIMUSA,2283,32654.280;2283,32654.280002088,00000077,-64199,24,-519,9,8,-850*63f3e64a
%RAWIMUSA,2283,32654.290;2283,32654.290002088,00000077,-64219,-170,-510,-18,-9,-941*66a3d70e
%RAWIMUSA,2283,32654.300;2283,32654.300002088,00000077,-64207,-49,-525,-18,-8,503*8d6a7b7c
%RAWIMUSA,2283,32654.310;2283,32654.310002088,00000077,-64208,-67,-532,9,9,1024*9a276d2b
%RAWIMUSA,2283,32654.320;2283,32654.320002088,00000077,-64218,-153,-519,9,0,-146*320bf034
%RAWIMUSA,2283,32654.330;2283,32654.330002088,00000077,-64203,13,-518,0,0,-868*36c8b656
%RAWIMUSA,2283,32654.340;2283,32654.340002088,00000077,-64220,-167,-525,-27,-9,-402*f6956a76
%RAWIMUSA,2283,32654.350;2283,32654.350002088,00000077,-64205,-55,-532,0,0,877*53fc83b5
%RAWIMUSA,2283,32654.360;2283,32654.360002088,00000077,-64207,-41,-518,9,0,978*a6b757c8
%RAWIMUSA,2283,32654.370;2283,32654.370002088,00000077,-64217,-170,-515,9,8,-1014*55eb8fce
%RAWIMUSA,2283,32654.380;2283,32654.380002088,00000077,-64202,11,-529,-18,0,-877*f8bdd012
%RAWIMUSA,2283,32654.390;2283,32654.390002088,00000077,-64214,-157,-531,-18,-18,512*a7dead16
%RAWIMUSA,2283,32654.400;2283,32654.400002088,00000077,-64212,-65,-519,9,9,868*ecb1097a
%RAWIMUSA,2283,32654.410;2283,32654.410002088,00000077,-64204,-27,-513,9,9,82*f8879ec6
%RAWIMUSA,2283,32654.420;2283,32654.420002088,00000077,-64218,-178,-522,0,0,-996*bde26c39
%RAWIMUSA,2283,32654.430;2283,32654.430002088,00000077,-64201,3,-526,-18,-9,-420*ebcbd745
%RAWIMUSA,2283,32654.440;2283,32654.440002088,00000077,-64224,-125,-535,-8,-8,960*69da86e0
%RAWIMUSA,2283,32654.450;2283,32654.450002088,00000077,-64209,-93,-516,9,9,850*05ebe46b
%RAWIMUSA,2283,32654.460;2283,32654.460002088,00000077,-64198,-30,-500,9,8,-804*33482d98
%RAWIMUSA,2283,32654.470;2283,32654.470002088,00000077,-64219,-159,-543,-18,-10,-987*2ef3332a
%RAWIMUSA,2283,32654.480;2283,32654.480002088,00000077,-64207,2,-530,-27,-8,448*1ed6eab0
%RAWIMUSA,2283,32654.490;2283,32654.490002088,00000077,-64209,-140,-519,9,9,987*0650a549
%RAWIMUSA,2283,32654.500;2283,32654.500002088,00000077,-64215,-113,-498,18,9,-54*13ba1197
%RAWIMUSA,2283,32654.510;2283,32654.510002088,00000077,-64204,26,-533,-9,-9,-813*2117c023
%RAWIMUSA,2283,32654.520;2283,32654.520002088,00000077,-64221,-193,-549,-18,-9,-566*8115c908
%RAWIMUSA,2283,32654.530;2283,32654.530002088,00000077,-64202,-13,-513,-8,0,923*0d19ca5a
%RAWIMUSA,2283,32654.540;2283,32654.540002088,00000077,-64215,-117,-499,18,9,1015*9ae6c516
%RAWIMUSA,2283,32654.550;2283,32654.550002088,00000077,-64218,-108,-536,9,8,-960*77d318c1
%RAWIMUSA,2283,32654.560;2283,32654.560002088,00000077,-64199,12,-546,-27,-9,-841*80f44287
%RAWIMUSA,2283,32654.570;2283,32654.570002088,00000077,-64221,-201,-516,-18,-8,365*c5d3793e
%RAWIMUSA,2283,32654.580;2283,32654.580002088,00000077,-64202,-16,-502,9,9,914*8ed2b2e5
%RAWIMUSA,2283,32654.590;2283,32654.590002088,00000077,-64215,-77,-522,18,9,164*3b083027
%RAWIMUSA,2283,32654.600;2283,32654.600002088,00000077,-64213,-145,-550,-9,-10,-1024*ff59fbad
%RAWIMUSA,2283,32654.610;2283,32654.610002088,00000077,-64203,9,-526,-18,-9,-484*5363c123
%RAWIMUSA,2283,32654.620;2283,32654.620002088,00000077,-64219,-178,-499,-8,0,914*2569b480
%RAWIMUSA,2283,32654.630;2283,32654.630002088,00000077,-64207,-26,-521,9,18,887*baae6b31
%RAWIMUSA,2283,32654.640;2283,32654.640002088,00000077,-64209,-52,-546,9,0,-731*2e6e22fe
%RAWIMUSA,2283,32654.650;2283,32654.650002088,00000077,-64214,-175,-521,-27,-10,-1014*e7bd921a
%RAWIMUSA,2283,32654.660;2283,32654.660002088,00000077,-64205,14,-504,-18,0,393*15bbc5ec
%RAWIMUSA,2283,32654.670;2283,32654.670002088,00000077,-64219,-150,-522,18,0,941*31aa55de
%RAWIMUSA,2283,32654.680;2283,32654.680002088,00000077,-64208,-64,-546,9,9,73*373d4cf4
%RAWIMUSA,2283,32654.690;2283,32654.690002088,00000077,-64204,-33,-524,-18,-9,-822*fbd8e084
%RAWIMUSA,2283,32654.700;2283,32654.700002088,00000077,-64218,-178,-497,-18,-9,-685*bbfdb477
%RAWIMUSA,2283,32654.710;2283,32654.710002088,00000077,-64205,19,-521,0,9,978*2e63ddf9
%RAWIMUSA,2283,32654.720;2283,32654.720002088,00000077,-64215,-151,-541,9,9,951*6d425722
%RAWIMUSA,2283,32654.730;2283,32654.730002088,00000077,-64211,-80,-528,9,-9,-841*651fd4fa
%RAWIMUSA,2283,32654.740;2283,32654.740002088,00000077,-64204,-14,-504,-27,-9,-813*0e61e883
%RAWIMUSA,2283,32654.750;2283,32654.750002088,00000077,-64219,-184,-514,-18,0,237*299cc927
%RAWIMUSA,2283,32654.760;2283,32654.760002088,00000077,-64201,5,-539,18,9,941*3dc9709c
%RAWIMUSA,2283,32654.770;2283,32654.770002088,00000077,-64214,-128,-530,9,0,246*ce270709
%RAWIMUSA,2283,32654.780;2283,32654.780002088,00000077,-64215,-113,-506,-9,0,-1014*8f2e7cad
%RAWIMUSA,2283,32654.790;2283,32654.790002088,00000077,-64204,7,-516,-27,-9,-566*bf69f476
%RAWIMUSA,2283,32654.800;2283,32654.800002088,00000077,-64218,-192,-537,0,9,868*d34e635f
%RAWIMUSA,2283,32654.810;2283,32654.810002088,00000077,-64204,0,-531,9,0,923*c95b3905
%RAWIMUSA,2283,32654.820;2283,32654.820002088,00000077,-64215,-108,-511,9,0,-639*5a8ff0b8
%RAWIMUSA,2283,32654.830;2283,32654.830002088,00000077,-64212,-135,-509,-27,-10,-1024*4ae34945
%RAWIMUSA,2283,32654.840;2283,32654.840002088,00000077,-64202,8,-537,-18,0,329*081c39f7
%RAWIMUSA,2283,32654.850;2283,32654.850002088,00000077,-64220,-182,-533,18,9,887*49be0020
%RAWIMUSA,2283,32654.860;2283,32654.860002088,00000077,-64205,-9,-511,9,9,210*7576bfc5
%RAWIMUSA,2283,32654.870;2283,32654.870002088,00000077,-64211,-86,-514,-9,-9,-841*1658a0cf
%RAWIMUSA,2283,32654.880;2283,32654.880002088,00000077,-64221,-148,-534,-18,-9,-813*137d05ea
%RAWIMUSA,2283,32654.890;2283,32654.890002088,00000077,-64199,15,-537,0,9,1015*f0b4cf0c
%RAWIMUSA,2283,32654.900;2283,32654.900002088,00000077,-64216,-180,-506,9,9,914*3c93c9ac
%RAWIMUSA,2283,32654.910;2283,32654.910002088,00000077,-64210,-30,-509,0,0,-703*88277ee2
%RAWIMUSA,2283,32654.920;2283,32654.920002088,00000077,-64211,-59,-533,-18,-9,-831*9d2cf122
%RAWIMUSA,2283,32654.930;2283,32654.930002088,00000077,-64215,-164,-535,-18,0,91*06816416
%RAWIMUSA,2283,32654.940;2283,32654.940002088,00000077,-64195,19,-522,18,9,996*3b648192
%RAWIMUSA,2283,32654.950;2283,32654.950002088,00000077,-64222,-161,-509,9,0,301*8e2c9b5e
%RAWIMUSA,2283,32654.960;2283,32654.960002088,00000077,-64210,-63,-521,-18,0,-996*83101bb6
%RAWIMUSA,2283,32654.970;2283,32654.970002088,00000077,-64210,-34,-536,-18,-9,-667*70f4a5fd
%RAWIMUSA,2283,32654.980;2283,32654.980002088,00000077,-64216,-170,-524,9,0,859*98dae4e2
%RAWIMUSA,2283,32654.990;2283,32654.990002088,00000077,-64203,8,-512,9,9,969*2a9b46b9
%RAWIMUSA,2283,32655.000;2283,32655.000002088,00000077,-64216,-147,-515,0,0,-585*e42060a7
%RAWIMUSA,2283,32655.010;2283,32655.010002088,00000077,-64213,-82,-534,-18,-10,-1005*8a917367
%RAWIMUSA,2283,32655.020;2283,32655.020002088,00000077,-64201,-20,-533,-18,0,246*92c0c03f
%RAWIMUSA,2283,32655.030;2283,32655.030002088,00000077,-64218,-179,-515,18,9,859*a04d28fe
%RAWIMUSA,2283,32655.040;2283,32655.040002088,00000077,-64203,5,-515,9,0,356*7bc7ac24
%RAWIMUSA,2283,32655.050;2283,32655.050002088,00000077,-64211,-134,-527,-18,0,-877*f46d6891
%RAWIMUSA,2283,32655.060;2283,32655.060002088,00000077,-64213,-98,-536,-27,-9,-905*b983dc89
%RAWIMUSA,2283,32655.070;2283,32655.070002088,00000077,-64201,-11,-516,9,0,1033*36216625
%RAWIMUSA,2283,32655.080;2283,32655.080002088,00000077,-64221,-185,-506,18,9,859*ba932d0c
%RAWIMUSA,2283,32655.090;2283,32655.090002088,00000077,-64204,7,-530,-9,0,-566*a330351e
%RAWIMUSA,2283,32655.100;2283,32655.100002088,00000077,-64212,-112,-534,-18,-9,-859*17bbeace
%RAWIMUSA,2283,32655.110;2283,32655.110002088,00000077,-64216,-126,-517,-9,0,0*410b06bd
%RAWIMUSA,2283,32655.120;2283,32655.120002088,00000077,-64200,6,-511,9,9,1024*d59390e5
%RAWIMUSA,2283,32655.130;2283,32655.130002088,00000077,-64223,-182,-527,18,0,338*4754618e
%RAWIMUSA,2283,32655.140;2283,32655.140002088,00000077,-64206,-16,-533,-18,-9,-932*3592541a
%RAWIMUSA,2283,32655.150;2283,32655.150002088,00000077,-64212,-88,-518,-27,0,-777*0ea6c346
%RAWIMUSA,2283,32655.160;2283,32655.160002089,00000077,-64217,-138,-513,9,9,832*92ebf338
%RAWIMUSA,2283,32655.170;2283,32655.170002089,00000077,-64200,8,-526,9,9,1015*fccea886
%RAWIMUSA,2283,32655.180;2283,32655.180002089,00000077,-64218,-181,-534,0,-9,-539*13fa89cd
%RAWIMUSA,2283,32655.190;2283,32655.190002089,00000077,-64205,-21,-522,-18,-9,-950*d03a7738
%RAWIMUSA,2283,32655.200;2283,32655.200002089,00000077,-64209,-69,-514,-9,9,137*f2f7a085
%RAWIMUSA,2283,32655.210;2283,32655.210002089,00000077,-64219,-151,-525,9,9,841*48386d64
%RAWIMUSA,2283,32655.220;2283,32655.220002089,00000077,-64200,12,-530,9,0,512*a8a56bb4
%RAWIMUSA,2283,32655.230;2283,32655.230002089,00000077,-64220,-174,-516,-18,-9,-941*54f1ce18
%RAWIMUSA,2283,32655.240;2283,32655.240002089,00000077,-64205,-32,-521,-18,-9,-950*bd743c2c
%RAWIMUSA,2283,32655.250;2283,32655.250002089,00000077,-64209,-70,-530,9,9,1015*00a2d818
%RAWIMUSA,2283,32655.260;2283,32655.260002089,00000077,-64217,-152,-529,9,9,841*dc0a0009
%RAWIMUSA,2283,32655.270;2283,32655.270002089,00000077,-64198,15,-518,-9,-9,-393*b5ec8bdb
%RAWIMUSA,2283,32655.280;2283,32655.280002089,00000077,-64219,-172,-515,-18,-9,-932*e4f01760
%RAWIMUSA,2283,32655.290;2283,32655.290002089,00000077,-64207,-50,-532,-9,9,-54*c373813d
%RAWIMUSA,2283,32655.300;2283,32655.300002089,00000077,-64207,-56,-530,9,0,1024*7539f28b
%RAWIMUSA,2283,32655.310;2283,32655.310002089,00000077,-64218,-165,-518,18,0,393*b87ed049
%RAWIMUSA,2283,32655.320;2283,32655.320002089,00000077,-64201,20,-517,-18,-9,-868*d8c418f6
%RAWIMUSA,2283,32655.330;2283,32655.330002089,00000077,-64219,-159,-527,-27,0,-914*58b9b5b9
%RAWIMUSA,2283,32655.340;2283,32655.340002089,00000077,-64209,-77,-529,9,9,823*1b8c824d
%RAWIMUSA,2283,32655.350;2283,32655.350002089,00000077,-64203,-27,-519,9,9,1024*69681956
%RAWIMUSA,2283,32655.360;2283,32655.360002089,00000077,-64219,-174,-520,0,-9,-502*536871c0
%RAWIMUSA,2283,32655.370;2283,32655.370002089,00000077,-64203,15,-527,-27,-9,-886*dffd62db
%RAWIMUSA,2283,32655.380;2283,32655.380002089,00000077,-64211,-149,-524,0,9,-18*2f14c1a0
%RAWIMUSA,2283,32655.390;2283,32655.390002089,00000077,-64212,-89,-526,9,9,850*f3e16f52
%RAWIMUSA,2283,32655.400;2283,32655.400002089,00000077,-64207,-6,-520,9,-8,640*4675cdc1
%RAWIMUSA,2283,32655.410;2283,32655.410002089,00000077,-64217,-187,-518,-18,-10,-996*790e60a3
%RAWIMUSA,2283,32655.420;2283,32655.420002089,00000077,-64205,1,-525,-18,0,-905*deb0e778
%RAWIMUSA,2283,32655.430;2283,32655.430002089,00000077,-64212,-114,-527,9,9,896*6d81820b
%RAWIMUSA,2283,32655.440;2283,32655.440002089,00000077,-64212,-99,-519,9,9,841*de28ec13
%RAWIMUSA,2283,32655.450;2283,32655.450002089,00000077,-64204,-7,-519,-9,-9,-265*bcf0c214
%RAWIMUSA,2283,32655.460;2283,32655.460002089,00000077,-64218,-195,-521,-18,-10,-987*2b40599b
%RAWIMUSA,2283,32655.470;2283,32655.470002089,00000077,-64200,4,-528,-9,9,-100*011902f9
%RAWIMUSA,2283,32655.480;2283,32655.480002089,00000077,-64213,-104,-519,9,9,987*92ba8882
%RAWIMUSA,2283,32655.490;2283,32655.490002089,00000077,-64216,-124,-519,9,-8,493*e073370e
%RAWIMUSA,2283,32655.500;2283,32655.500002089,00000077,-64202,0,-527,-18,-9,-822*560b3232
%RAWIMUSA,2283,32655.510;2283,32655.510002089,00000077,-64218,-185,-526,-18,0,-978*d3574506
%RAWIMUSA,2283,32655.520;2283,32655.520002089,00000077,-64201,-6,-520,9,9,786*a5df39b7
%RAWIMUSA,2283,32655.530;2283,32655.530002089,00000077,-64213,-97,-520,18,9,1005*ec7227e5
%RAWIMUSA,2283,32655.540;2283,32655.540002089,00000077,-64215,-144,-524,-9,-9,-411*a4d4c85a
%RAWIMUSA,2283,32655.550;2283,32655.550002089,00000077,-64200,17,-528,-27,-9,-850*f0ae2e1b
%RAWIMUSA,2283,32655.560;2283,32655.560002089,00000077,-64218,-180,-517,0,8,-182*9c3f9646
%RAWIMUSA,2283,32655.570;2283,32655.570002089,00000077,-64206,-32,-516,18,9,905*ec579235
%RAWIMUSA,2283,32655.590;2283,32655.590002089,00000077,-64216,-147,-526,-18,-10,-1014*63968260
%RAWIMUSA,2283,32655.600;2283,32655.600002089,00000077,-64200,18,-519,-27,0,-859*b77a2b86
%RAWIMUSA,2283,32655.610;2283,32655.610002089,00000077,-64219,-170,-518,18,9,740*f3cdecd1
%RAWIMUSA,2283,32655.620;2283,32655.620002089,00000077,-64205,-48,-524,18,0,877*c14dd5b7
%RAWIMUSA,2283,32655.630;2283,32655.630002089,00000077,-64209,-53,-526,-18,-9,-164*b882d85c
%RAWIMUSA,2283,32655.640;2283,32655.640002089,00000077,-64217,-161,-518,-18,0,-1014*06ae07f7
%RAWIMUSA,2283,32655.650;2283,32655.650002089,00000077,-64202,16,-524,0,9,-146*91a47642
%RAWIMUSA,2283,32655.660;2283,32655.660002089,00000077,-64218,-158,-524,9,9,923*3228e236
%RAWIMUSA,2283,32655.670;2283,32655.670002089,00000077,-64209,-59,-527,9,-8,631*d3a444fc
