%RAWIMUSA,2283,34710.980;2283,34710.980001094,00000077,64188,9,450,28,0,832*a5fd8467
%RAWIMUSA,2283,34710.990;2283,34710.990001094,00000077,64187,22,449,9,8,-905*67d1c89b
%RAWIMUSA,2283,34711.000;2283,34711.000001094,00000077,64189,25,456,-18,8,-896*20a09085
%RAWIMUSA,2283,34711.010;2283,34711.010001094,00000077,64185,10,458,-8,-8,521*b711ad42
%RAWIMUSA,2283,34711.020;2283,34711.020001094,00000077,64192,16,457,28,-8,923*e80a771a
%RAWIMUSA,2283,34711.030;2283,34711.030001094,00000077,64192,25,455,18,9,-63*a1afa4f3
%RAWIMUSA,2283,34711.040;2283,34711.040001094,00000077,64183,15,440,-9,0,-905*1c3bb4ad
%RAWIMUSA,2283,34711.050;2283,34711.050001094,00000077,64186,9,443,-18,0,-402*4e3aa29e
%RAWIMUSA,2283,34711.060;2283,34711.060001094,00000077,64190,20,476,9,-8,914*96c6250c
%RAWIMUSA,2283,34711.070;2283,34711.070001094,00000077,64188,27,467,18,0,887*6978db9a
%RAWIMUSA,2283,34711.080;2283,34711.080001094,00000077,64191,18,432,9,8,-905*f7c15d18
%RAWIMUSA,2283,34711.090;2283,34711.090001094,00000077,64187,7,433,-18,0,-905*83b572dd
%RAWIMUSA,2283,34711.100;2283,34711.100001094,00000077,64186,19,476,-8,0,484*dc006dfa
%RAWIMUSA,2283,34711.110;2283,34711.110001094,00000077,64188,31,473,18,-8,923*ed992fa2
%RAWIMUSA,2283,34711.120;2283,34711.120001094,00000077,64185,10,430,27,9,-9*ced24701
%RAWIMUSA,2283,34711.130;2283,34711.130001094,00000077,64189,5,437,-9,8,-905*477ce59c
%RAWIMUSA,2283,34711.140;2283,34711.140001094,00000077,64183,28,479,-18,-9,-447*2644968a
%RAWIMUSA,2283,34711.150;2283,34711.150001094,00000077,64188,27,467,9,-8,914*8837053b
%RAWIMUSA,2283,34711.160;2283,34711.160001094,00000077,64186,6,434,18,0,923*83a48a58
%RAWIMUSA,2283,34711.170;2283,34711.170001094,00000077,64187,7,437,9,8,-896*ff67b56f
%RAWIMUSA,2283,34711.180;2283,34711.180001094,00000077,64189,30,467,-9,0,-896*2a82f2c5
%RAWIMUSA,2283,34711.190;2283,34711.190001094,00000077,64189,25,469,-8,-8,439*55289c0d
%RAWIMUSA,2283,34711.200;2283,34711.200001094,00000077,64189,0,442,18,0,923*46ae8238
%RAWIMUSA,2283,34711.210;2283,34711.210001094,00000077,64184,10,433,27,9,27*6c21ff49
%RAWIMUSA,2283,34711.220;2283,34711.220001093,00000077,64191,35,465,-18,0,-905*c362dde8
%RAWIMUSA,2283,34711.230;2283,34711.230001093,00000077,64187,21,475,-9,-9,-493*b2727a10
%RAWIMUSA,2283,34711.240;2283,34711.240001093,00000077,64187,-4,446,9,-8,905*408d49fd
%RAWIMUSA,2283,34711.250;2283,34711.250001093,00000077,64189,17,432,18,9,905*a5ebec80
%RAWIMUSA,2283,34711.260;2283,34711.260001093,00000077,64186,39,461,9,8,-841*e12d3d7c
%RAWIMUSA,2283,34711.270;2283,34711.270001093,00000077,64186,20,477,-18,-9,-905*9772a91c
%RAWIMUSA,2283,34711.280;2283,34711.280001093,00000077,64189,-2,447,0,0,384*92242fc5
%RAWIMUSA,2283,34711.290;2283,34711.290001093,00000077,64189,16,433,18,-8,914*5c112019
%RAWIMUSA,2283,34711.300;2283,34711.300001093,00000077,64187,37,459,18,9,91*1f26d2aa
%RAWIMUSA,2283,34711.310;2283,34711.310001093,00000077,64189,16,472,-9,8,-905*4c812dcd
%RAWIMUSA,2283,34711.320;2283,34711.320001093,00000077,64187,4,448,-18,-9,-548*43c952a4
%RAWIMUSA,2283,34711.330;2283,34711.330001093,00000077,64186,22,433,9,-8,914*35fc0381
%RAWIMUSA,2283,34711.340;2283,34711.340001093,00000077,64188,33,459,28,9,914*a1caad81
%RAWIMUSA,2283,34711.350;2283,34711.350001093,00000077,64189,12,475,0,8,-786*7284baa0
%RAWIMUSA,2283,34711.360;2283,34711.360001093,00000077,64189,6,449,-9,0,-914*2325b48e
%RAWIMUSA,2283,34711.370;2283,34711.370001093,00000077,64192,24,437,-8,-8,338*e6bde8ec
%RAWIMUSA,2283,34711.380;2283,34711.380001093,00000077,64188,31,456,18,0,923*744c0555
%RAWIMUSA,2283,34711.390;2283,34711.390001093,00000077,64185,7,473,27,0,137*f94e2472
%RAWIMUSA,2283,34711.400;2283,34711.400001093,00000077,64185,6,452,-18,0,-914*a138d740
%RAWIMUSA,2283,34711.410;2283,34711.410001093,00000077,64188,27,436,-18,0,-603*16b16edd
%RAWIMUSA,2283,34711.420;2283,34711.420001093,00000077,64190,28,451,18,0,923*16e777d9
%RAWIMUSA,2283,34711.430;2283,34711.430001093,00000077,64189,9,471,18,9,923*0891429b
%RAWIMUSA,2283,34711.440;2283,34711.440001093,00000077,64189,11,454,0,0,-749*3209d54c
%RAWIMUSA,2283,34711.450;2283,34711.450001093,00000077,64185,26,439,-18,-9,-905*f8086c50
%RAWIMUSA,2283,34711.460;2283,34711.460001093,00000077,64187,24,451,0,-9,283*7bdcac9f
%RAWIMUSA,2283,34711.470;2283,34711.470001093,00000077,64188,9,467,18,0,923*1cda24f2
%RAWIMUSA,2283,34711.480;2283,34711.480001093,00000077,64190,11,453,18,18,192*81aa8e93
%RAWIMUSA,2283,34711.490;2283,34711.490001093,00000077,64192,25,443,-9,0,-905*10431292
%RAWIMUSA,2283,34711.500;2283,34711.500001093,00000077,64186,26,452,-18,-9,-649*11b5e494
%RAWIMUSA,2283,34711.510;2283,34711.510001093,00000077,64187,12,463,18,-8,914*43e2bd5c
%RAWIMUSA,2283,34711.520;2283,34711.520001093,00000077,64187,8,459,18,9,914*f79285af
%RAWIMUSA,2283,34711.530;2283,34711.530001093,00000077,64188,21,439,0,0,-694*c8b51409
%RAWIMUSA,2283,34711.540;2283,34711.540001093,00000077,64189,27,449,-18,8,-896*a52843ab
%RAWIMUSA,2283,34711.550;2283,34711.550001093,00000077,64188,12,465,0,0,237*68346245
%RAWIMUSA,2283,34711.560;2283,34711.560001093,00000077,64188,12,458,18,-8,914*f515a6a7
%RAWIMUSA,2283,34711.570;2283,34711.570001093,00000077,64187,26,443,18,9,228*64f8be63
%RAWIMUSA,2283,34711.580;2283,34711.580001093,00000077,64187,21,447,-18,0,-896*c69e6e44
%RAWIMUSA,2283,34711.590;2283,34711.590001093,00000077,64189,12,463,-9,-9,-694*98a81175
%RAWIMUSA,2283,34711.600;2283,34711.600001093,00000077,64189,15,457,9,0,905*7b866f58
%RAWIMUSA,2283,34711.610;2283,34711.610001093,00000077,64189,22,443,28,9,923*1c5a57df
%RAWIMUSA,2283,34711.620;2283,34711.620001093,00000077,64189,24,452,0,8,-630*c9a0e9ca
%RAWIMUSA,2283,34711.630;2283,34711.630001093,00000077,64185,12,466,-18,-9,-905*fa7524cb
%RAWIMUSA,2283,34711.640;2283,34711.640001093,00000077,64185,16,459,0,-18,182*421eb9d9
%RAWIMUSA,2283,34711.650;2283,34711.650001093,00000077,64187,21,444,18,9,923*aa8f1835
%RAWIMUSA,2283,34711.660;2283,34711.660001093,00000077,64187,19,448,18,9,301*924decad
%RAWIMUSA,2283,34711.670;2283,34711.670001093,00000077,64189,13,463,-9,8,-905*293749b5
%RAWIMUSA,2283,34711.680;2283,34711.680001093,00000077,64188,17,455,-18,-19,-749*941f9509
%RAWIMUSA,2283,34711.690;2283,34711.690001093,00000077,64188,22,443,18,-8,914*0487afbc
%RAWIMUSA,2283,34711.700;2283,34711.700001093,00000077,64185,17,457,18,9,932*f601c15c
%RAWIMUSA,2283,34711.710;2283,34711.710001093,00000077,64190,12,465,0,8,-594*7633d2fd
%RAWIMUSA,2283,34711.720;2283,34711.720001093,00000077,64189,19,453,-18,0,-914*d21c76bc
%RAWIMUSA,2283,34711.730;2283,34711.730001093,00000077,64190,22,442,0,-9,137*64efa351
%RAWIMUSA,2283,34711.740;2283,34711.740001093,00000077,64184,18,450,28,0,923*cfaf4fe8
%RAWIMUSA,2283,34711.750;2283,34711.750001093,00000077,64186,10,468,9,9,338*4e09d2c8
%RAWIMUSA,2283,34711.760;2283,34711.760001093,00000077,64186,23,456,-9,-9,-905*62acb1f2
%RAWIMUSA,2283,34711.770;2283,34711.770001093,00000077,64190,22,441,-18,0,-804*dc673e5e
%RAWIMUSA,2283,34711.780;2283,34711.780001093,00000077,64194,12,449,18,9,914*0ab2e06c
%RAWIMUSA,2283,34711.790;2283,34711.790001093,00000077,64186,10,464,18,0,914*3f1cf0f8
%RAWIMUSA,2283,34711.800;2283,34711.800001093,00000077,64186,22,453,-9,0,-548*420a7be3
%RAWIMUSA,2283,34711.810;2283,34711.810001093,00000077,64185,25,443,-9,-9,-905*24977808
%RAWIMUSA,2283,34711.820;2283,34711.820001093,00000077,64189,12,448,0,0,91*65b37bb1
%RAWIMUSA,2283,34711.830;2283,34711.830001093,00000077,64189,12,463,18,9,914*d8bbd594
%RAWIMUSA,2283,34711.840;2283,34711.840001093,00000077,64190,22,455,9,9,384*a72916cf
%RAWIMUSA,2283,34711.850;2283,34711.850001093,00000077,64184,22,448,-9,-9,-905*1ff6a571
%RAWIMUSA,2283,34711.860;2283,34711.860001093,00000077,64187,15,454,-9,-9,-841*6d6afcdc
%RAWIMUSA,2283,34711.870;2283,34711.870001093,00000077,64185,9,458,18,0,914*3b050941
%RAWIMUSA,2283,34711.880;2283,34711.880001093,00000077,64189,24,454,18,19,932*f59b9ab0
%RAWIMUSA,2283,34711.890;2283,34711.890001093,00000077,64189,29,447,-9,0,-493*5e1bb503
%RAWIMUSA,2283,34711.900;2283,34711.900001093,00000077,64185,10,452,-9,-9,-905*0776be8c
%RAWIMUSA,2283,34711.910;2283,34711.910001093,00000077,64188,7,457,9,-9,36*d57a108c
%RAWIMUSA,2283,34711.920;2283,34711.920001093,00000077,64187,25,461,18,9,914*2bb1bece
%RAWIMUSA,2283,34711.930;2283,34711.930001093,00000077,64189,22,447,9,9,448*6682cdfd
%RAWIMUSA,2283,34711.940;2283,34711.940001093,00000077,64191,8,450,-18,-9,-905*cea77553
%RAWIMUSA,2283,34711.950;2283,34711.950001093,00000077,64187,14,460,-9,-9,-896*2a610443
%RAWIMUSA,2283,34711.960;2283,34711.960001093,00000077,64181,25,454,18,0,914*199d48cf
%RAWIMUSA,2283,34711.970;2283,34711.970001093,00000077,64187,22,445,18,9,923*025de7f7
%RAWIMUSA,2283,34711.980;2283,34711.980001093,00000077,64189,9,456,-9,8,-457*7b92c1d3
%RAWIMUSA,2283,34711.990;2283,34711.990001093,00000077,64187,17,458,-9,-19,-905*e7ae1b97
%RAWIMUSA,2283,34712.000;2283,34712.000001093,00000077,64191,25,452,9,0,-9*fe376403
%RAWIMUSA,2283,34712.010;2283,34712.010001093,00000077,64189,17,447,18,9,923*8654c2fd
%RAWIMUSA,2283,34712.020;2283,34712.020001093,00000077,64188,12,458,9,9,484*4c8fa823
%RAWIMUSA,2283,34712.030;2283,34712.030001093,00000077,64191,18,461,-18,-9,-905*f3296938
%RAWIMUSA,2283,34712.040;2283,34712.040001093,00000077,64189,23,446,-9,-9,-905*93671595
%RAWIMUSA,2283,34712.050;2283,34712.050001093,00000077,64189,17,443,18,9,868*9a009a01
%RAWIMUSA,2283,34712.060;2283,34712.060001093,00000077,64186,12,458,18,9,923*c2467314
%RAWIMUSA,2283,34712.070;2283,34712.070001093,00000077,64187,20,464,-9,0,-402*1d9a1ee6
%RAWIMUSA,2283,34712.080;2283,34712.080001093,00000077,64188,25,447,-18,-9,-905*f0f5381a
%RAWIMUSA,2283,34712.090;2283,34712.090001093,00000077,64187,12,443,9,0,-54*3d7c1a81
%RAWIMUSA,2283,34712.100;2283,34712.100001093,00000077,64189,15,460,18,9,923*1fe127a0
%RAWIMUSA,2283,34712.110;2283,34712.110001093,00000077,64186,20,462,9,9,530*6adffadb
%RAWIMUSA,2283,34712.120;2283,34712.120001093,00000077,64189,19,451,-9,-9,-905*744f934a
%RAWIMUSA,2283,34712.130;2283,34712.130001093,00000077,64185,12,444,-9,-9,-896*37e305b7
%RAWIMUSA,2283,34712.140;2283,34712.140001093,00000077,64187,20,459,18,0,823*45fd1092
%RAWIMUSA,2283,34712.150;2283,34712.150001093,00000077,64186,21,469,18,9,923*8548f6ff
%RAWIMUSA,2283,34712.160;2283,34712.160001093,00000077,64182,15,450,-9,0,-356*23f850f2
%RAWIMUSA,2283,34712.170;2283,34712.170001093,00000077,64186,12,436,-9,-9,-905*2c1c9a47
%RAWIMUSA,2283,34712.180;2283,34712.180001093,00000077,64189,20,461,9,0,-109*8927968a
%RAWIMUSA,2283,34712.190;2283,34712.190001093,00000077,64187,23,474,18,9,914*918cff07
%RAWIMUSA,2283,34712.200;2283,34712.200001093,00000077,64188,14,449,0,0,594*370aad6e
%RAWIMUSA,2283,34712.210;2283,34712.210001093,00000077,64188,14,431,-9,0,-914*f0017cb7
%RAWIMUSA,2283,34712.220;2283,34712.220001093,00000077,64188,21,459,-9,-9,-914*faf05d2f
%RAWIMUSA,2283,34712.230;2283,34712.230001093,00000077,64189,22,477,18,0,777*a85adf1e
%RAWIMUSA,2283,34712.240;2283,34712.240001093,00000077,64188,15,450,18,9,932*c4c260b0
%RAWIMUSA,2283,34712.250;2283,34712.250001093,00000077,64187,14,431,-9,0,-301*3a171758
%RAWIMUSA,2283,34712.260;2283,34712.260001093,00000077,64189,27,461,-9,0,-905*c56e883d
%RAWIMUSA,2283,34712.270;2283,34712.270001093,00000077,64188,18,471,9,-9,-164*2adf946d
%RAWIMUSA,2283,34712.280;2283,34712.280001093,00000077,64189,10,444,18,9,923*928b2ff5
%RAWIMUSA,2283,34712.290;2283,34712.290001093,00000077,64191,17,435,9,9,640*f8eef640
%RAWIMUSA,2283,34712.300;2283,34712.300001093,00000077,64186,26,466,-18,-9,-905*5cdf99fe
%RAWIMUSA,2283,34712.310;2283,34712.310001093,00000077,64187,21,471,0,-9,-905*6c05ab6d
%RAWIMUSA,2283,34712.320;2283,34712.320001093,00000077,64187,9,443,18,9,731*489fd90f
%RAWIMUSA,2283,34712.330;2283,34712.330001093,00000077,64186,18,434,28,0,905*5e6568fd
%RAWIMUSA,2283,34712.340;2283,34712.340001093,00000077,64186,28,462,-18,0,-246*cbdc67e7
%RAWIMUSA,2283,34712.350;2283,34712.350001093,00000077,64188,13,472,-9,-9,-905*4d95e751
%RAWIMUSA,2283,34712.360;2283,34712.360001093,00000077,64190,9,445,9,0,-219*5a879634
%RAWIMUSA,2283,34712.370;2283,34712.370001093,00000077,64188,23,434,18,9,923*fe0dede7
%RAWIMUSA,2283,34712.380;2283,34712.380001093,00000077,64189,25,462,0,9,685*671585bd
%RAWIMUSA,2283,34712.390;2283,34712.390001093,00000077,64188,12,474,-9,-9,-914*c3e4d119
%RAWIMUSA,2283,34712.400;2283,34712.400001093,00000077,64189,11,444,0,-19,-914*769f5ec9
%RAWIMUSA,2283,34712.410;2283,34712.410001093,00000077,64189,25,435,18,9,676*054761ff
%RAWIMUSA,2283,34712.420;2283,34712.420001093,00000077,64187,22,462,18,9,914*d058e324
%RAWIMUSA,2283,34712.430;2283,34712.430001093,00000077,64188,9,475,-9,0,-201*45b7ed92
%RAWIMUSA,2283,34712.440;2283,34712.440001093,00000077,64186,14,445,-18,-19,-905*aad81524
%RAWIMUSA,2283,34712.450;2283,34712.450001093,00000077,64189,27,435,18,8,-265*c1329311
%RAWIMUSA,2283,34712.460;2283,34712.460001093,00000077,64188,21,463,18,9,914*62ba1029
%RAWIMUSA,2283,34712.470;2283,34712.470001093,00000077,64189,9,471,0,0,740*15e2b6eb
%RAWIMUSA,2283,34712.480;2283,34712.480001093,00000077,64186,18,445,-9,-9,-914*eadd7340
%RAWIMUSA,2283,34712.490;2283,34712.490001093,00000077,64187,26,434,0,-9,-895*41547f8b
%RAWIMUSA,2283,34712.500;2283,34712.500001093,00000077,64186,17,462,18,9,621*8125a96b
%RAWIMUSA,2283,34712.510;2283,34712.510001093,00000077,64189,11,474,18,9,923*d98bfa81
%RAWIMUSA,2283,34712.520;2283,34712.520001093,00000077,64190,17,447,-18,-9,-164*bd1df631
%RAWIMUSA,2283,34712.530;2283,34712.530001093,00000077,64186,26,431,-9,-9,-905*3419357a
%RAWIMUSA,2283,34712.540;2283,34712.540001093,00000077,64188,19,461,9,8,-301*fb1c0d58
%RAWIMUSA,2283,34712.550;2283,34712.550001093,00000077,64189,9,476,28,0,923*a57ababd
%RAWIMUSA,2283,34712.560;2283,34712.560001093,00000077,64188,14,446,-8,9,786*da2094e4
%RAWIMUSA,2283,34712.570;2283,34712.570001093,00000077,64188,26,436,-9,-9,-905*b414cb39
%RAWIMUSA,2283,34712.580;2283,34712.580001093,00000077,64185,18,458,0,0,-905*1b894e78
%RAWIMUSA,2283,34712.590;2283,34712.590001093,00000077,64189,11,473,18,0,576*26b6601c
%RAWIMUSA,2283,34712.600;2283,34712.600001093,00000077,64188,23,451,18,9,914*a6a6ec54
%RAWIMUSA,2283,34712.610;2283,34712.610001093,00000077,64190,24,431,-18,-9,-91*ca9700a5
%RAWIMUSA,2283,34712.620;2283,34712.620001093,00000077,64186,15,453,-9,0,-905*a5caccc2
%RAWIMUSA,2283,34712.630;2283,34712.630001093,00000077,64189,9,473,18,0,-365*3df0102e
%RAWIMUSA,2283,34712.640;2283,34712.640001093,00000077,64186,21,455,18,9,923*5d8d3848
%RAWIMUSA,2283,34712.650;2283,34712.650001093,00000077,64187,27,438,0,0,832*f988ab07
%RAWIMUSA,2283,34712.660;2283,34712.660001093,00000077,64186,11,454,-18,-9,-914*fde44ee6
%RAWIMUSA,2283,34712.670;2283,34712.670001093,00000077,64188,12,469,0,0,-905*c3d82d51
%RAWIMUSA,2283,34712.680;2283,34712.680001093,00000077,64187,23,458,27,0,530*c151a4f4
%RAWIMUSA,2283,34712.690;2283,34712.690001093,00000077,64188,16,434,9,9,923*4b12c127
%RAWIMUSA,2283,34712.700;2283,34712.700001093,00000077,64186,15,447,-9,0,-54*b0da38d4
%RAWIMUSA,2283,34712.710;2283,34712.710001093,00000077,64187,15,469,-18,-9,-905*29144241
%RAWIMUSA,2283,34712.720;2283,34712.720001093,00000077,64189,22,456,18,8,-402*9918c910
%RAWIMUSA,2283,34712.730;2283,34712.730001093,00000077,64189,20,438,18,9,914*15f32433
%RAWIMUSA,2283,34712.740;2283,34712.740001093,00000077,64189,14,448,0,0,877*5207d1f7
%RAWIMUSA,2283,34712.750;2283,34712.750001093,00000077,64187,15,467,-9,-19,-895*06036ac9
%RAWIMUSA,2283,34712.760;2283,34712.760001093,00000077,64188,27,457,0,0,-905*1346fcbf
%RAWIMUSA,2283,34712.770;2283,34712.770001093,00000077,64189,17,440,18,9,484*657617da
%RAWIMUSA,2283,34712.780;2283,34712.780001093,00000077,64189,16,446,18,9,914*0e3ddcd6
%RAWIMUSA,2283,34712.790;2283,34712.790001093,00000077,64189,19,465,-18,-9,-9*bb02e951
%RAWIMUSA,2283,34712.800;2283,34712.800001093,00000077,64187,19,456,-9,-9,-905*d1809de3
%RAWIMUSA,2283,34712.810;2283,34712.810001093,00000077,64188,19,442,18,8,-457*8f61b757
%RAWIMUSA,2283,34712.820;2283,34712.820001093,00000077,64185,17,452,18,9,914*e1c88157
%RAWIMUSA,2283,34712.830;2283,34712.830001093,00000077,64186,18,460,0,-8,923*2ab3fe30
%RAWIMUSA,2283,34712.840;2283,34712.840001093,00000077,64190,19,457,-18,-9,-896*70d8858b
%RAWIMUSA,2283,34712.850;2283,34712.850001093,00000077,64188,18,453,9,0,-905*36568a59
%RAWIMUSA,2283,34712.860;2283,34712.860001093,00000077,64184,15,454,18,18,429*1360b79d
%RAWIMUSA,2283,34712.870;2283,34712.870001093,00000077,64186,17,458,9,0,914*392dca66
%RAWIMUSA,2283,34712.880;2283,34712.880001093,00000077,64187,23,456,-18,-9,54*17b7c34b
%RAWIMUSA,2283,34712.890;2283,34712.890001093,00000077,64187,15,451,-9,0,-914*1003bbf0
%RAWIMUSA,2283,34712.900;2283,34712.900001093,00000077,64189,20,448,18,8,-502*a93c3273
%RAWIMUSA,2283,34712.910;2283,34712.910001093,00000077,64187,16,453,28,9,914*95845b4d
%RAWIMUSA,2283,34712.920;2283,34712.920001093,00000077,64189,21,460,-8,-8,914*4a91cbd4
%RAWIMUSA,2283,34712.930;2283,34712.930001093,00000077,64187,14,452,-9,-9,-831*8a2bcc79
%RAWIMUSA,2283,34712.940;2283,34712.940001093,00000077,64188,18,450,0,8,-905*ec162b54
%RAWIMUSA,2283,34712.950;2283,34712.950001093,00000077,64187,27,452,18,9,374*c4b510f2
%RAWIMUSA,2283,34712.960;2283,34712.960001093,00000077,64185,13,455,9,0,914*9d6f1ce9
%RAWIMUSA,2283,34712.970;2283,34712.970001093,00000077,64188,11,455,-18,-9,109*e01f266d
%RAWIMUSA,2283,34712.980;2283,34712.980001093,00000077,64187,24,455,-9,-9,-914*ea910327
%RAWIMUSA,2283,34712.990;2283,34712.990001093,00000077,64187,21,450,27,8,-557*f96446f2
%RAWIMUSA,2283,34713.000;2283,34713.000001093,00000077,64188,16,453,18,9,914*176ea587
%RAWIMUSA,2283,34713.010;2283,34713.010001093,00000077,64188,11,455,-8,-8,923*4ab56c07
%RAWIMUSA,2283,34713.020;2283,34713.020001093,00000077,64189,22,456,-18,-9,-786*a3081b5d
%RAWIMUSA,2283,34713.030;2283,34713.030001093,00000077,64186,24,451,9,0,-896*70105ad5
%RAWIMUSA,2283,34713.040;2283,34713.040001093,00000077,64188,8,449,18,18,338*658f726d
%RAWIMUSA,2283,34713.050;2283,34713.050001093,00000077,64186,9,454,9,0,914*15f873bd
%RAWIMUSA,2283,34713.060;2283,34713.060001093,00000077,64187,23,462,-9,-18,146*25a9a145
%RAWIMUSA,2283,34713.070;2283,34713.070001093,00000077,64189,23,453,-9,0,-905*d0075efd
%RAWIMUSA,2283,34713.080;2283,34713.080001093,00000077,64186,13,448,18,8,-603*9a2ea1cb
%RAWIMUSA,2283,34713.090;2283,34713.090001093,00000077,64188,13,453,18,9,905*a60b7219
%RAWIMUSA,2283,34713.100;2283,34713.100001093,00000077,64188,19,457,-8,-8,923*a595bb60
%RAWIMUSA,2283,34713.110;2283,34713.110001093,00000077,64187,20,454,-9,-9,-731*563ca30e
%RAWIMUSA,2283,34713.120;2283,34713.120001093,00000077,64186,12,447,9,0,-914*b041d6c6
%RAWIMUSA,2283,34713.130;2283,34713.130001092,00000077,64188,14,454,18,9,283*fac77984
%RAWIMUSA,2283,34713.140;2283,34713.140001092,00000077,64189,26,461,0,0,923*1f4bdcce
%RAWIMUSA,2283,34713.150;2283,34713.150001092,00000077,64188,19,455,-9,-9,192*75e9ad51
%RAWIMUSA,2283,34713.160;2283,34713.160001092,00000077,64186,12,447,-9,0,-914*bd1c9967
%RAWIMUSA,2283,34713.170;2283,34713.170001092,00000077,64189,18,454,27,8,-658*4f4a98cd
%RAWIMUSA,2283,34713.180;2283,34713.180001092,00000077,64188,22,459,18,0,914*6de68c9b
%RAWIMUSA,2283,34713.190;2283,34713.190001092,00000077,64187,21,453,-8,-8,923*0fd8ba65
%RAWIMUSA,2283,34713.200;2283,34713.200001092,00000077,64186,14,446,-18,-9,-694*859d9477
%RAWIMUSA,2283,34713.210;2283,34713.210001092,00000077,64185,15,450,9,8,-914*2500e765
%RAWIMUSA,2283,34713.220;2283,34713.220001092,00000077,64186,21,462,18,9,237*5dcc4935
%RAWIMUSA,2283,34713.230;2283,34713.230001092,00000077,64192,18,456,9,-8,914*b0baace2
%RAWIMUSA,2283,34713.240;2283,34713.240001092,00000077,64187,16,445,-8,-9,246*782520d4
%RAWIMUSA,2283,34713.250;2283,34713.250001092,00000077,64187,15,452,-9,0,-914*aaf326d2
%RAWIMUSA,2283,34713.260;2283,34713.260001092,00000077,64186,25,460,18,8,-703*e8cf9036
%RAWIMUSA,2283,34713.270;2283,34713.270001092,00000077,64186,18,451,18,0,914*92a79384
%RAWIMUSA,2283,34713.280;2283,34713.280001092,00000077,64188,14,444,-18,-8,914*568dedbd
%RAWIMUSA,2283,34713.290;2283,34713.290001092,00000077,64190,17,455,-9,0,-630*ca1579fb
%RAWIMUSA,2283,34713.300;2283,34713.300001092,00000077,64186,25,461,9,0,-905*51e3db55
%RAWIMUSA,2283,34713.310;2283,34713.310001092,00000077,64187,16,449,18,9,182*c3bc5492
%RAWIMUSA,2283,34713.320;2283,34713.320001092,00000077,64185,12,447,9,-8,914*416a8b65
%RAWIMUSA,2283,34713.330;2283,34713.330001092,00000077,64187,18,458,-18,0,292*dc83f8ee
%RAWIMUSA,2283,34713.340;2283,34713.340001092,00000077,64188,22,462,0,0,-905*66b1a716
%RAWIMUSA,2283,34713.350;2283,34713.350001092,00000077,64188,14,448,18,0,-749*e6f9dac6
%RAWIMUSA,2283,34713.360;2283,34713.360001092,00000077,64186,16,450,18,9,923*cccc8a63
%RAWIMUSA,2283,34713.370;2283,34713.370001092,00000077,64193,17,460,-8,-8,905*f5922a9e
%RAWIMUSA,2283,34713.380;2283,34713.380001092,00000077,64186,28,458,-18,-9,-594*5eb52c24
%RAWIMUSA,2283,34713.390;2283,34713.390001092,00000077,64188,14,449,18,8,-905*45f0b3ef
%RAWIMUSA,2283,34713.400;2283,34713.400001092,00000077,64186,7,445,18,0,128*b92a64c3
%RAWIMUSA,2283,34713.410;2283,34713.410001092,00000077,64186,25,455,0,0,914*0fe5a0da
%RAWIMUSA,2283,34713.420;2283,34713.420001092,00000077,64186,29,464,-18,-8,347*c3b88e33
%RAWIMUSA,2283,34713.430;2283,34713.430001092,00000077,64186,14,455,0,0,-905*9795810c
%RAWIMUSA,2283,34713.440;2283,34713.440001092,00000077,64188,9,443,18,8,-813*34ec2830
%RAWIMUSA,2283,34713.450;2283,34713.450001092,00000077,64186,16,455,18,0,914*57fee930
%RAWIMUSA,2283,34713.460;2283,34713.460001092,00000077,64185,30,460,-18,-8,923*057d116b
%RAWIMUSA,2283,34713.470;2283,34713.470001092,00000077,64187,12,454,-9,-9,-539*c90ad715
%RAWIMUSA,2283,34713.480;2283,34713.480001092,00000077,64189,11,444,18,8,-905*7ae85554
%RAWIMUSA,2283,34713.490;2283,34713.490001092,00000077,64191,26,455,18,9,82*e19d62ce
%RAWIMUSA,2283,34713.500;2283,34713.500001092,00000077,64189,17,463,0,-8,914*19300087
%RAWIMUSA,2283,34713.510;2283,34713.510001092,00000077,64185,13,447,-8,-8,393*9faaa911
%RAWIMUSA,2283,34713.520;2283,34713.520001092,00000077,64190,15,445,-9,8,-914*73db1fc9
%RAWIMUSA,2283,34713.530;2283,34713.530001092,00000077,64187,22,465,27,0,-850*7ec1e700
%RAWIMUSA,2283,34713.540;2283,34713.540001092,00000077,64186,20,463,9,0,914*d8a04121
%RAWIMUSA,2283,34713.550;2283,34713.550001092,00000077,64187,10,443,-8,-8,923*8d3608eb
%RAWIMUSA,2283,34713.560;2283,34713.560001092,00000077,64188,19,444,-9,0,-484*5ad56251
%RAWIMUSA,2283,34713.570;2283,34713.570001092,00000077,64187,26,462,9,8,-905*0286afcf
%RAWIMUSA,2283,34713.580;2283,34713.580001092,00000077,64185,17,465,27,9,36*6091f871
%RAWIMUSA,2283,34713.590;2283,34713.590001092,00000077,64190,13,450,-8,-8,914*f4199401
%RAWIMUSA,2283,34713.600;2283,34713.600001092,00000077,64187,16,441,-8,-8,439*168803c7
%RAWIMUSA,2283,34713.610;2283,34713.610001092,00000077,64190,26,459,0,8,-905*86294c03
%RAWIMUSA,2283,34713.620;2283,34713.620001092,00000077,64189,19,465,18,0,-895*e413d0e3
%RAWIMUSA,2283,34713.630;2283,34713.630001092,00000077,64186,8,450,18,0,905*da551fac
%RAWIMUSA,2283,34713.640;2283,34713.640001092,00000077,64186,20,442,-18,0,923*b5614c26
%RAWIMUSA,2283,34713.650;2283,34713.650001092,00000077,64186,26,461,-18,-9,-447*0d07037f
%RAWIMUSA,2283,34713.660;2283,34713.660001092,00000077,64187,16,467,18,8,-905*950664ba
%RAWIMUSA,2283,34713.670;2283,34713.670001092,00000077,64187,12,447,18,0,-18*41b0e5c3
%RAWIMUSA,2283,34713.680;2283,34713.680001092,00000077,64189,20,444,0,0,914*fed6760f
%RAWIMUSA,2283,34713.690;2283,34713.690001092,00000077,64185,17,460,-8,-8,503*71701c70
%RAWIMUSA,2283,34713.700;2283,34713.700001092,00000077,64188,14,463,0,8,-914*5dcf6fff
%RAWIMUSA,2283,34713.710;2283,34713.710001092,00000077,64190,18,447,18,0,-905*af648350
%RAWIMUSA,2283,34713.720;2283,34713.720001092,00000077,64188,22,443,9,0,868*03958110
%RAWIMUSA,2283,34713.730;2283,34713.730001092,00000077,64188,16,457,-18,-8,923*f80782c5
%RAWIMUSA,2283,34713.740;2283,34713.740001092,00000077,64185,15,460,-9,0,-393*c3d21f66
%RAWIMUSA,2283,34713.750;2283,34713.750001092,00000077,64189,19,452,18,8,-905*67502dd2
%RAWIMUSA,2283,34713.760;2283,34713.760001092,00000077,64187,21,446,18,0,-63*d9960d58
%RAWIMUSA,2283,34713.770;2283,34713.770001092,00000077,64190,9,455,0,-8,914*8bc02ed8
%RAWIMUSA,2283,34713.780;2283,34713.780001092,00000077,64188,14,457,-18,-8,557*3ab78d73
%RAWIMUSA,2283,34713.790;2283,34713.790001092,00000077,64188,25,450,0,8,-905*96ae8001
%RAWIMUSA,2283,34713.800;2283,34713.800001092,00000077,64189,19,448,27,8,-914*21ed387a
%RAWIMUSA,2283,34713.810;2283,34713.810001092,00000077,64186,13,458,9,0,823*f008c009
%RAWIMUSA,2283,34713.820;2283,34713.820001092,00000077,64185,9,453,-18,-8,923*de365835
%RAWIMUSA,2283,34713.830;2283,34713.830001092,00000077,64189,26,452,-9,0,-356*644a0247
%RAWIMUSA,2283,34713.840;2283,34713.840001092,00000077,64186,22,454,18,8,-905*672ff097
%RAWIMUSA,2283,34713.850;2283,34713.850001092,00000077,64189,8,453,18,9,-109*0aeb763f
%RAWIMUSA,2283,34713.860;2283,34713.860001092,00000077,64186,13,456,0,-8,923*11d1ac99
%RAWIMUSA,2283,34713.870;2283,34713.870001092,00000077,64181,27,449,-18,-8,594*ada46163
%RAWIMUSA,2283,34713.880;2283,34713.880001092,00000077,64190,16,449,9,8,-896*73290e3f
%RAWIMUSA,2283,34713.890;2283,34713.890001092,00000077,64187,11,459,27,8,-905*ff264a65
%RAWIMUSA,2283,34713.900;2283,34713.900001092,00000077,64188,27,457,0,0,768*62ed47e0
%RAWIMUSA,2283,34713.910;2283,34713.910001092,00000077,64187,20,450,-8,-8,923*5f0e1a06
%RAWIMUSA,2283,34713.920;2283,34713.920001092,00000077,64189,10,450,-9,0,-283*8bd79952
%RAWIMUSA,2283,34713.930;2283,34713.930001092,00000077,64187,14,454,18,17,-914*f1f31be9
%RAWIMUSA,2283,34713.940;2283,34713.940001092,00000077,64189,22,456,27,0,-155*432467b1
%RAWIMUSA,2283,34713.950;2283,34713.950001092,00000077,64190,23,447,-8,-8,914*27e7ea50
%RAWIMUSA,2283,34713.960;2283,34713.960001092,00000077,64186,12,448,-18,-8,649*d0b44980
%RAWIMUSA,2283,34713.970;2283,34713.970001092,00000077,64188,15,458,9,8,-905*ce48b5d1
%RAWIMUSA,2283,34713.980;2283,34713.980001092,00000077,64190,21,461,18,8,-914*db0bca81
%RAWIMUSA,2283,34713.990;2283,34713.990001092,00000077,64185,23,449,9,-8,713*f2482fbb
%RAWIMUSA,2283,34714.000;2283,34714.000001092,00000077,64187,14,449,-8,-8,923*8469f7f0
%RAWIMUSA,2283,34714.010;2283,34714.010001092,00000077,64189,17,456,-9,8,-255*11390f7c
%RAWIMUSA,2283,34714.020;2283,34714.020001092,00000077,64188,23,457,18,8,-905*2795782b
%RAWIMUSA,2283,34714.030;2283,34714.030001092,00000077,64184,18,450,18,0,-219*9887371f
%RAWIMUSA,2283,34714.040;2283,34714.040001092,00000077,64188,8,449,-8,-8,914*06b80209
%RAWIMUSA,2283,34714.050;2283,34714.050001092,00000077,64189,20,458,-8,0,685*c925bab7
%RAWIMUSA,2283,34714.060;2283,34714.060001092,00000077,64188,20,462,9,0,-905*d06bf422
%RAWIMUSA,2283,34714.070;2283,34714.070001092,00000077,64185,20,449,18,8,-905*d9581418
%RAWIMUSA,2283,34714.080;2283,34714.080001092,00000077,64188,13,443,0,-8,676*377a654e
%RAWIMUSA,2283,34714.090;2283,34714.090001092,00000077,64188,24,458,-8,0,923*bcca606b
%RAWIMUSA,2283,34714.100;2283,34714.100001092,00000077,64188,16,466,-9,0,-201*de82a095
%RAWIMUSA,2283,34714.110;2283,34714.110001092,00000077,64187,18,449,27,8,-914*d88e6056
%RAWIMUSA,2283,34714.120;2283,34714.120001092,00000077,64191,8,442,18,0,-255*98feb051
%RAWIMUSA,2283,34714.130;2283,34714.130001092,00000077,64184,28,460,-18,-8,905*4915307d
%RAWIMUSA,2283,34714.140;2283,34714.140001092,00000077,64190,4,459,-8,0,749*b258879a
%RAWIMUSA,2283,34714.150;2283,34714.150001092,00000077,64182,28,445,9,8,-923*009a1559
%RAWIMUSA,2283,34714.160;2283,34714.160001092,00000077,64191,9,449,27,0,-886*247ae688
%RAWIMUSA,2283,34714.170;2283,34714.170001092,00000077,64182,32,466,0,-8,594*535639fe
%RAWIMUSA,2283,34714.180;2283,34714.180001092,00000077,64190,2,456,-8,0,941*33317c8b
%RAWIMUSA,2283,34714.190;2283,34714.190001092,00000077,64188,30,444,-9,0,-164*d7a1a563
%RAWIMUSA,2283,34714.200;2283,34714.200001092,00000077,64189,10,452,27,8,-877*308e4bf4
%RAWIMUSA,2283,34714.210;2283,34714.210001092,00000077,64186,30,464,18,0,-329*c95969bc
%RAWIMUSA,2283,34714.220;2283,34714.220001092,00000077,64191,2,455,-18,-8,941*df44ab9d
%RAWIMUSA,2283,34714.230;2283,34714.230001092,00000077,64182,24,443,-8,0,768*05f8b069
%RAWIMUSA,2283,34714.240;2283,34714.240001092,00000077,64190,14,452,9,8,-877*5b62915e
%RAWIMUSA,2283,34714.250;2283,34714.250001092,00000077,64183,26,468,18,8,-914*47fc78a5
%RAWIMUSA,2283,34714.260;2283,34714.260001092,00000077,64186,8,456,9,-8,585*67fe5c9a
%RAWIMUSA,2283,34714.270;2283,34714.270001092,00000077,64185,24,438,-18,-8,896*1ad3da41
%RAWIMUSA,2283,34714.280;2283,34714.280001092,00000077,64188,19,447,0,9,-73*0e1ba32c
%RAWIMUSA,2283,34714.290;2283,34714.290001092,00000077,64188,13,467,18,8,-923*6f45a3b5
%RAWIMUSA,2283,34714.300;2283,34714.300001092,00000077,64187,15,457,18,-9,-338*36475d9c
%RAWIMUSA,2283,34714.310;2283,34714.310001092,00000077,64187,22,439,-8,-8,896*212e9b80
%RAWIMUSA,2283,34714.320;2283,34714.320001092,00000077,64188,34,447,-18,9,859*777dd6c4
%RAWIMUSA,2283,34714.330;2283,34714.330001092,00000077,64189,2,470,18,0,-914*48aca38a
%RAWIMUSA,2283,34714.340;2283,34714.340001092,00000077,64186,13,458,18,0,-895*e45d312e
%RAWIMUSA,2283,34714.350;2283,34714.350001092,00000077,64192,16,439,0,-8,521*414a6bcf
%RAWIMUSA,2283,34714.360;2283,34714.360001092,00000077,64185,36,452,-8,0,923*8f3b5b6a
%RAWIMUSA,2283,34714.370;2283,34714.370001092,00000077,64189,-3,467,0,9,-54*7384e26f
%RAWIMUSA,2283,34714.380;2283,34714.380001092,00000077,64188,25,455,18,8,-905*e815cd12
%RAWIMUSA,2283,34714.390;2283,34714.390001092,00000077,64191,22,439,18,-9,-411*53bc8f9a
%RAWIMUSA,2283,34714.400;2283,34714.400001092,00000077,64186,27,452,-18,0,932*920c6fae
%RAWIMUSA,2283,34714.410;2283,34714.410001092,00000077,64184,-2,465,-8,0,887*1ddf21ef
%RAWIMUSA,2283,34714.420;2283,34714.420001092,00000077,64187,31,456,18,0,-905*9a31a0b4
%RAWIMUSA,2283,34714.430;2283,34714.430001092,00000077,64190,22,444,18,0,-914*337a044e
%RAWIMUSA,2283,34714.440;2283,34714.440001092,00000077,64186,27,453,0,-8,475*8e363937
%RAWIMUSA,2283,34714.450;2283,34714.450001092,00000077,64186,-5,462,-8,0,914*e0380e68
%RAWIMUSA,2283,34714.460;2283,34714.460001092,00000077,64186,31,450,-9,9,9*bb3f9d54
%RAWIMUSA,2283,34714.470;2283,34714.470001092,00000077,64190,24,445,18,0,-923*3dc84683
%RAWIMUSA,2283,34714.480;2283,34714.480001092,00000077,64186,17,453,18,0,-438*8ccaac7a
%RAWIMUSA,2283,34714.490;2283,34714.490001092,00000077,64190,6,462,-8,-8,896*ee10c24d
%RAWIMUSA,2283,34714.500;2283,34714.500001092,00000077,64186,25,454,-18,0,923*49a196dd
%RAWIMUSA,2283,34714.510;2283,34714.510001092,00000077,64189,20,443,18,8,-886*7b06cd4f
%RAWIMUSA,2283,34714.520;2283,34714.520001092,00000077,64189,16,451,27,0,-886*f3bb915d
%RAWIMUSA,2283,34714.530;2283,34714.530001092,00000077,64187,11,463,-8,-8,402*2d41a9b3
%RAWIMUSA,2283,34714.540;2283,34714.540001092,00000077,64184,24,455,-8,0,932*dbe11a8c
%RAWIMUSA,2283,34714.550;2283,34714.550001092,00000077,64186,20,441,-9,9,45*b62d252b
%RAWIMUSA,2283,34714.560;2283,34714.560001092,00000077,64186,11,450,27,0,-895*87d60a8b
%RAWIMUSA,2283,34714.570;2283,34714.570001092,00000077,64190,15,468,9,-9,-521*5a93268a
%RAWIMUSA,2283,34714.580;2283,34714.580001092,00000077,64189,20,452,-8,0,932*c11ab9fa
%RAWIMUSA,2283,34714.590;2283,34714.590001092,00000077,64182,26,442,-8,0,896*feb0dd2d
%RAWIMUSA,2283,34714.600;2283,34714.600001092,00000077,64190,5,454,18,8,-804*f19ce243
%RAWIMUSA,2283,34714.610;2283,34714.610001092,00000077,64184,22,464,18,0,-932*29d54e7a
%RAWIMUSA,2283,34714.620;2283,34714.620001092,00000077,64188,17,450,-8,-8,393*fc83520e
%RAWIMUSA,2283,34714.630;2283,34714.630001092,00000077,64185,31,442,-8,0,896*c403ebf3
%RAWIMUSA,2283,34714.640;2283,34714.640001092,00000077,64192,1,456,0,9,137*ffa47cb2
%RAWIMUSA,2283,34714.650;2283,34714.650001092,00000077,64183,26,463,18,0,-932*3333bb61
%RAWIMUSA,2283,34714.660;2283,34714.660001092,00000077,64191,15,451,18,-9,-539*309a839b
%RAWIMUSA,2283,34714.670;2283,34714.670001092,00000077,64184,32,440,-8,-8,896*660f4925
%RAWIMUSA,2283,34714.680;2283,34714.680001092,00000077,64193,-3,453,-18,9,941*d818d789
%RAWIMUSA,2283,34714.690;2283,34714.690001092,00000077,64184,32,467,18,8,-804*809fb878
%RAWIMUSA,2283,34714.700;2283,34714.700001092,00000077,64193,6,454,18,-9,-895*08bc23a4
%RAWIMUSA,2283,34714.710;2283,34714.710001092,00000077,64185,37,443,0,-9,329*0d60a85a
%RAWIMUSA,2283,34714.720;2283,34714.720001092,00000077,64191,-6,453,-18,9,923*d37d1c8c
%RAWIMUSA,2283,34714.730;2283,34714.730001092,00000077,64186,33,461,0,9,146*5d142b79
%RAWIMUSA,2283,34714.740;2283,34714.740001092,00000077,64191,10,457,27,0,-895*d0510a9e
%RAWIMUSA,2283,34714.750;2283,34714.750001092,00000077,64188,27,444,9,-9,-603*d2baf850
%RAWIMUSA,2283,34714.760;2283,34714.760001092,00000077,64185,2,449,-18,-8,914*1b6a65be
%RAWIMUSA,2283,34714.770;2283,34714.770001092,00000077,64193,26,462,-8,9,923*fdf7a89b
%RAWIMUSA,2283,34714.780;2283,34714.780001092,00000077,64182,27,459,18,8,-740*267c3610
%RAWIMUSA,2283,34714.790;2283,34714.790001092,00000077,64184,0,439,18,-9,-895*6ff32026
%RAWIMUSA,2283,34714.800;2283,34714.800001092,00000077,64187,25,446,-8,-9,256*486cca81
%RAWIMUSA,2283,34714.810;2283,34714.810001092,00000077,64184,14,465,-8,9,932*9256e951
%RAWIMUSA,2283,34714.820;2283,34714.820001092,00000077,64184,26,463,0,0,182*03baa219
%RAWIMUSA,2283,34714.830;2283,34714.830001092,00000077,64194,11,439,27,0,-895*40e25465
%RAWIMUSA,2283,34714.840;2283,34714.840001092,00000077,64182,19,445,9,0,-676*158ec7ba
%RAWIMUSA,2283,34714.850;2283,34714.850001092,00000077,64189,10,465,-18,-8,914*8dcae2a4
%RAWIMUSA,2283,34714.860;2283,34714.860001092,00000077,64188,26,460,-8,9,932*27c28c8c
%RAWIMUSA,2283,34714.870;2283,34714.870001092,00000077,64186,18,444,27,0,-685*10a09f8d
%RAWIMUSA,2283,34714.880;2283,34714.880001092,00000077,64191,5,445,18,0,-905*8a1eac16
%RAWIMUSA,2283,34714.890;2283,34714.890001092,00000077,64185,27,466,-9,-9,228*510e0b3b
%RAWIMUSA,2283,34714.900;2283,34714.900001092,00000077,64187,24,458,-8,0,914*a8831393
%RAWIMUSA,2283,34714.910;2283,34714.910001092,00000077,64188,5,443,0,9,256*c97d28f5
%RAWIMUSA,2283,34714.920;2283,34714.920001092,00000077,64188,18,448,18,0,-914*6ee9d0f6
%RAWIMUSA,2283,34714.930;2283,34714.930001092,00000077,64189,27,464,9,0,-722*0d652d86
%RAWIMUSA,2283,34714.940;2283,34714.940001092,00000077,64185,18,459,-8,-8,932*5d2c7672
%RAWIMUSA,2283,34714.950;2283,34714.950001092,00000077,64187,14,443,-8,9,923*9026d5ee
%RAWIMUSA,2283,34714.960;2283,34714.960001092,00000077,64186,12,451,18,8,-639*03249973
%RAWIMUSA,2283,34714.970;2283,34714.970001092,00000077,64189,22,465,18,-9,-914*aa3b3f96
%RAWIMUSA,2283,34714.980;2283,34714.980001092,00000077,64188,26,459,0,-9,182*f08af7d9
%RAWIMUSA,2283,34714.990;2283,34714.990001092,00000077,64187,12,445,-18,0,914*6638f39c
%RAWIMUSA,2283,34715.000;2283,34715.000001092,00000077,64186,11,448,9,9,310*7bcdc7fa
%RAWIMUSA,2283,34715.010;2283,34715.010001092,00000077,64187,25,461,18,0,-914*af180f68
%RAWIMUSA,2283,34715.020;2283,34715.020001092,00000077,64188,20,462,9,-9,-758*1aaf75a2
%RAWIMUSA,2283,34715.030;2283,34715.030001092,00000077,64189,13,451,-18,0,932*7fa1e1dc
%RAWIMUSA,2283,34715.040;2283,34715.040001091,00000077,64186,17,443,0,9,914*ae94819b
%RAWIMUSA,2283,34715.050;2283,34715.050001091,00000077,64188,18,454,18,8,-575*4de4c1df
%RAWIMUSA,2283,34715.060;2283,34715.060001091,00000077,64188,18,460,18,-9,-905*82719403
%RAWIMUSA,2283,34715.070;2283,34715.070001091,00000077,64187,15,453,-9,-9,137*e7c31767
%RAWIMUSA,2283,34715.080;2283,34715.080001091,00000077,64188,17,449,-18,9,923*fe553741
%RAWIMUSA,2283,34715.090;2283,34715.090001091,00000077,64189,21,455,9,9,347*63e66858
%RAWIMUSA,2283,34715.100;2283,34715.100001091,00000077,64186,15,456,27,-9,-905*90302a4d
%RAWIMUSA,2283,34715.110;2283,34715.110001091,00000077,64192,16,455,0,0,-813*ba1c333b
%RAWIMUSA,2283,34715.120;2283,34715.120001091,00000077,64187,20,449,-8,0,914*c0a92d43
%RAWIMUSA,2283,34715.130;2283,34715.130001091,00000077,64186,17,452,-8,0,914*45fda091
%RAWIMUSA,2283,34715.140;2283,34715.140001091,00000077,64186,13,455,18,8,-530*277039c2
%RAWIMUSA,2283,34715.150;2283,34715.150001091,00000077,64188,21,455,27,-9,-905*61127b04
%RAWIMUSA,2283,34715.160;2283,34715.160001091,00000077,64191,21,453,-9,-9,73*afbca07c
%RAWIMUSA,2283,34715.170;2283,34715.170001091,00000077,64188,13,451,-18,9,905*deb04ed0
%RAWIMUSA,2283,34715.180;2283,34715.180001091,00000077,64189,16,455,9,9,402*cfc18369
%RAWIMUSA,2283,34715.190;2283,34715.190001091,00000077,64186,25,456,18,0,-905*6f795270
%RAWIMUSA,2283,34715.200;2283,34715.200001091,00000077,64188,19,450,9,-9,-859*bc203ff2
%RAWIMUSA,2283,34715.210;2283,34715.210001091,00000077,64188,9,451,-18,0,914*f04b79a1
%RAWIMUSA,2283,34715.220;2283,34715.220001091,00000077,64188,19,459,0,9,914*d6377917
%RAWIMUSA,2283,34715.230;2283,34715.230001091,00000077,64186,24,459,18,0,-466*37e7c03b
%RAWIMUSA,2283,34715.240;2283,34715.240001091,00000077,64186,15,451,18,-9,-905*a10a4b95
%RAWIMUSA,2283,34715.250;2283,34715.250001091,00000077,64188,11,451,-18,0,27*38c7f311
%RAWIMUSA,2283,34715.260;2283,34715.260001091,00000077,64186,19,458,-8,9,914*70034e33
%RAWIMUSA,2283,34715.270;2283,34715.270001091,00000077,64188,25,457,9,9,448*995c27e6
%RAWIMUSA,2283,34715.280;2283,34715.280001091,00000077,64185,12,451,27,-9,-905*6a134275
%RAWIMUSA,2283,34715.290;2283,34715.290001091,00000077,64186,13,449,0,-9,-895*1712a992
%RAWIMUSA,2283,34715.300;2283,34715.300001091,00000077,64187,19,454,-18,0,923*cc9174a0
%RAWIMUSA,2283,34715.310;2283,34715.310001091,00000077,64189,16,450,0,9,914*7221f953
%RAWIMUSA,2283,34715.320;2283,34715.320001091,00000077,64188,18,454,18,0,-438*6b69f9c0
%RAWIMUSA,2283,34715.330;2283,34715.330001091,00000077,64187,15,456,18,-9,-895*cefd2737
%RAWIMUSA,2283,34715.340;2283,34715.340001091,00000077,64188,18,453,-18,0,-27*eee35e89
%RAWIMUSA,2283,34715.350;2283,34715.350001091,00000077,64186,22,454,-8,9,914*6848385f
%RAWIMUSA,2283,34715.360;2283,34715.360001091,00000077,64189,19,452,9,9,503*d578f61f
%RAWIMUSA,2283,34715.370;2283,34715.370001091,00000077,64182,16,450,27,-9,-905*b2e41f69
%RAWIMUSA,2283,34715.380;2283,34715.380001091,00000077,64190,16,450,0,-9,-914*db3a2ba6
%RAWIMUSA,2283,34715.390;2283,34715.390001091,00000077,64185,19,455,-18,9,877*425bc690
%RAWIMUSA,2283,34715.400;2283,34715.400001091,00000077,64188,20,451,0,9,914*d250a338
%RAWIMUSA,2283,34715.410;2283,34715.410001091,00000077,64187,17,451,18,0,-393*391df2c9
%RAWIMUSA,2283,34715.420;2283,34715.420001091,00000077,64189,14,450,18,-9,-914*ca51fb3b
%RAWIMUSA,2283,34715.430;2283,34715.430001091,00000077,64189,28,458,-9,0,-73*731a41f7
%RAWIMUSA,2283,34715.440;2283,34715.440001091,00000077,64186,13,456,-18,9,923*ec2169f9
%RAWIMUSA,2283,34715.450;2283,34715.450001091,00000077,64184,12,444,18,0,548*236ff019
%RAWIMUSA,2283,34715.460;2283,34715.460001091,00000077,64186,21,457,18,0,-905*14c99fe6
%RAWIMUSA,2283,34715.470;2283,34715.470001091,00000077,64189,27,463,0,-9,-914*8aa21f60
%RAWIMUSA,2283,34715.480;2283,34715.480001091,00000077,64187,14,448,-18,0,823*b4e32f8c
%RAWIMUSA,2283,34715.490;2283,34715.490001091,00000077,64188,4,442,9,9,905*ec53ac94
%RAWIMUSA,2283,34715.500;2283,34715.500001091,00000077,64187,24,454,18,0,-338*65071323
%RAWIMUSA,2283,34715.510;2283,34715.510001091,00000077,64184,27,462,18,0,-895*049be60a
%RAWIMUSA,2283,34715.520;2283,34715.520001091,00000077,64189,13,449,-18,0,-118*211919d3
%RAWIMUSA,2283,34715.530;2283,34715.530001091,00000077,64188,11,445,-8,9,923*3f9ffc86
%RAWIMUSA,2283,34715.540;2283,34715.540001091,00000077,64186,26,456,9,0,585*358e2a8f
%RAWIMUSA,2283,34715.550;2283,34715.550001091,00000077,64189,22,463,27,-9,-905*4611d66b
%RAWIMUSA,2283,34715.560;2283,34715.560001091,00000077,64186,11,451,0,-9,-914*20d81218
%RAWIMUSA,2283,34715.570;2283,34715.570001091,00000077,64187,13,443,-18,9,768*a99be87d
%RAWIMUSA,2283,34715.580;2283,34715.580001091,00000077,64188,26,454,0,9,923*350129c9
%RAWIMUSA,2283,34715.590;2283,34715.590001091,00000077,64184,24,466,27,0,-283*0962df04
%RAWIMUSA,2283,34715.600;2283,34715.600001091,00000077,64186,8,455,9,-9,-914*c22d0efd
%RAWIMUSA,2283,34715.610;2283,34715.610001091,00000077,64191,12,442,-18,0,-164*00e0ae67
%RAWIMUSA,2283,34715.620;2283,34715.620001091,00000077,64183,24,450,-8,9,914*8eb1f9cb
%RAWIMUSA,2283,34715.630;2283,34715.630001091,00000077,64188,15,468,18,0,658*32d26a33
%RAWIMUSA,2283,34715.640;2283,34715.640001091,00000077,64188,15,459,27,-9,-905*8c2b0fc4
%RAWIMUSA,2283,34715.650;2283,34715.650001091,00000077,64186,21,438,-9,-9,-905*4f581f62
%RAWIMUSA,2283,34715.660;2283,34715.660001091,00000077,64188,25,453,-8,9,713*3e3a8130
%RAWIMUSA,2283,34715.670;2283,34715.670001091,00000077,64186,15,466,0,9,914*37b1bb05
%RAWIMUSA,2283,34715.680;2283,34715.680001091,00000077,64186,5,452,18,-9,-237*f6790b4c
%RAWIMUSA,2283,34715.690;2283,34715.690001091,00000077,64185,23,443,18,0,-905*e8e9394c
%RAWIMUSA,2283,34715.700;2283,34715.700001091,00000077,64186,23,454,-18,-9,-219*1e03cd10
%RAWIMUSA,2283,34715.710;2283,34715.710001091,00000077,64188,14,465,-8,9,914*09bfed9b
%RAWIMUSA,2283,34715.720;2283,34715.720001091,00000077,64190,11,457,18,9,704*f0ad12bb
%RAWIMUSA,2283,34715.730;2283,34715.730001091,00000077,64188,22,441,18,-9,-914*bfcda240
%RAWIMUSA,2283,34715.740;2283,34715.740001091,00000077,64188,20,453,-9,0,-905*869153ca
%RAWIMUSA,2283,34715.750;2283,34715.750001091,00000077,64189,11,465,-18,9,658*c7da620f
%RAWIMUSA,2283,34715.760;2283,34715.760001091,00000077,64187,16,455,9,0,923*6714cfe2
%RAWIMUSA,2283,34715.770;2283,34715.770001091,00000077,64186,26,448,18,-9,-191*b460eca5
%RAWIMUSA,2283,34715.780;2283,34715.780001091,00000077,64187,20,447,9,0,-905*a17bd158
%RAWIMUSA,2283,34715.790;2283,34715.790001091,00000077,64185,8,461,-9,0,-265*f0715286
%RAWIMUSA,2283,34715.800;2283,34715.800001091,00000077,64187,16,456,-18,9,914*7c0a2b82
%RAWIMUSA,2283,34715.810;2283,34715.810001091,00000077,64188,24,447,18,0,759*d734c9a1
%RAWIMUSA,2283,34715.820;2283,34715.820001091,00000077,64187,17,447,27,-9,-905*c36beb2c
%RAWIMUSA,2283,34715.830;2283,34715.830001091,00000077,64186,7,458,-9,0,-923*556d0226
%RAWIMUSA,2283,34715.840;2283,34715.840001091,00000077,64188,23,460,-18,9,612*b5a1f0b7
%RAWIMUSA,2283,34715.850;2283,34715.850001091,00000077,64189,28,451,9,0,914*c57525cd
%RAWIMUSA,2283,34715.860;2283,34715.860001091,00000077,64188,16,447,18,0,-127*579b2b10
%RAWIMUSA,2283,34715.870;2283,34715.870001091,00000077,64188,9,456,9,-9,-914*bdc9f7d0
%RAWIMUSA,2283,34715.880;2283,34715.880001091,00000077,64188,22,457,-9,0,-319*0eaa79f1
%RAWIMUSA,2283,34715.890;2283,34715.890001091,00000077,64186,27,454,-8,9,923*57307ed2
%RAWIMUSA,2283,34715.900;2283,34715.900001091,00000077,64189,18,449,18,0,804*bf228588
%RAWIMUSA,2283,34715.910;2283,34715.910001091,00000077,64190,10,452,27,-9,-905*289bd890
%RAWIMUSA,2283,34715.920;2283,34715.920001091,00000077,64185,19,459,-9,0,-896*891a2fcf
%RAWIMUSA,2283,34715.930;2283,34715.930001091,00000077,64186,23,449,-18,9,557*cc0fa4a7
%RAWIMUSA,2283,34715.940;2283,34715.940001091,00000077,64186,16,448,9,0,914*32055945
%RAWIMUSA,2283,34715.950;2283,34715.950001091,00000077,64187,15,459,18,0,-91*9bd8d0fa
%RAWIMUSA,2283,34715.960;2283,34715.960001091,00000077,64189,19,462,9,-9,-905*94d57a64
%RAWIMUSA,2283,34715.970;2283,34715.970001091,00000077,64185,20,450,-9,0,-356*d8c5bcf2
%RAWIMUSA,2283,34715.980;2283,34715.980001091,00000077,64187,17,444,-8,9,923*c20e8360
%RAWIMUSA,2283,34715.990;2283,34715.990001091,00000077,64188,13,455,18,0,859*f4127ab4
%RAWIMUSA,2283,34716.000;2283,34716.000001091,00000077,64187,20,462,18,-9,-914*f6701e0c
%RAWIMUSA,2283,34716.010;2283,34716.010001091,00000077,64186,23,451,-9,0,-905*b006b50a
%RAWIMUSA,2283,34716.020;2283,34716.020001091,00000077,64188,13,445,-18,9,530*91a60913
%RAWIMUSA,2283,34716.030;2283,34716.030001091,00000077,64186,17,460,9,9,914*76a041c1
%RAWIMUSA,2283,34716.040;2283,34716.040001091,00000077,64189,21,465,27,-9,-45*4a3490a1
%RAWIMUSA,2283,34716.050;2283,34716.050001091,00000077,64188,21,451,0,-9,-905*b18e5998
%RAWIMUSA,2283,34716.060;2283,34716.060001091,00000077,64185,20,438,-9,0,-420*813e760d
%RAWIMUSA,2283,34716.070;2283,34716.070001091,00000077,64186,15,454,-8,9,923*6a94e2df
%RAWIMUSA,2283,34716.080;2283,34716.080001091,00000077,64188,20,465,18,0,905*175fe0e7
%RAWIMUSA,2283,34716.090;2283,34716.090001091,00000077,64188,14,453,18,-9,-914*20793ea2
%RAWIMUSA,2283,34716.100;2283,34716.100001091,00000077,64188,15,445,-9,0,-905*f1a05a4f
%RAWIMUSA,2283,34716.110;2283,34716.110001091,00000077,64188,24,459,-8,9,475*3a2d3381
%RAWIMUSA,2283,34716.120;2283,34716.120001091,00000077,64184,20,461,9,0,932*8d501918
%RAWIMUSA,2283,34716.130;2283,34716.130001091,00000077,64190,12,446,18,0,9*415e2f15
%RAWIMUSA,2283,34716.140;2283,34716.140001091,00000077,64184,17,443,0,-9,-905*1d49171d
%RAWIMUSA,2283,34716.150;2283,34716.150001091,00000077,64188,21,458,-9,8,-475*7c27a387
%RAWIMUSA,2283,34716.160;2283,34716.160001091,00000077,64191,19,466,-8,9,914*65944a4c
%RAWIMUSA,2283,34716.170;2283,34716.170001091,00000077,64190,15,451,18,-8,914*748e569f
%RAWIMUSA,2283,34716.180;2283,34716.180001091,00000077,64189,15,440,27,-9,-868*cc5135eb
%RAWIMUSA,2283,34716.190;2283,34716.190001091,00000077,64187,21,456,-18,8,-905*01e23e4e
%RAWIMUSA,2283,34716.200;2283,34716.200001091,00000077,64188,21,466,-8,9,420*d8eea70d
%RAWIMUSA,2283,34716.210;2283,34716.210001091,00000077,64188,15,449,9,0,914*30b0df0f
%RAWIMUSA,2283,34716.220;2283,34716.220001091,00000077,64188,20,439,18,-9,54*d84ee717
%RAWIMUSA,2283,34716.230;2283,34716.230001091,00000077,64188,18,460,9,0,-905*fee29b77
%RAWIMUSA,2283,34716.240;2283,34716.240001091,00000077,64187,18,466,-18,8,-521*4bf62562
%RAWIMUSA,2283,34716.250;2283,34716.250001091,00000077,64189,17,445,0,9,905*958714ba
%RAWIMUSA,2283,34716.260;2283,34716.260001091,00000077,64186,16,440,18,-8,923*1bbef778
%RAWIMUSA,2283,34716.270;2283,34716.270001091,00000077,64187,17,460,18,0,-822*c83a387a
%RAWIMUSA,2283,34716.280;2283,34716.280001091,00000077,64188,23,473,-18,0,-914*5b2bb2ab
%RAWIMUSA,2283,34716.290;2283,34716.290001091,00000077,64190,17,447,-8,9,365*c52e3268
%RAWIMUSA,2283,34716.300;2283,34716.300001091,00000077,64183,15,432,9,0,923*03d758ca
%RAWIMUSA,2283,34716.310;2283,34716.310001091,00000077,64192,19,456,27,-9,100*7938e99f
%RAWIMUSA,2283,34716.320;2283,34716.320001091,00000077,64188,18,473,0,0,-914*67636600
%RAWIMUSA,2283,34716.330;2283,34716.330001091,00000077,64189,12,449,-18,0,-566*3326a523
%RAWIMUSA,2283,34716.340;2283,34716.340001091,00000077,64189,18,444,0,9,923*c2a5fdc7
%RAWIMUSA,2283,34716.350;2283,34716.350001091,00000077,64188,18,460,18,-8,923*bae185d5
%RAWIMUSA,2283,34716.360;2283,34716.360001091,00000077,64185,23,464,9,0,-777*358b1e1f
%RAWIMUSA,2283,34716.370;2283,34716.370001091,00000077,64188,13,444,-9,0,-905*3697bbf7
%RAWIMUSA,2283,34716.380;2283,34716.380001091,00000077,64185,16,447,-18,9,329*d8baecef
%RAWIMUSA,2283,34716.390;2283,34716.390001091,00000077,64186,16,460,18,0,914*3465348a
%RAWIMUSA,2283,34716.400;2283,34716.400001091,00000077,64188,23,462,18,-9,164*ac1c2afe
%RAWIMUSA,2283,34716.410;2283,34716.410001091,00000077,64187,17,446,0,0,-896*6ae9c173
%RAWIMUSA,2283,34716.420;2283,34716.420001091,00000077,64186,14,446,-9,8,-621*4e555027
%RAWIMUSA,2283,34716.430;2283,34716.430001091,00000077,64188,25,464,-8,9,914*a92ad1f3
%RAWIMUSA,2283,34716.440;2283,34716.440001091,00000077,64187,16,459,18,-8,923*8567766b
%RAWIMUSA,2283,34716.450;2283,34716.450001091,00000077,64185,16,444,18,-19,-722*d24666e1
%RAWIMUSA,2283,34716.460;2283,34716.460001091,00000077,64187,18,446,-18,8,-914*6a0a3512
%RAWIMUSA,2283,34716.470;2283,34716.470001091,00000077,64183,20,463,-8,9,274*c71376a7
%RAWIMUSA,2283,34716.480;2283,34716.480001091,00000077,64189,19,461,18,0,914*10aa90af
%RAWIMUSA,2283,34716.490;2283,34716.490001091,00000077,64186,10,438,18,-9,210*81ba1b86
%RAWIMUSA,2283,34716.500;2283,34716.500001091,00000077,64187,17,448,0,0,-905*ff42f24c
%RAWIMUSA,2283,34716.510;2283,34716.510001091,00000077,64187,23,464,-18,8,-676*40a93b63
%RAWIMUSA,2283,34716.520;2283,34716.520001091,00000077,64185,15,457,9,0,914*e6cd9542
%RAWIMUSA,2283,34716.530;2283,34716.530001091,00000077,64189,18,439,18,0,914*a7e14022
%RAWIMUSA,2283,34716.540;2283,34716.540001091,00000077,64188,22,457,9,-9,-676*21dc6cc2
%RAWIMUSA,2283,34716.550;2283,34716.550001091,00000077,64191,16,466,-9,0,-905*0fc5ff8f
%RAWIMUSA,2283,34716.560;2283,34716.560001091,00000077,64186,12,451,-18,9,219*994c3e8f
%RAWIMUSA,2283,34716.570;2283,34716.570001091,00000077,64190,22,443,18,0,914*3395c98b
%RAWIMUSA,2283,34716.580;2283,34716.580001091,00000077,64186,17,456,27,-9,265*00b3747a
%RAWIMUSA,2283,34716.590;2283,34716.590001091,00000077,64189,15,462,-9,0,-914*e95e5956
%RAWIMUSA,2283,34716.600;2283,34716.600001091,00000077,64186,17,453,-18,8,-722*462c0dbb
%RAWIMUSA,2283,34716.610;2283,34716.610001091,00000077,64187,19,441,9,0,914*78fb2deb
%RAWIMUSA,2283,34716.620;2283,34716.620001091,00000077,64188,24,456,18,0,914*01e5265c
%RAWIMUSA,2283,34716.630;2283,34716.630001091,00000077,64188,5,460,9,-9,-621*e964015a
%RAWIMUSA,2283,34716.640;2283,34716.640001091,00000077,64189,20,451,-18,8,-905*81cf7d6a
%RAWIMUSA,2283,34716.650;2283,34716.650001091,00000077,64188,23,448,-9,0,164*41e8e35c
%RAWIMUSA,2283,34716.660;2283,34716.660001091,00000077,64187,20,448,18,0,923*53063dbc
%RAWIMUSA,2283,34716.670;2283,34716.670001091,00000077,64189,17,465,18,0,301*55831385
%RAWIMUSA,2283,34716.680;2283,34716.680001091,00000077,64187,14,455,0,0,-905*ef1dfc64
%RAWIMUSA,2283,34716.690;2283,34716.690001091,00000077,64184,19,439,-18,8,-768*e8236785
%RAWIMUSA,2283,34716.700;2283,34716.700001091,00000077,64188,23,449,9,0,914*b78b4488
%RAWIMUSA,2283,34716.710;2283,34716.710001091,00000077,64186,13,465,18,0,932*c1c3c3b0
%RAWIMUSA,2283,34716.720;2283,34716.720001091,00000077,64187,15,456,9,-9,-575*96af88bc
%RAWIMUSA,2283,34716.730;2283,34716.730001091,00000077,64189,24,441,-18,8,-905*94e53c63
%RAWIMUSA,2283,34716.740;2283,34716.740001091,00000077,64187,19,452,-9,9,118*1b0014b7
%RAWIMUSA,2283,34716.750;2283,34716.750001091,00000077,64187,16,466,18,-8,923*29b0f2d1
%RAWIMUSA,2283,34716.760;2283,34716.760001091,00000077,64186,17,454,27,-9,356*f3227116
%RAWIMUSA,2283,34716.770;2283,34716.770001091,00000077,64189,18,441,-9,8,-905*fadd849d
%RAWIMUSA,2283,34716.780;2283,34716.780001091,00000077,64187,23,455,-18,8,-813*d66d4f56
%RAWIMUSA,2283,34716.790;2283,34716.790001091,00000077,64188,12,465,9,-8,905*070f3d07
%RAWIMUSA,2283,34716.800;2283,34716.800001091,00000077,64187,13,453,18,-8,914*18b1da75
%RAWIMUSA,2283,34716.810;2283,34716.810001091,00000077,64187,24,443,9,0,-521*624b1124
%RAWIMUSA,2283,34716.820;2283,34716.820001091,00000077,64189,17,453,-18,8,-905*7c4f1dda
%RAWIMUSA,2283,34716.830;2283,34716.830001091,00000077,64187,13,465,-9,9,73*9b8e22a6
%RAWIMUSA,2283,34716.840;2283,34716.840001091,00000077,64185,19,454,18,-8,914*0bde56fc
%RAWIMUSA,2283,34716.850;2283,34716.850001091,00000077,64191,23,444,27,-8,411*17aeeccb
%RAWIMUSA,2283,34716.860;2283,34716.860001091,00000077,64186,22,459,-18,8,-905*9ccce4bd
%RAWIMUSA,2283,34716.870;2283,34716.870001091,00000077,64190,8,465,-9,0,-877*7856762c
%RAWIMUSA,2283,34716.880;2283,34716.880001091,00000077,64187,19,450,9,0,923*5c717d71
%RAWIMUSA,2283,34716.890;2283,34716.890001091,00000077,64188,25,438,18,-8,923*a0f1c4b0
%RAWIMUSA,2283,34716.900;2283,34716.900001091,00000077,64187,10,458,9,0,-475*ea470952
%RAWIMUSA,2283,34716.910;2283,34716.910001091,00000077,64184,13,465,-9,8,-905*835cc8a6
%RAWIMUSA,2283,34716.920;2283,34716.920001091,00000077,64188,26,451,-9,9,18*bf05a8e9
%RAWIMUSA,2283,34716.930;2283,34716.930001091,00000077,64188,20,447,18,-8,923*f174bfd5
%RAWIMUSA,2283,34716.940;2283,34716.940001091,00000077,64186,11,454,18,-8,457*2eeec382
%RAWIMUSA,2283,34716.950;2283,34716.950001090,00000077,64187,13,462,-9,8,-914*40801efc
%RAWIMUSA,2283,34716.960;2283,34716.960001090,00000077,64190,26,451,-9,8,-896*e9d2cee3
%RAWIMUSA,2283,34716.970;2283,34716.970001090,00000077,64188,20,446,0,-8,905*efd18be6
%RAWIMUSA,2283,34716.980;2283,34716.980001090,00000077,64190,14,457,28,0,914*a6ca7731
%RAWIMUSA,2283,34716.990;2283,34716.990001090,00000077,64184,15,461,0,0,-429*99076fbb
%RAWIMUSA,2283,34717.000;2283,34717.000001090,00000077,64186,23,451,-9,8,-905*ea347fab
%RAWIMUSA,2283,34717.010;2283,34717.010001090,00000077,64191,19,445,-9,0,-27*271b32f5
%RAWIMUSA,2283,34717.020;2283,34717.020001090,00000077,64187,11,454,18,0,923*323c9f90
%RAWIMUSA,2283,34717.030;2283,34717.030001090,00000077,64189,16,455,27,-8,503*0228c14c
%RAWIMUSA,2283,34717.040;2283,34717.040001090,00000077,64187,26,453,-18,8,-905*ee770b9c
%RAWIMUSA,2283,34717.050;2283,34717.050001090,00000077,64185,19,445,-9,0,-896*159bf8a1
%RAWIMUSA,2283,34717.060;2283,34717.060001090,00000077,64189,9,453,9,0,859*c2149f97
%RAWIMUSA,2283,34717.070;2283,34717.070001090,00000077,64184,18,464,28,-8,914*a52adb57
%RAWIMUSA,2283,34717.080;2283,34717.080001090,00000077,64186,25,450,0,0,-383*fff445d7
%RAWIMUSA,2283,34717.090;2283,34717.090001090,00000077,64190,18,446,-9,8,-896*0359b63b
%RAWIMUSA,2283,34717.100;2283,34717.100001090,00000077,64187,15,459,-9,0,-82*d6d40232
%RAWIMUSA,2283,34717.110;2283,34717.110001090,00000077,64186,18,464,18,-8,923*40c80277
%RAWIMUSA,2283,34717.120;2283,34717.120001090,00000077,64187,18,450,18,-8,557*6553dbe6
%RAWIMUSA,2283,34717.130;2283,34717.130001090,00000077,64187,15,442,-9,8,-914*db35643d
%RAWIMUSA,2283,34717.140;2283,34717.140001090,00000077,64186,20,453,-9,17,-905*67e166b8
%RAWIMUSA,2283,34717.150;2283,34717.150001090,00000077,64191,22,464,9,-8,823*8fcfafaa
%RAWIMUSA,2283,34717.160;2283,34717.160001090,00000077,64186,17,462,18,-8,914*5d8b27ee
%RAWIMUSA,2283,34717.170;2283,34717.170001090,00000077,64187,10,440,9,0,-329*86701c8f
%RAWIMUSA,2283,34717.180;2283,34717.180001090,00000077,64186,21,444,-18,8,-905*75c916df
%RAWIMUSA,2283,34717.190;2283,34717.190001090,00000077,64187,23,468,0,0,-127*36c89862
%RAWIMUSA,2283,34717.200;2283,34717.200001090,00000077,64188,18,462,18,0,923*91b24592
%RAWIMUSA,2283,34717.210;2283,34717.210001090,00000077,64190,16,440,9,-8,603*c2ec3c3d
%RAWIMUSA,2283,34717.220;2283,34717.220001090,00000077,64188,15,445,-9,8,-905*22dc768d
%RAWIMUSA,2283,34717.230;2283,34717.230001090,00000077,64186,21,462,-9,8,-905*d0021fde
%RAWIMUSA,2283,34717.240;2283,34717.240001090,00000077,64186,21,469,9,-8,759*6ecc3428
%RAWIMUSA,2283,34717.250;2283,34717.250001090,00000077,64185,11,445,28,-8,914*e0347fc4
%RAWIMUSA,2283,34717.260;2283,34717.260001090,00000077,64188,24,441,0,0,-283*a0c21629
%RAWIMUSA,2283,34717.270;2283,34717.270001090,00000077,64191,16,465,-18,8,-896*33090129
%RAWIMUSA,2283,34717.280;2283,34717.280001090,00000077,64185,14,461,0,-9,-173*e840f470
%RAWIMUSA,2283,34717.290;2283,34717.290001090,00000077,64189,17,441,18,0,923*a80180c1
%RAWIMUSA,2283,34717.300;2283,34717.300001090,00000077,64191,17,453,18,-8,658*12d5a52d
%RAWIMUSA,2283,34717.310;2283,34717.310001090,00000077,64188,25,466,-9,8,-896*8efe5ceb
%RAWIMUSA,2283,34717.320;2283,34717.320001090,00000077,64186,13,448,-18,8,-914*93168d22
%RAWIMUSA,2283,34717.330;2283,34717.330001090,00000077,64189,12,435,18,-8,704*dfd2edb0
%RAWIMUSA,2283,34717.340;2283,34717.340001090,00000077,64186,25,455,18,0,914*d2e2b354
%RAWIMUSA,2283,34717.350;2283,34717.350001090,00000077,64191,19,472,0,0,-228*cb7b1541
%RAWIMUSA,2283,34717.360;2283,34717.360001090,00000077,64184,14,452,-9,8,-905*984d816a
%RAWIMUSA,2283,34717.370;2283,34717.370001090,00000077,64187,17,438,-9,0,-228*4fe299f1
%RAWIMUSA,2283,34717.380;2283,34717.380001090,00000077,64185,21,449,28,-8,923*e7faad11
%RAWIMUSA,2283,34717.390;2283,34717.390001090,00000077,64187,20,464,18,0,713*8f2495f5
%RAWIMUSA,2283,34717.400;2283,34717.400001090,00000077,64188,13,458,-18,8,-914*7093efa8
%RAWIMUSA,2283,34717.410;2283,34717.410001090,00000077,64189,14,447,-18,0,-905*8247d1bd
%RAWIMUSA,2283,34717.420;2283,34717.420001090,00000077,64189,21,449,18,0,658*dd55dee2
%RAWIMUSA,2283,34717.430;2283,34717.430001090,00000077,64185,11,457,18,-8,923*66d5ba48
%RAWIMUSA,2283,34717.440;2283,34717.440001090,00000077,64190,20,456,0,0,-182*e116a575
%RAWIMUSA,2283,34717.450;2283,34717.450001090,00000077,64188,23,452,-18,8,-914*5c54de61
%RAWIMUSA,2283,34717.460;2283,34717.460001090,00000077,64188,17,450,0,0,-265*0d02aebe
%RAWIMUSA,2283,34717.470;2283,34717.470001090,00000077,64188,15,455,18,-8,923*1fe1269e
%RAWIMUSA,2283,34717.480;2283,34717.480001090,00000077,64187,19,454,18,0,749*6f5433ae
%RAWIMUSA,2283,34717.490;2283,34717.490001090,00000077,64189,18,449,-18,8,-905*e1d751b2
%RAWIMUSA,2283,34717.500;2283,34717.500001090,00000077,64186,18,451,-9,0,-914*0a2d6c31
%RAWIMUSA,2283,34717.510;2283,34717.510001090,00000077,64189,15,458,18,-8,603*6ebfb0c1
%RAWIMUSA,2283,34717.520;2283,34717.520001090,00000077,64186,16,455,18,0,923*ea5d3be5
%RAWIMUSA,2283,34717.530;2283,34717.530001090,00000077,64186,20,451,0,0,-137*63c3dbea
%RAWIMUSA,2283,34717.540;2283,34717.540001090,00000077,64187,16,452,-18,8,-905*14051a16
%RAWIMUSA,2283,34717.550;2283,34717.550001090,00000077,64188,22,458,0,0,-329*bb21ce30
%RAWIMUSA,2283,34717.560;2283,34717.560001090,00000077,64187,19,453,18,-8,923*3c1b4370
%RAWIMUSA,2283,34717.570;2283,34717.570001090,00000077,64189,12,452,9,0,804*1d4442e1
%RAWIMUSA,2283,34717.580;2283,34717.580001090,00000077,64189,21,457,-9,8,-905*780d3d03
%RAWIMUSA,2283,34717.590;2283,34717.590001090,00000077,64186,16,458,-9,0,-914*a04b74a8
%RAWIMUSA,2283,34717.600;2283,34717.600001090,00000077,64188,17,450,18,0,557*4388637d
%RAWIMUSA,2283,34717.610;2283,34717.610001090,00000077,64189,22,449,18,-8,914*cf88f882
%RAWIMUSA,2283,34717.620;2283,34717.620001090,00000077,64189,16,458,-9,9,-73*73b25470
%RAWIMUSA,2283,34717.630;2283,34717.630001090,00000077,64185,14,456,-18,8,-914*3ed17c72
%RAWIMUSA,2283,34717.640;2283,34717.640001090,00000077,64190,14,444,9,0,-374*9f737dba
%RAWIMUSA,2283,34717.650;2283,34717.650001090,00000077,64188,24,451,18,-8,923*ce807e44
%RAWIMUSA,2283,34717.660;2283,34717.660001090,00000077,64189,21,462,9,0,850*6fe72b29
%RAWIMUSA,2283,34717.670;2283,34717.670001090,00000077,64187,11,453,-9,0,-914*1aa01d82
%RAWIMUSA,2283,34717.680;2283,34717.680001090,00000077,64187,17,439,-18,0,-905*37b58c08
%RAWIMUSA,2283,34717.690;2283,34717.690001090,00000077,64186,22,457,18,-8,512*a14278ec
%RAWIMUSA,2283,34717.700;2283,34717.700001090,00000077,64186,16,465,28,0,923*a2965ad6
%RAWIMUSA,2283,34717.710;2283,34717.710001090,00000077,64187,14,452,-9,9,-27*e2f20fa8
%RAWIMUSA,2283,34717.720;2283,34717.720001090,00000077,64189,22,443,-9,8,-914*6c84323c
%RAWIMUSA,2283,34717.730;2283,34717.730001090,00000077,64187,16,456,0,-9,-420*91cf76af
%RAWIMUSA,2283,34717.740;2283,34717.740001090,00000077,64189,18,463,28,-8,914*961ce606
%RAWIMUSA,2283,34717.750;2283,34717.750001090,00000077,64186,19,449,9,0,905*ccbdec03
%RAWIMUSA,2283,34717.760;2283,34717.760001090,00000077,64185,19,444,-18,8,-896*0dda2c84
%RAWIMUSA,2283,34717.770;2283,34717.770001090,00000077,64187,18,461,-9,0,-896*91b763b9
%RAWIMUSA,2283,34717.780;2283,34717.780001090,00000077,64188,13,460,27,-8,466*a77f76ad
%RAWIMUSA,2283,34717.790;2283,34717.790001090,00000077,64186,18,443,18,0,905*327fbea0
%RAWIMUSA,2283,34717.800;2283,34717.800001090,00000077,64190,26,445,-9,9,18*70069268
%RAWIMUSA,2283,34717.810;2283,34717.810001090,00000077,64189,19,461,-18,8,-905*af2cf65e
%RAWIMUSA,2283,34717.820;2283,34717.820001090,00000077,64186,7,464,9,-9,-484*1614d6c5
%RAWIMUSA,2283,34717.830;2283,34717.830001090,00000077,64188,17,447,18,-8,914*385028b0
%RAWIMUSA,2283,34717.840;2283,34717.840001090,00000077,64186,24,441,9,9,923*4b7d91fc
%RAWIMUSA,2283,34717.850;2283,34717.850001090,00000077,64186,21,458,-9,8,-868*04ceedcf
%RAWIMUSA,2283,34717.860;2283,34717.860001090,00000077,64186,12,467,-9,-9,-896*9b40a950
%RAWIMUSA,2283,34717.870;2283,34717.870001090,00000077,64187,14,448,18,-8,420*30bd9971
%RAWIMUSA,2283,34717.880;2283,34717.880001090,00000077,64187,28,443,18,0,905*4ea0489c
%RAWIMUSA,2283,34717.890;2283,34717.890001090,00000077,64187,14,456,-9,9,73*05b52184
