%RAWIMUSA,2283,34839.720;2283,34839.720001026,00000077,64188,27,450,27,0,-895*5f93286b
%RAWIMUSA,2283,34839.730;2283,34839.730001026,00000077,64189,16,449,18,-9,-877*f5e03884
%RAWIMUSA,2283,34839.740;2283,34839.740001026,00000077,64187,7,456,-8,0,914*975f3431
%RAWIMUSA,2283,34839.750;2283,34839.750001026,00000077,64188,20,457,-8,9,914*cd9847ee
%RAWIMUSA,2283,34839.760;2283,34839.760001026,00000077,64187,28,453,0,0,-475*d9df0945
%RAWIMUSA,2283,34839.770;2283,34839.770001026,00000077,64188,12,450,18,0,-914*cea5721a
%RAWIMUSA,2283,34839.780;2283,34839.780001026,00000077,64189,1,455,9,-9,9*c47cb822
%RAWIMUSA,2283,34839.790;2283,34839.790001026,00000077,64187,30,460,-8,9,914*3aea46ad
%RAWIMUSA,2283,34839.800;2283,34839.800001026,00000077,64185,26,449,-18,0,475*88bcbd4e
%RAWIMUSA,2283,34839.810;2283,34839.810001026,00000077,64186,0,446,27,0,-895*4262d026
%RAWIMUSA,2283,34839.820;2283,34839.820001026,00000077,64185,11,459,18,-9,-914*58821ccd
%RAWIMUSA,2283,34839.830;2283,34839.830001026,00000077,64187,30,459,-8,0,905*1396c3dc
%RAWIMUSA,2283,34839.840;2283,34839.840001026,00000077,64189,22,447,-8,9,923*359306a6
%RAWIMUSA,2283,34839.850;2283,34839.850001026,00000077,64184,0,450,0,0,-420*3e5b2268
%RAWIMUSA,2283,34839.860;2283,34839.860001026,00000077,64190,19,464,27,-9,-905*69632c01
%RAWIMUSA,2283,34839.870;2283,34839.870001026,00000077,64187,31,455,9,0,-45*ca5510b3
%RAWIMUSA,2283,34839.880;2283,34839.880001026,00000077,64186,9,444,-18,9,914*cb959788
%RAWIMUSA,2283,34839.890;2283,34839.890001026,00000077,64189,10,455,-8,9,521*5bf609de
%RAWIMUSA,2283,34839.900;2283,34839.900001026,00000077,64186,23,459,18,-9,-914*a609b2a4
%RAWIMUSA,2283,34839.910;2283,34839.910001026,00000077,64183,19,454,18,-9,-905*3a9b5df9
%RAWIMUSA,2283,34839.920;2283,34839.920001026,00000077,64188,16,445,-8,0,841*fe4add02
%RAWIMUSA,2283,34839.930;2283,34839.930001026,00000077,64192,12,454,-8,9,923*ef7ee3ac
%RAWIMUSA,2283,34839.940;2283,34839.940001026,00000077,64185,20,459,9,0,-365*9cb5bbe2
%RAWIMUSA,2283,34839.950;2283,34839.950001026,00000077,64192,23,452,18,-9,-914*cefea222
%RAWIMUSA,2283,34839.960;2283,34839.960001026,00000077,64187,11,447,9,0,-82*64a2a2b5
%RAWIMUSA,2283,34839.970;2283,34839.970001026,00000077,64185,14,451,-8,9,914*6cdfe1a9
%RAWIMUSA,2283,34839.980;2283,34839.980001026,00000077,64190,22,465,-18,0,576*0baf920f
%RAWIMUSA,2283,34839.990;2283,34839.990001026,00000077,64191,17,456,27,0,-914*63f86703
%RAWIMUSA,2283,34840.000;2283,34840.000001026,00000077,64187,11,441,18,-9,-895*45766f14
%RAWIMUSA,2283,34840.010;2283,34840.010001026,00000077,64187,16,449,-8,9,795*2f26560c
%RAWIMUSA,2283,34840.020;2283,34840.020001026,00000077,64187,27,463,-18,0,914*63930db6
%RAWIMUSA,2283,34840.030;2283,34840.030001026,00000077,64186,17,454,9,0,-310*2fd48057
%RAWIMUSA,2283,34840.040;2283,34840.040001026,00000077,64189,3,446,27,0,-914*6601753a
%RAWIMUSA,2283,34840.050;2283,34840.050001026,00000077,64187,23,456,9,-9,-137*33fe94e0
%RAWIMUSA,2283,34840.060;2283,34840.060001026,00000077,64185,25,455,-18,9,923*b13ce499
%RAWIMUSA,2283,34840.070;2283,34840.070001026,00000077,64187,11,450,-8,9,612*5995b759
%RAWIMUSA,2283,34840.080;2283,34840.080001026,00000077,64186,14,451,18,-9,-905*248b3815
%RAWIMUSA,2283,34840.090;2283,34840.090001026,00000077,64189,19,454,27,-9,-895*e7f1bd48
%RAWIMUSA,2283,34840.100;2283,34840.100001026,00000077,64188,16,450,-18,9,749*db96722f
%RAWIMUSA,2283,34840.110;2283,34840.110001026,00000077,64188,13,454,-8,9,914*6170e907
%RAWIMUSA,2283,34840.120;2283,34840.120001026,00000077,64188,16,457,9,0,-274*8a56a854
%RAWIMUSA,2283,34840.130;2283,34840.130001026,00000077,64182,26,447,18,-9,-914*f8dbe147
%RAWIMUSA,2283,34840.140;2283,34840.140001026,00000077,64190,13,451,9,0,-191*9f9ce25a
%RAWIMUSA,2283,34840.150;2283,34840.150001026,00000077,64185,14,465,-18,9,923*efabbfbd
%RAWIMUSA,2283,34840.160;2283,34840.160001026,00000077,64188,15,453,-8,0,658*264e7db7
%RAWIMUSA,2283,34840.170;2283,34840.170001026,00000077,64187,20,447,18,-9,-905*9b340594
%RAWIMUSA,2283,34840.180;2283,34840.180001026,00000077,64185,22,456,27,0,-914*99549d57
%RAWIMUSA,2283,34840.190;2283,34840.190001026,00000077,64189,10,462,-18,0,704*12599eac
%RAWIMUSA,2283,34840.200;2283,34840.200001026,00000077,64185,13,449,-8,9,914*442ad9c2
%RAWIMUSA,2283,34840.210;2283,34840.210001026,00000077,64192,24,446,9,0,-228*607be031
%RAWIMUSA,2283,34840.220;2283,34840.220001026,00000077,64186,16,455,18,-9,-895*29de5e3b
%RAWIMUSA,2283,34840.230;2283,34840.230001026,00000077,64183,5,450,9,0,-228*308d8e21
%RAWIMUSA,2283,34840.240;2283,34840.240001026,00000077,64191,17,451,-18,9,905*763f46d3
%RAWIMUSA,2283,34840.250;2283,34840.250001026,00000077,64188,31,457,0,0,722*3f68e1ab
%RAWIMUSA,2283,34840.260;2283,34840.260001026,00000077,64183,12,452,18,-9,-905*0715a6ad
%RAWIMUSA,2283,34840.270;2283,34840.270001026,00000077,64190,5,450,18,0,-914*4928997f
%RAWIMUSA,2283,34840.280;2283,34840.280001026,00000077,64189,20,452,-8,0,658*fa206c5e
%RAWIMUSA,2283,34840.290;2283,34840.290001026,00000077,64187,27,459,-18,9,923*832859f8
%RAWIMUSA,2283,34840.300;2283,34840.300001026,00000077,64185,16,455,18,0,-173*04e978a0
%RAWIMUSA,2283,34840.310;2283,34840.310001026,00000077,64191,2,447,18,-9,-895*4c617413
%RAWIMUSA,2283,34840.320;2283,34840.320001026,00000077,64186,24,453,0,0,-292*9bda8913
%RAWIMUSA,2283,34840.330;2283,34840.330001026,00000077,64189,27,462,-18,9,923*4bd8c662
%RAWIMUSA,2283,34840.340;2283,34840.340001026,00000077,64186,9,450,0,0,768*90a956d6
%RAWIMUSA,2283,34840.350;2283,34840.350001026,00000077,64183,1,443,18,-9,-905*3c164ea4
%RAWIMUSA,2283,34840.360;2283,34840.360001026,00000077,64191,26,461,18,0,-914*69719293
%RAWIMUSA,2283,34840.370;2283,34840.370001026,00000077,64186,32,467,-18,9,603*30fa4b72
%RAWIMUSA,2283,34840.380;2283,34840.380001026,00000077,64188,5,441,-8,0,923*abae79a6
%RAWIMUSA,2283,34840.390;2283,34840.390001026,00000077,64189,10,448,9,-9,-127*eec81db0
%RAWIMUSA,2283,34840.400;2283,34840.400001026,00000077,64189,23,457,27,-9,-905*58ca8e47
%RAWIMUSA,2283,34840.410;2283,34840.410001026,00000077,64186,22,456,0,8,-338*b7d8ec29
%RAWIMUSA,2283,34840.420;2283,34840.420001026,00000077,64185,9,449,-18,9,914*64d450aa
%RAWIMUSA,2283,34840.430;2283,34840.430001026,00000077,64187,16,453,0,0,813*18ed5c0a
%RAWIMUSA,2283,34840.440;2283,34840.440001026,00000077,64187,26,457,18,-9,-914*8c943198
%RAWIMUSA,2283,34840.450;2283,34840.450001026,00000077,64189,11,449,18,0,-895*1a494f65
%RAWIMUSA,2283,34840.460;2283,34840.460001026,00000077,64187,9,451,-8,9,539*b479a832
%RAWIMUSA,2283,34840.470;2283,34840.470001026,00000077,64187,23,458,-18,9,923*b02936e2
%RAWIMUSA,2283,34840.480;2283,34840.480001026,00000077,64189,24,452,18,-9,-63*07b78972
%RAWIMUSA,2283,34840.490;2283,34840.490001026,00000077,64186,10,449,18,-9,-905*557c0874
%RAWIMUSA,2283,34840.500;2283,34840.500001026,00000077,64186,16,452,0,8,-383*00af2a3a
%RAWIMUSA,2283,34840.510;2283,34840.510001026,00000077,64185,26,459,-8,9,914*4b614a2e
%RAWIMUSA,2283,34840.520;2283,34840.520001026,00000077,64188,17,458,0,-8,859*72165a90
%RAWIMUSA,2283,34840.530;2283,34840.530001026,00000077,64186,3,452,18,-9,-905*d093554d
%RAWIMUSA,2283,34840.540;2283,34840.540001026,00000077,64187,11,449,9,0,-914*8d44d3c9
%RAWIMUSA,2283,34840.550;2283,34840.550001026,00000077,64187,30,454,-8,9,493*923cc3c2
%RAWIMUSA,2283,34840.560;2283,34840.560001026,00000077,64189,20,457,-18,9,923*534418f5
%RAWIMUSA,2283,34840.570;2283,34840.570001026,00000077,64187,6,447,18,-9,-18*8c51a332
%RAWIMUSA,2283,34840.580;2283,34840.580001026,00000077,64183,15,450,18,-9,-914*739d6fe7
%RAWIMUSA,2283,34840.590;2283,34840.590001026,00000077,64186,25,457,0,8,-429*cf3501e9
%RAWIMUSA,2283,34840.600;2283,34840.600001026,00000077,64189,18,456,-18,9,914*9d44318b
%RAWIMUSA,2283,34840.610;2283,34840.610001026,00000077,64187,11,450,9,0,914*f5a505e9
%RAWIMUSA,2283,34840.620;2283,34840.620001026,00000077,64186,15,455,18,-9,-895*8bc8ba22
%RAWIMUSA,2283,34840.630;2283,34840.630001026,00000077,64189,27,455,18,0,-914*97dceab9
%RAWIMUSA,2283,34840.640;2283,34840.640001026,00000077,64187,17,451,-18,0,457*59f81f1f
%RAWIMUSA,2283,34840.650;2283,34840.650001026,00000077,64187,8,451,-8,9,914*3c333a85
%RAWIMUSA,2283,34840.660;2283,34840.660001026,00000077,64187,19,458,18,-9,36*521eb242
%RAWIMUSA,2283,34840.670;2283,34840.670001026,00000077,64187,23,453,18,-9,-914*986aff7f
%RAWIMUSA,2283,34840.680;2283,34840.680001026,00000077,64188,13,454,-9,8,-475*a49b1f5a
%RAWIMUSA,2283,34840.690;2283,34840.690001026,00000077,64186,9,449,-8,9,905*3ff49a93
%RAWIMUSA,2283,34840.700;2283,34840.700001026,00000077,64187,23,456,0,0,923*062f80fc
%RAWIMUSA,2283,34840.710;2283,34840.710001026,00000077,64190,21,456,18,-9,-859*5a2099f2
%RAWIMUSA,2283,34840.720;2283,34840.720001026,00000077,64187,12,453,18,0,-914*04ce9a2b
%RAWIMUSA,2283,34840.730;2283,34840.730001026,00000077,64188,9,452,-18,9,402*35daf813
%RAWIMUSA,2283,34840.740;2283,34840.740001026,00000077,64187,29,453,-8,0,914*baebf46a
%RAWIMUSA,2283,34840.750;2283,34840.750001026,00000077,64187,17,453,18,-9,82*d9cec691
%RAWIMUSA,2283,34840.760;2283,34840.760001026,00000077,64185,7,450,18,0,-905*0eaa7f83
%RAWIMUSA,2283,34840.770;2283,34840.770001026,00000077,64187,20,452,0,8,-539*9e53a022
%RAWIMUSA,2283,34840.780;2283,34840.780001026,00000077,64188,24,451,-18,0,923*cbd4b7a6
%RAWIMUSA,2283,34840.790;2283,34840.790001026,00000077,64191,19,453,9,0,923*4f3f5885
%RAWIMUSA,2283,34840.800;2283,34840.800001026,00000077,64186,8,452,18,-9,-813*63f06593
%RAWIMUSA,2283,34840.810;2283,34840.810001026,00000077,64187,14,455,9,0,-914*1e6d1f3e
%RAWIMUSA,2283,34840.820;2283,34840.820001026,00000077,64187,31,456,-18,9,356*a2fd775c
%RAWIMUSA,2283,34840.830;2283,34840.830001026,00000077,64182,16,452,-8,-8,923*2f66d06a
%RAWIMUSA,2283,34840.840;2283,34840.840001026,00000077,64190,3,446,18,0,128*beb66339
%RAWIMUSA,2283,34840.850;2283,34840.850001026,00000077,64188,22,456,18,0,-914*dad74ce1
%RAWIMUSA,2283,34840.860;2283,34840.860001026,00000077,64191,29,463,-9,0,-585*4832aae0
%RAWIMUSA,2283,34840.870;2283,34840.870001026,00000077,64187,7,448,-8,9,932*dcd4f0f1
%RAWIMUSA,2283,34840.880;2283,34840.880001026,00000077,64183,4,444,9,0,914*802845c2
%RAWIMUSA,2283,34840.890;2283,34840.890001026,00000077,64189,24,457,18,-9,-758*eba4d1ac
%RAWIMUSA,2283,34840.900;2283,34840.900001026,00000077,64188,27,462,9,0,-905*62ba9cae
%RAWIMUSA,2283,34840.910;2283,34840.910001026,00000077,64190,8,449,-18,9,292*5e9e4624
%RAWIMUSA,2283,34840.920;2283,34840.920001026,00000077,64186,4,446,-8,0,923*b4c7c21c
%RAWIMUSA,2283,34840.930;2283,34840.930001026,00000077,64189,32,457,18,-9,173*5f48f118
%RAWIMUSA,2283,34840.940;2283,34840.940001026,00000077,64192,25,460,18,0,-905*0d43bd69
%RAWIMUSA,2283,34840.950;2283,34840.950001026,00000077,64189,5,450,-9,8,-639*89e4ff6f
%RAWIMUSA,2283,34840.960;2283,34840.960001026,00000077,64187,9,451,-8,9,914*4dfd7970
%RAWIMUSA,2283,34840.970;2283,34840.970001026,00000077,64187,27,454,9,-8,914*fafa9794
%RAWIMUSA,2283,34840.980;2283,34840.980001026,00000077,64187,25,460,18,-9,-703*be572bdb
%RAWIMUSA,2283,34840.990;2283,34840.990001026,00000077,64187,7,452,9,8,-914*ccaeb153
%RAWIMUSA,2283,34841.000;2283,34841.000001026,00000077,64184,8,449,-9,9,246*fa125ea7
%RAWIMUSA,2283,34841.010;2283,34841.010001026,00000077,64189,31,454,-8,0,914*96fa42d4
%RAWIMUSA,2283,34841.020;2283,34841.020001025,00000077,64189,20,460,18,-18,228*98cb703d
%RAWIMUSA,2283,34841.030;2283,34841.030001025,00000077,64188,3,456,18,0,-905*b289eb81
%RAWIMUSA,2283,34841.040;2283,34841.040001025,00000077,64187,13,445,-9,8,-676*7d8d7462
%RAWIMUSA,2283,34841.050;2283,34841.050001025,00000077,64189,27,452,-18,9,923*36031444
%RAWIMUSA,2283,34841.060;2283,34841.060001025,00000077,64187,20,458,9,-8,914*86f31f99
%RAWIMUSA,2283,34841.070;2283,34841.070001025,00000077,64188,9,452,18,-9,-667*152339b1
%RAWIMUSA,2283,34841.080;2283,34841.080001025,00000077,64189,14,450,9,0,-914*2329d5c3
%RAWIMUSA,2283,34841.090;2283,34841.090001025,00000077,64189,27,455,-18,9,201*26c57d29
%RAWIMUSA,2283,34841.100;2283,34841.100001025,00000077,64186,20,459,0,-8,923*b04c89fb
%RAWIMUSA,2283,34841.110;2283,34841.110001025,00000077,64189,8,452,18,-9,274*d3fbb7b5
%RAWIMUSA,2283,34841.120;2283,34841.120001025,00000077,64184,14,447,18,8,-905*63de6666
%RAWIMUSA,2283,34841.130;2283,34841.130001025,00000077,64186,28,454,-9,0,-731*c9e4928c
%RAWIMUSA,2283,34841.140;2283,34841.140001025,00000077,64189,18,459,-18,0,932*73ab25e8
%RAWIMUSA,2283,34841.150;2283,34841.150001025,00000077,64189,8,451,9,0,914*ca3698e2
%RAWIMUSA,2283,34841.160;2283,34841.160001025,00000077,64186,12,449,18,-9,-612*269e8655
%RAWIMUSA,2283,34841.170;2283,34841.170001025,00000077,64189,31,454,9,8,-905*2baf7a8f
%RAWIMUSA,2283,34841.180;2283,34841.180001025,00000077,64185,16,458,-18,9,155*61020a1a
%RAWIMUSA,2283,34841.190;2283,34841.190001025,00000077,64191,4,453,0,-8,923*ada7e56b
%RAWIMUSA,2283,34841.200;2283,34841.200001025,00000077,64188,20,448,18,-9,320*470e026b
%RAWIMUSA,2283,34841.210;2283,34841.210001025,00000077,64186,26,451,18,8,-914*7306691e
%RAWIMUSA,2283,34841.220;2283,34841.220001025,00000077,64188,12,458,-9,8,-777*bdf99bf6
%RAWIMUSA,2283,34841.230;2283,34841.230001025,00000077,64189,12,455,-18,9,914*193a0603
%RAWIMUSA,2283,34841.240;2283,34841.240001025,00000077,64186,20,449,9,-17,905*a693b99a
%RAWIMUSA,2283,34841.250;2283,34841.250001025,00000077,64185,20,447,27,0,-557*6864a8e3
%RAWIMUSA,2283,34841.260;2283,34841.260001025,00000077,64186,16,453,0,8,-914*b07d9429
%RAWIMUSA,2283,34841.270;2283,34841.270001025,00000077,64188,16,467,-18,0,91*cfe64171
%RAWIMUSA,2283,34841.280;2283,34841.280001025,00000077,64188,20,458,0,0,923*44ceb2a1
%RAWIMUSA,2283,34841.290;2283,34841.290001025,00000077,64187,18,436,18,-8,375*7dfb0bec
%RAWIMUSA,2283,34841.300;2283,34841.300001025,00000077,64186,10,447,18,0,-905*f1aeaea9
%RAWIMUSA,2283,34841.310;2283,34841.310001025,00000077,64187,17,471,-9,8,-832*4917b177
%RAWIMUSA,2283,34841.320;2283,34841.320001025,00000077,64188,20,458,-18,0,914*c96738d6
%RAWIMUSA,2283,34841.330;2283,34841.330001025,00000077,64191,14,436,18,-8,914*483854b4
%RAWIMUSA,2283,34841.340;2283,34841.340001025,00000077,64187,14,449,18,0,-511*8915d58e
%RAWIMUSA,2283,34841.350;2283,34841.350001025,00000077,64187,16,465,0,0,-905*7d5a0de0
%RAWIMUSA,2283,34841.360;2283,34841.360001025,00000077,64189,16,457,-18,0,73*634423d9
%RAWIMUSA,2283,34841.370;2283,34841.370001025,00000077,64190,18,440,0,0,914*7a0223f4
%RAWIMUSA,2283,34841.380;2283,34841.380001025,00000077,64186,18,450,18,-8,411*b99c0595
%RAWIMUSA,2283,34841.390;2283,34841.390001025,00000077,64191,20,464,18,8,-905*4b78d4fd
%RAWIMUSA,2283,34841.400;2283,34841.400001025,00000077,64186,16,459,-18,0,-886*7961f40b
%RAWIMUSA,2283,34841.410;2283,34841.410001025,00000077,64179,8,434,-8,0,923*6fa69ed8
%RAWIMUSA,2283,34841.420;2283,34841.420001025,00000077,64188,23,449,9,0,914*926101b9
%RAWIMUSA,2283,34841.430;2283,34841.430001025,00000077,64188,24,470,27,-9,-466*4a8a82d3
%RAWIMUSA,2283,34841.440;2283,34841.440001025,00000077,64188,7,452,0,8,-905*16114338
%RAWIMUSA,2283,34841.450;2283,34841.450001025,00000077,64190,16,436,-18,9,-9*0265e0d1
%RAWIMUSA,2283,34841.460;2283,34841.460001025,00000077,64188,29,460,0,-8,914*23d2614d
%RAWIMUSA,2283,34841.470;2283,34841.470001025,00000077,64187,18,472,18,-8,484*4307ac74
%RAWIMUSA,2283,34841.480;2283,34841.480001025,00000077,64180,16,452,18,0,-905*23dbbb4c
%RAWIMUSA,2283,34841.490;2283,34841.490001025,00000077,64192,4,430,-9,17,-905*dec2c911
%RAWIMUSA,2283,34841.500;2283,34841.500001025,00000077,64185,29,466,-18,-8,887*94199cdd
%RAWIMUSA,2283,34841.510;2283,34841.510001025,00000077,64188,27,475,18,-8,914*54eb0aec
%RAWIMUSA,2283,34841.520;2283,34841.520001025,00000077,64189,7,437,18,0,-411*1daa555d
%RAWIMUSA,2283,34841.530;2283,34841.530001025,00000077,64191,9,435,0,8,-914*192c4b7d
%RAWIMUSA,2283,34841.540;2283,34841.540001025,00000077,64184,23,465,-18,9,-45*ad4ad3db
%RAWIMUSA,2283,34841.550;2283,34841.550001025,00000077,64188,22,470,0,-17,923*444424cd
%RAWIMUSA,2283,34841.560;2283,34841.560001025,00000077,64187,16,446,27,0,521*f4016dc3
%RAWIMUSA,2283,34841.570;2283,34841.570001025,00000077,64187,9,431,9,0,-905*2253eb3f
%RAWIMUSA,2283,34841.580;2283,34841.580001025,00000077,64187,16,456,-9,17,-905*ac635ee6
%RAWIMUSA,2283,34841.590;2283,34841.590001025,00000077,64190,34,476,-18,0,841*32694665
%RAWIMUSA,2283,34841.600;2283,34841.600001025,00000077,64186,5,449,18,-17,923*68016b10
%RAWIMUSA,2283,34841.610;2283,34841.610001025,00000077,64185,12,435,18,8,-365*30e99152
%RAWIMUSA,2283,34841.620;2283,34841.620001025,00000077,64190,18,452,0,8,-905*0d12ab0b
%RAWIMUSA,2283,34841.630;2283,34841.630001025,00000077,64190,27,467,-18,0,-100*6b198da7
%RAWIMUSA,2283,34841.640;2283,34841.640001025,00000077,64185,15,454,0,-8,914*c54bffa1
%RAWIMUSA,2283,34841.650;2283,34841.650001025,00000077,64185,3,442,27,0,576*d735f41c
%RAWIMUSA,2283,34841.660;2283,34841.660001025,00000077,64187,32,449,9,8,-914*179dba5d
%RAWIMUSA,2283,34841.670;2283,34841.670001025,00000077,64189,20,466,-18,8,-905*44a3b926
%RAWIMUSA,2283,34841.680;2283,34841.680001025,00000077,64188,8,457,-8,-8,804*5fa50973
%RAWIMUSA,2283,34841.690;2283,34841.690001025,00000077,64185,15,441,18,-8,914*95a0fdf3
%RAWIMUSA,2283,34841.700;2283,34841.700001025,00000077,64187,20,445,18,0,-310*6b565439
%RAWIMUSA,2283,34841.710;2283,34841.710001025,00000077,64188,21,466,0,8,-896*3e494684
%RAWIMUSA,2283,34841.720;2283,34841.720001025,00000077,64186,6,461,-18,0,-155*10b2488f
%RAWIMUSA,2283,34841.730;2283,34841.730001025,00000077,64189,15,442,9,-8,923*8d34ac77
%RAWIMUSA,2283,34841.740;2283,34841.740001025,00000077,64187,29,447,18,0,612*cb291389
%RAWIMUSA,2283,34841.750;2283,34841.750001025,00000077,64185,15,466,9,0,-905*79f0974b
%RAWIMUSA,2283,34841.760;2283,34841.760001025,00000077,64191,8,460,-9,8,-914*c57b93b4
%RAWIMUSA,2283,34841.770;2283,34841.770001025,00000077,64187,15,444,-18,-8,740*acb68df2
%RAWIMUSA,2283,34841.780;2283,34841.780001025,00000077,64185,24,446,28,-8,923*d8a9dfee
%RAWIMUSA,2283,34841.790;2283,34841.790001025,00000077,64187,19,464,18,8,-255*dc965143
%RAWIMUSA,2283,34841.800;2283,34841.800001025,00000077,64187,7,459,-9,0,-905*8bbb0115
%RAWIMUSA,2283,34841.810;2283,34841.810001025,00000077,64188,16,440,-9,0,-201*e745476a
%RAWIMUSA,2283,34841.820;2283,34841.820001025,00000077,64188,28,445,0,-8,914*0ecbec22
%RAWIMUSA,2283,34841.830;2283,34841.830001025,00000077,64187,16,465,18,0,676*12f05a60
%RAWIMUSA,2283,34841.840;2283,34841.840001025,00000077,64187,7,460,9,8,-896*a09f9dd7
%RAWIMUSA,2283,34841.850;2283,34841.850001025,00000077,64187,20,442,-18,8,-914*02a87cd7
%RAWIMUSA,2283,34841.860;2283,34841.860001025,00000077,64188,29,449,-8,-8,695*7ae774d7
%RAWIMUSA,2283,34841.870;2283,34841.870001025,00000077,64186,16,464,18,-8,914*4a14af38
%RAWIMUSA,2283,34841.880;2283,34841.880001025,00000077,64192,7,456,27,8,-210*f8cd8255
%RAWIMUSA,2283,34841.890;2283,34841.890001025,00000077,64189,23,442,-9,8,-905*1c40f498
%RAWIMUSA,2283,34841.900;2283,34841.900001025,00000077,64187,22,448,-18,0,-228*815b1717
%RAWIMUSA,2283,34841.910;2283,34841.910001025,00000077,64185,12,462,9,-8,914*26f28137
%RAWIMUSA,2283,34841.920;2283,34841.920001025,00000077,64188,13,459,27,0,722*127b2f7e
%RAWIMUSA,2283,34841.930;2283,34841.930001025,00000077,64185,22,443,0,8,-914*7ff0a3ab
%RAWIMUSA,2283,34841.940;2283,34841.940001025,00000077,64190,21,449,-9,0,-896*8c096ad1
%RAWIMUSA,2283,34841.950;2283,34841.950001025,00000077,64187,14,461,-8,-8,631*4b1ea3c6
%RAWIMUSA,2283,34841.960;2283,34841.960001025,00000077,64185,13,449,28,-8,923*40bb47cd
%RAWIMUSA,2283,34841.970;2283,34841.970001025,00000077,64189,19,443,18,8,-173*608b6635
%RAWIMUSA,2283,34841.980;2283,34841.980001025,00000077,64187,16,456,-9,8,-896*0592f160
%RAWIMUSA,2283,34841.990;2283,34841.990001025,00000077,64190,16,466,-18,0,-301*debee79f
%RAWIMUSA,2283,34842.000;2283,34842.000001025,00000077,64190,14,455,9,-8,914*dc428c3d
%RAWIMUSA,2283,34842.010;2283,34842.010001025,00000077,64188,17,436,27,0,777*e39d14f6
%RAWIMUSA,2283,34842.020;2283,34842.020001025,00000077,64187,19,453,0,8,-905*38abdd46
%RAWIMUSA,2283,34842.030;2283,34842.030001025,00000077,64183,20,465,-18,0,-905*24b64e9e
%RAWIMUSA,2283,34842.040;2283,34842.040001025,00000077,64188,14,452,-8,0,594*81908c02
%RAWIMUSA,2283,34842.050;2283,34842.050001025,00000077,64189,17,443,28,-8,923*5a06ece2
%RAWIMUSA,2283,34842.060;2283,34842.060001025,00000077,64188,18,457,18,9,-118*b8e23257
%RAWIMUSA,2283,34842.070;2283,34842.070001025,00000077,64186,18,459,-9,0,-905*b616d6f8
%RAWIMUSA,2283,34842.080;2283,34842.080001025,00000077,64187,13,446,-18,0,-338*fc63e076
%RAWIMUSA,2283,34842.090;2283,34842.090001025,00000077,64187,17,445,9,-8,923*40fec2c8
%RAWIMUSA,2283,34842.100;2283,34842.100001025,00000077,64185,14,458,28,0,823*3e5bec0f
%RAWIMUSA,2283,34842.110;2283,34842.110001025,00000077,64188,24,460,0,8,-896*3f406e01
%RAWIMUSA,2283,34842.120;2283,34842.120001025,00000077,64187,11,447,-18,0,-905*f05a7741
%RAWIMUSA,2283,34842.130;2283,34842.130001025,00000077,64185,18,444,0,-8,557*74054204
%RAWIMUSA,2283,34842.140;2283,34842.140001025,00000077,64194,11,463,18,0,914*6ec947bf
%RAWIMUSA,2283,34842.150;2283,34842.150001025,00000077,64185,26,460,18,0,-63*1c9ceb70
%RAWIMUSA,2283,34842.160;2283,34842.160001025,00000077,64188,0,444,-9,8,-905*3e5cb76a
%RAWIMUSA,2283,34842.170;2283,34842.170001025,00000077,64184,28,446,-18,0,-402*459e6c01
%RAWIMUSA,2283,34842.180;2283,34842.180001025,00000077,64192,6,463,18,-8,923*4a78e247
%RAWIMUSA,2283,34842.190;2283,34842.190001025,00000077,64185,32,458,18,0,868*48f4b563
%RAWIMUSA,2283,34842.200;2283,34842.200001025,00000077,64189,3,445,0,8,-896*0c416a19
%RAWIMUSA,2283,34842.210;2283,34842.210001025,00000077,64185,30,450,-9,0,-914*a8ec16f1
%RAWIMUSA,2283,34842.220;2283,34842.220001025,00000077,64191,2,463,-8,-8,493*f4511ce0
%RAWIMUSA,2283,34842.230;2283,34842.230001025,00000077,64184,24,458,18,-8,905*62400606
%RAWIMUSA,2283,34842.240;2283,34842.240001025,00000077,64189,8,441,18,9,0*cc8d6ac7
%RAWIMUSA,2283,34842.250;2283,34842.250001025,00000077,64185,34,450,-9,8,-932*4d19b9d7
%RAWIMUSA,2283,34842.260;2283,34842.260001025,00000077,64189,0,461,-18,-9,-429*6d8e97f8
%RAWIMUSA,2283,34842.270;2283,34842.270001025,00000077,64184,27,453,18,-8,896*419ae460
%RAWIMUSA,2283,34842.280;2283,34842.280001025,00000077,64189,11,445,18,9,941*79d708cf
%RAWIMUSA,2283,34842.290;2283,34842.290001025,00000077,64185,30,456,0,8,-923*d347b756
%RAWIMUSA,2283,34842.300;2283,34842.300001025,00000077,64192,-2,464,-18,0,-896*c6dec8e4
%RAWIMUSA,2283,34842.310;2283,34842.310001025,00000077,64186,28,452,0,-8,420*7533b5fc
%RAWIMUSA,2283,34842.320;2283,34842.320001025,00000077,64196,12,440,18,0,951*d9ac4f06
%RAWIMUSA,2283,34842.330;2283,34842.330001025,00000077,64184,37,458,18,9,9*a3e24d8e
%RAWIMUSA,2283,34842.340;2283,34842.340001025,00000077,64188,-8,462,-9,0,-886*63dd2b75
%RAWIMUSA,2283,34842.350;2283,34842.350001025,00000077,64187,29,453,-9,0,-502*b8affc74
%RAWIMUSA,2283,34842.360;2283,34842.360001025,00000077,64191,6,442,9,-8,932*0a1dd697
%RAWIMUSA,2283,34842.370;2283,34842.370001025,00000077,64183,35,457,18,9,905*f3acb48c
%RAWIMUSA,2283,34842.380;2283,34842.380001025,00000077,64193,-2,461,0,0,-841*3fce25e8
%RAWIMUSA,2283,34842.390;2283,34842.390001025,00000077,64186,31,448,-9,0,-914*9e6a2119
%RAWIMUSA,2283,34842.400;2283,34842.400001025,00000077,64190,10,448,0,-8,402*4efec4c5
%RAWIMUSA,2283,34842.410;2283,34842.410001025,00000077,64182,25,457,18,0,914*c350e7a5
%RAWIMUSA,2283,34842.420;2283,34842.420001025,00000077,64190,-3,456,18,9,91*685e36c3
%RAWIMUSA,2283,34842.430;2283,34842.430001025,00000077,64183,32,452,-18,0,-914*082074c3
%RAWIMUSA,2283,34842.440;2283,34842.440001025,00000077,64194,10,453,-9,0,-530*370b93ea
%RAWIMUSA,2283,34842.450;2283,34842.450001025,00000077,64186,25,453,9,-8,905*8b34d4f6
%RAWIMUSA,2283,34842.460;2283,34842.460001025,00000077,64189,-4,453,28,9,914*47fde3ef
%RAWIMUSA,2283,34842.470;2283,34842.470001025,00000077,64187,31,450,-9,0,-795*686ffb89
%RAWIMUSA,2283,34842.480;2283,34842.480001025,00000077,64186,14,452,-9,0,-914*7b1e0dcc
%RAWIMUSA,2283,34842.490;2283,34842.490001025,00000077,64188,20,453,0,-8,347*253cecde
%RAWIMUSA,2283,34842.500;2283,34842.500001025,00000077,64187,2,457,18,0,914*bfc47e1e
%RAWIMUSA,2283,34842.510;2283,34842.510001025,00000077,64185,31,449,18,9,137*b9a901c8
%RAWIMUSA,2283,34842.520;2283,34842.520001025,00000077,64186,16,451,-9,0,-923*7a51c49b
%RAWIMUSA,2283,34842.530;2283,34842.530001025,00000077,64191,15,457,-18,0,-575*39416e28
%RAWIMUSA,2283,34842.540;2283,34842.540001025,00000077,64188,12,455,18,-8,905*0f363aad
%RAWIMUSA,2283,34842.550;2283,34842.550001025,00000077,64188,25,450,18,9,941*7929ee54
%RAWIMUSA,2283,34842.560;2283,34842.560001025,00000077,64191,16,444,0,0,-777*7082d499
%RAWIMUSA,2283,34842.570;2283,34842.570001025,00000077,64187,13,459,-9,0,-877*b257d917
%RAWIMUSA,2283,34842.580;2283,34842.580001025,00000077,64183,21,458,0,-9,274*b9b420f3
%RAWIMUSA,2283,34842.590;2283,34842.590001025,00000077,64188,12,446,18,9,941*323c156c
%RAWIMUSA,2283,34842.600;2283,34842.600001025,00000077,64185,24,450,9,9,164*8f056731
%RAWIMUSA,2283,34842.610;2283,34842.610001025,00000077,64191,5,457,-9,0,-868*6683a0e9
%RAWIMUSA,2283,34842.620;2283,34842.620001025,00000077,64186,26,459,-18,-9,-667*c88bbfe0
%RAWIMUSA,2283,34842.630;2283,34842.630001025,00000077,64187,11,446,18,-8,941*58b3b633
%RAWIMUSA,2283,34842.640;2283,34842.640001025,00000077,64191,23,452,18,9,896*2266019d
%RAWIMUSA,2283,34842.650;2283,34842.650001025,00000077,64191,7,460,0,8,-676*a4303a9f
%RAWIMUSA,2283,34842.660;2283,34842.660001025,00000077,64184,30,453,-18,-9,-941*2bab7ec2
%RAWIMUSA,2283,34842.670;2283,34842.670001025,00000077,64192,3,446,9,-9,274*49186b93
%RAWIMUSA,2283,34842.680;2283,34842.680001025,00000077,64187,24,447,18,9,896*db5f2a36
%RAWIMUSA,2283,34842.690;2283,34842.690001025,00000077,64190,5,458,9,9,246*a437be8c
%RAWIMUSA,2283,34842.700;2283,34842.700001025,00000077,64185,33,461,-9,0,-923*a2e514a3
%RAWIMUSA,2283,34842.710;2283,34842.710001025,00000077,64189,0,443,-18,-9,-685*8b321231
%RAWIMUSA,2283,34842.720;2283,34842.720001025,00000077,64184,30,451,28,0,905*297c10c2
%RAWIMUSA,2283,34842.730;2283,34842.730001025,00000077,64188,0,460,18,9,923*43ff907a
%RAWIMUSA,2283,34842.740;2283,34842.740001025,00000077,64185,39,459,-9,0,-667*386593bf
%RAWIMUSA,2283,34842.750;2283,34842.750001025,00000077,64187,5,450,-9,0,-896*0d7a2a21
%RAWIMUSA,2283,34842.760;2283,34842.760001025,00000077,64186,18,444,0,-9,201*ba3b9097
%RAWIMUSA,2283,34842.770;2283,34842.770001025,00000077,64191,13,457,18,0,905*cd198563
%RAWIMUSA,2283,34842.780;2283,34842.780001025,00000077,64186,27,461,9,9,301*7a954129
%RAWIMUSA,2283,34842.790;2283,34842.790001025,00000077,64185,18,447,-9,0,-923*c367fd8b
%RAWIMUSA,2283,34842.800;2283,34842.800001025,00000077,64186,3,448,-9,-9,-713*6f810e17
%RAWIMUSA,2283,34842.810;2283,34842.810001025,00000077,64186,25,455,18,0,896*7a2801e5
%RAWIMUSA,2283,34842.820;2283,34842.820001025,00000077,64186,15,454,18,0,932*a9a2a027
%RAWIMUSA,2283,34842.830;2283,34842.830001025,00000077,64185,20,453,-9,8,-621*1375c58b
%RAWIMUSA,2283,34842.840;2283,34842.840001025,00000077,64193,3,458,-9,-9,-886*7374b149
%RAWIMUSA,2283,34842.850;2283,34842.850001025,00000077,64182,33,451,9,-9,128*2b9445cc
%RAWIMUSA,2283,34842.860;2283,34842.860001025,00000077,64198,13,447,18,9,932*3f7c2d69
%RAWIMUSA,2283,34842.870;2283,34842.870001025,00000077,64187,28,452,9,9,320*04223cce
%RAWIMUSA,2283,34842.880;2283,34842.880001025,00000077,64186,-11,465,-18,0,-896*8a7d4b0b
%RAWIMUSA,2283,34842.890;2283,34842.890001025,00000077,64187,39,454,-9,-9,-777*e5851e9a
%RAWIMUSA,2283,34842.900;2283,34842.900001025,00000077,64186,17,445,28,0,905*4e58749e
%RAWIMUSA,2283,34842.910;2283,34842.910001025,00000077,64188,6,454,18,9,932*1595515f
%RAWIMUSA,2283,34842.920;2283,34842.920001025,00000077,64184,19,459,-9,8,-566*c1b9c4ac
%RAWIMUSA,2283,34842.930;2283,34842.930001024,00000077,64186,13,456,-18,-9,-886*2b4d0f33
%RAWIMUSA,2283,34842.940;2283,34842.940001024,00000077,64189,31,447,9,-9,82*e5196ee4
%RAWIMUSA,2283,34842.950;2283,34842.950001024,00000077,64191,-1,448,28,9,932*6c5fc500
%RAWIMUSA,2283,34842.960;2283,34842.960001024,00000077,64186,20,462,0,0,384*ccefc96d
%RAWIMUSA,2283,34842.970;2283,34842.970001024,00000077,64188,28,459,-18,0,-914*1abacb14
%RAWIMUSA,2283,34842.980;2283,34842.980001024,00000077,64188,10,444,0,-9,-831*5225d04e
%RAWIMUSA,2283,34842.990;2283,34842.990001024,00000077,64191,15,448,18,0,914*df9b4a93
%RAWIMUSA,2283,34843.000;2283,34843.000001024,00000077,64186,16,461,18,9,905*755e8488
%RAWIMUSA,2283,34843.010;2283,34843.010001024,00000077,64188,17,456,-9,0,-493*fa64dcee
%RAWIMUSA,2283,34843.020;2283,34843.020001024,00000077,64187,24,445,-18,-9,-905*474c6b00
%RAWIMUSA,2283,34843.030;2283,34843.030001024,00000077,64184,8,447,9,0,54*3adc1c84
%RAWIMUSA,2283,34843.040;2283,34843.040001024,00000077,64188,14,464,28,0,914*397d998f
%RAWIMUSA,2283,34843.050;2283,34843.050001024,00000077,64184,27,461,0,9,420*9ab56502
%RAWIMUSA,2283,34843.060;2283,34843.060001024,00000077,64187,11,440,-9,0,-896*30b6cd94
%RAWIMUSA,2283,34843.070;2283,34843.070001024,00000077,64190,10,444,-9,-9,-877*2f366647
%RAWIMUSA,2283,34843.080;2283,34843.080001024,00000077,64184,23,466,18,9,914*ac8a10ce
%RAWIMUSA,2283,34843.090;2283,34843.090001024,00000077,64187,21,463,18,0,923*0f2242ad
%RAWIMUSA,2283,34843.100;2283,34843.100001024,00000077,64190,15,440,-9,8,-457*de0f6e5e
%RAWIMUSA,2283,34843.110;2283,34843.110001024,00000077,64188,16,446,-18,-9,-905*a4b33efd
%RAWIMUSA,2283,34843.120;2283,34843.120001024,00000077,64188,15,469,18,-9,0*926954d5
%RAWIMUSA,2283,34843.130;2283,34843.130001024,00000077,64187,19,458,18,9,914*f3b57057
%RAWIMUSA,2283,34843.140;2283,34843.140001024,00000077,64187,11,434,0,9,466*f2342a70
%RAWIMUSA,2283,34843.150;2283,34843.150001024,00000077,64187,17,453,-9,-9,-896*34fb550a
%RAWIMUSA,2283,34843.160;2283,34843.160001024,00000077,64186,29,473,-9,-9,-905*7ca2ce29
%RAWIMUSA,2283,34843.170;2283,34843.170001024,00000077,64190,12,452,18,0,887*c7b57d51
%RAWIMUSA,2283,34843.180;2283,34843.180001024,00000077,64188,11,433,28,9,914*5d3797f9
%RAWIMUSA,2283,34843.190;2283,34843.190001024,00000077,64186,21,449,-18,0,-402*686f94b9
%RAWIMUSA,2283,34843.200;2283,34843.200001024,00000077,64187,23,471,-9,-9,-896*bb99162e
%RAWIMUSA,2283,34843.210;2283,34843.210001024,00000077,64190,12,456,9,0,-45*6f8f30a0
%RAWIMUSA,2283,34843.220;2283,34843.220001024,00000077,64187,12,438,28,9,905*b73f406a
%RAWIMUSA,2283,34843.230;2283,34843.230001024,00000077,64186,20,449,0,0,530*12a9ee2c
%RAWIMUSA,2283,34843.240;2283,34843.240001024,00000077,64188,23,469,-18,-9,-896*11bc9396
%RAWIMUSA,2283,34843.250;2283,34843.250001024,00000077,64188,12,455,0,-9,-905*e02fc66c
%RAWIMUSA,2283,34843.260;2283,34843.260001024,00000077,64185,12,441,18,9,841*bda20c10
%RAWIMUSA,2283,34843.270;2283,34843.270001024,00000077,64192,22,449,18,9,914*333b24d5
%RAWIMUSA,2283,34843.280;2283,34843.280001024,00000077,64185,19,465,-18,0,-365*a7d17418
%RAWIMUSA,2283,34843.290;2283,34843.290001024,00000077,64185,13,454,-9,-9,-905*19138806
%RAWIMUSA,2283,34843.300;2283,34843.300001024,00000077,64187,14,439,9,-9,-100*231dbf03
%RAWIMUSA,2283,34843.310;2283,34843.310001024,00000077,64190,21,453,18,9,914*b9173594
%RAWIMUSA,2283,34843.320;2283,34843.320001024,00000077,64188,21,466,0,9,585*16037e67
%RAWIMUSA,2283,34843.330;2283,34843.330001024,00000077,64188,10,454,-9,-9,-905*4fc7f858
%RAWIMUSA,2283,34843.340;2283,34843.340001024,00000077,64185,12,439,0,-9,-905*8e669c81
%RAWIMUSA,2283,34843.350;2283,34843.350001024,00000077,64188,26,456,18,9,786*e120d43d
%RAWIMUSA,2283,34843.360;2283,34843.360001024,00000077,64187,22,470,18,9,923*3a12765b
%RAWIMUSA,2283,34843.370;2283,34843.370001024,00000077,64190,7,455,-9,-9,-310*94205d93
%RAWIMUSA,2283,34843.380;2283,34843.380001024,00000077,64189,14,438,-18,-9,-905*e43430c1
%RAWIMUSA,2283,34843.390;2283,34843.390001024,00000077,64187,27,455,18,8,-155*e1c82dd4
%RAWIMUSA,2283,34843.400;2283,34843.400001024,00000077,64188,17,467,18,0,914*9fe80116
%RAWIMUSA,2283,34843.410;2283,34843.410001024,00000077,64187,4,453,0,9,640*1dba31a9
%RAWIMUSA,2283,34843.420;2283,34843.420001024,00000077,64187,14,443,-18,-9,-914*54608dc8
%RAWIMUSA,2283,34843.430;2283,34843.430001024,00000077,64189,30,454,0,-9,-905*2839f138
%RAWIMUSA,2283,34843.440;2283,34843.440001024,00000077,64188,17,462,18,9,731*dbd09d19
%RAWIMUSA,2283,34843.450;2283,34843.450001024,00000077,64186,6,455,18,9,914*3d5f6ccd
%RAWIMUSA,2283,34843.460;2283,34843.460001024,00000077,64192,15,446,-18,-9,-265*c574bf42
%RAWIMUSA,2283,34843.470;2283,34843.470001024,00000077,64189,31,452,-9,-9,-914*99a2710f
%RAWIMUSA,2283,34843.480;2283,34843.480001024,00000077,64186,17,457,18,8,-191*fcbfbec5
%RAWIMUSA,2283,34843.490;2283,34843.490001024,00000077,64191,2,450,18,0,932*e225f070
%RAWIMUSA,2283,34843.500;2283,34843.500001024,00000077,64187,23,450,0,9,676*3804cab7
%RAWIMUSA,2283,34843.510;2283,34843.510001024,00000077,64186,26,454,-18,-9,-914*f3d118b2
%RAWIMUSA,2283,34843.520;2283,34843.520001024,00000077,64186,12,457,0,-9,-905*10470582
%RAWIMUSA,2283,34843.530;2283,34843.530001024,00000077,64183,6,451,27,9,685*92edaf5f
%RAWIMUSA,2283,34843.540;2283,34843.540001024,00000077,64186,25,450,9,9,923*def3bcd1
%RAWIMUSA,2283,34843.550;2283,34843.550001024,00000077,64189,30,454,-9,-9,-210*5a2838a1
%RAWIMUSA,2283,34843.560;2283,34843.560001024,00000077,64185,9,459,-18,-9,-905*0437899f
%RAWIMUSA,2283,34843.570;2283,34843.570001024,00000077,64191,3,454,18,0,-246*feb79529
%RAWIMUSA,2283,34843.580;2283,34843.580001024,00000077,64189,23,449,28,9,914*4c14f8bb
%RAWIMUSA,2283,34843.590;2283,34843.590001024,00000077,64184,24,453,-8,0,722*c2bc8675
%RAWIMUSA,2283,34843.600;2283,34843.600001024,00000077,64191,10,457,-18,-9,-896*f5cce73a
%RAWIMUSA,2283,34843.610;2283,34843.610001024,00000077,64187,6,454,9,0,-914*bdd3f64d
%RAWIMUSA,2283,34843.620;2283,34843.620001024,00000077,64186,22,449,18,9,640*2e476127
%RAWIMUSA,2283,34843.630;2283,34843.630001024,00000077,64190,28,455,9,9,923*632837cc
%RAWIMUSA,2283,34843.640;2283,34843.640001024,00000077,64185,9,455,-9,-18,-155*892a1ee3
%RAWIMUSA,2283,34843.650;2283,34843.650001024,00000077,64187,8,447,-9,0,-923*14b834c5
%RAWIMUSA,2283,34843.660;2283,34843.660001024,00000077,64191,26,452,18,0,-292*44104ecc
%RAWIMUSA,2283,34843.670;2283,34843.670001024,00000077,64185,29,461,18,9,923*15be6558
%RAWIMUSA,2283,34843.680;2283,34843.680001024,00000077,64185,11,453,-8,0,768*57e9a29f
%RAWIMUSA,2283,34843.690;2283,34843.690001024,00000077,64189,11,444,-9,-9,-905*2832346c
%RAWIMUSA,2283,34843.700;2283,34843.700001024,00000077,64190,25,456,0,0,-896*4db7d86c
%RAWIMUSA,2283,34843.710;2283,34843.710001024,00000077,64188,26,464,27,0,585*2c21f30c
%RAWIMUSA,2283,34843.720;2283,34843.720001024,00000077,64186,6,447,9,9,923*09117a39
%RAWIMUSA,2283,34843.730;2283,34843.730001024,00000077,64188,9,442,-18,-9,-109*7342739f
%RAWIMUSA,2283,34843.740;2283,34843.740001024,00000077,64190,28,461,-9,0,-905*599de3c0
%RAWIMUSA,2283,34843.750;2283,34843.750001024,00000077,64185,22,463,18,0,-347*d90a77fa
%RAWIMUSA,2283,34843.760;2283,34843.760001024,00000077,64185,8,447,18,9,905*6b9fb510
%RAWIMUSA,2283,34843.770;2283,34843.770001024,00000077,64189,14,444,0,0,823*8a52c488
%RAWIMUSA,2283,34843.780;2283,34843.780001024,00000077,64188,25,461,-18,-9,-905*d8169c83
%RAWIMUSA,2283,34843.790;2283,34843.790001024,00000077,64185,19,457,9,0,-905*8f9d31a0
%RAWIMUSA,2283,34843.800;2283,34843.800001024,00000077,64189,9,444,18,0,539*f8266d7e
%RAWIMUSA,2283,34843.810;2283,34843.810001024,00000077,64189,15,445,9,9,923*bdc791f5
%RAWIMUSA,2283,34843.820;2283,34843.820001024,00000077,64187,26,456,-18,-9,-63*0150bb2f
%RAWIMUSA,2283,34843.830;2283,34843.830001024,00000077,64187,15,460,-9,-9,-905*15c4be79
%RAWIMUSA,2283,34843.840;2283,34843.840001024,00000077,64187,9,445,18,8,-402*b588d26c
%RAWIMUSA,2283,34843.850;2283,34843.850001024,00000077,64187,19,447,28,9,914*087d0793
%RAWIMUSA,2283,34843.860;2283,34843.860001024,00000077,64189,23,460,-8,0,877*87ccd683
%RAWIMUSA,2283,34843.870;2283,34843.870001024,00000077,64186,15,457,-18,-9,-896*a7bb5fbf
%RAWIMUSA,2283,34843.880;2283,34843.880001024,00000077,64185,11,446,9,0,-905*788ccc6e
%RAWIMUSA,2283,34843.890;2283,34843.890001024,00000077,64188,24,449,18,9,475*228e8971
%RAWIMUSA,2283,34843.900;2283,34843.900001024,00000077,64189,26,466,9,0,914*45317fb5
%RAWIMUSA,2283,34843.910;2283,34843.910001024,00000077,64190,8,454,-9,0,-9*bd0dd148
%RAWIMUSA,2283,34843.920;2283,34843.920001024,00000077,64184,15,437,-9,-9,-896*da3d3774
%RAWIMUSA,2283,34843.930;2283,34843.930001024,00000077,64192,22,457,18,8,-447*c9a1006f
%RAWIMUSA,2283,34843.940;2283,34843.940001024,00000077,64188,23,465,18,9,914*1dc869f3
%RAWIMUSA,2283,34843.950;2283,34843.950001024,00000077,64185,12,452,-8,-8,914*e6171b55
%RAWIMUSA,2283,34843.960;2283,34843.960001024,00000077,64187,16,440,-18,-9,-896*c57d77b1
%RAWIMUSA,2283,34843.970;2283,34843.970001024,00000077,64190,25,455,9,8,-905*024cc6bf
%RAWIMUSA,2283,34843.980;2283,34843.980001024,00000077,64184,18,464,27,0,439*fbea3719
%RAWIMUSA,2283,34843.990;2283,34843.990001024,00000077,64194,12,452,0,0,923*e519e9e1
%RAWIMUSA,2283,34844.000;2283,34844.000001024,00000077,64186,21,442,-9,-9,45*29eaf667
%RAWIMUSA,2283,34844.010;2283,34844.010001024,00000077,64188,15,453,-9,0,-905*32e2a20a
%RAWIMUSA,2283,34844.020;2283,34844.020001024,00000077,64189,15,464,18,0,-493*798a8af4
%RAWIMUSA,2283,34844.030;2283,34844.030001024,00000077,64187,20,451,18,9,914*a7d642c7
%RAWIMUSA,2283,34844.040;2283,34844.040001024,00000077,64186,18,443,-8,0,932*0cc81b88
%RAWIMUSA,2283,34844.050;2283,34844.050001024,00000077,64189,20,457,-9,-9,-850*e2ebd119
%RAWIMUSA,2283,34844.060;2283,34844.060001024,00000077,64189,17,465,9,0,-905*e0648f79
%RAWIMUSA,2283,34844.070;2283,34844.070001024,00000077,64188,14,451,18,9,402*76e61d6a
%RAWIMUSA,2283,34844.080;2283,34844.080001024,00000077,64189,19,444,0,0,914*a8397c8a
%RAWIMUSA,2283,34844.090;2283,34844.090001024,00000077,64182,16,455,-9,-9,82*640bb723
%RAWIMUSA,2283,34844.100;2283,34844.100001024,00000077,64189,15,463,-9,0,-896*9be2e4fe
%RAWIMUSA,2283,34844.110;2283,34844.110001024,00000077,64190,19,451,18,8,-548*63806c46
%RAWIMUSA,2283,34844.120;2283,34844.120001024,00000077,64185,17,442,18,9,923*5ac13352
%RAWIMUSA,2283,34844.130;2283,34844.130001024,00000077,64188,16,453,-8,-8,923*92898fa1
%RAWIMUSA,2283,34844.140;2283,34844.140001024,00000077,64192,21,460,-18,-9,-786*4b4921d5
%RAWIMUSA,2283,34844.150;2283,34844.150001024,00000077,64190,13,452,18,8,-896*9f2c38d7
%RAWIMUSA,2283,34844.160;2283,34844.160001024,00000077,64187,17,444,18,9,347*3880bba6
%RAWIMUSA,2283,34844.170;2283,34844.170001024,00000077,64187,16,456,0,0,905*0dab21d2
%RAWIMUSA,2283,34844.180;2283,34844.180001024,00000077,64187,16,461,-18,-9,137*63094a1e
%RAWIMUSA,2283,34844.190;2283,34844.190001024,00000077,64186,18,456,0,-9,-905*0aa73290
%RAWIMUSA,2283,34844.200;2283,34844.200001024,00000077,64189,15,443,18,8,-594*3ef43853
%RAWIMUSA,2283,34844.210;2283,34844.210001024,00000077,64186,18,454,18,9,923*0e92f03e
%RAWIMUSA,2283,34844.220;2283,34844.220001024,00000077,64187,21,461,-8,-8,914*04359ffc
%RAWIMUSA,2283,34844.230;2283,34844.230001024,00000077,64190,16,453,-9,-9,-740*b04ea243
%RAWIMUSA,2283,34844.240;2283,34844.240001024,00000077,64185,15,441,9,0,-914*f42f3b38
%RAWIMUSA,2283,34844.250;2283,34844.250001024,00000077,64190,17,450,27,9,292*1e291ad0
%RAWIMUSA,2283,34844.260;2283,34844.260001024,00000077,64187,17,463,0,0,914*3da4ac4e
%RAWIMUSA,2283,34844.270;2283,34844.270001024,00000077,64187,18,450,-18,-9,192*9a6bfdfb
%RAWIMUSA,2283,34844.280;2283,34844.280001024,00000077,64189,16,446,0,0,-914*13f0e2e6
%RAWIMUSA,2283,34844.290;2283,34844.290001024,00000077,64190,20,453,18,8,-649*65fe6430
%RAWIMUSA,2283,34844.300;2283,34844.300001024,00000077,64188,16,464,18,9,923*dfa4b861
%RAWIMUSA,2283,34844.310;2283,34844.310001024,00000077,64189,16,455,-18,-8,905*23ed6b49
%RAWIMUSA,2283,34844.320;2283,34844.320001024,00000077,64184,15,441,-9,-9,-703*9550264d
%RAWIMUSA,2283,34844.330;2283,34844.330001024,00000077,64186,17,453,18,8,-896*a4447574
%RAWIMUSA,2283,34844.340;2283,34844.340001024,00000077,64189,16,465,18,9,237*42208c98
%RAWIMUSA,2283,34844.350;2283,34844.350001024,00000077,64190,12,444,0,-8,914*2387dfd0
%RAWIMUSA,2283,34844.360;2283,34844.360001024,00000077,64188,21,442,-18,0,237*fa0628a8
%RAWIMUSA,2283,34844.370;2283,34844.370001024,00000077,64187,18,458,0,0,-896*ce1a72e0
%RAWIMUSA,2283,34844.380;2283,34844.380001024,00000077,64190,13,464,27,0,-694*bcca711d
%RAWIMUSA,2283,34844.390;2283,34844.390001024,00000077,64186,15,454,9,9,923*5c4f8335
%RAWIMUSA,2283,34844.400;2283,34844.400001024,00000077,64187,15,439,-8,-8,923*a1cb5b40
%RAWIMUSA,2283,34844.410;2283,34844.410001024,00000077,64183,17,453,-18,-9,-639*47ae0eb6
%RAWIMUSA,2283,34844.420;2283,34844.420001024,00000077,64188,13,465,18,8,-905*c96e393f
%RAWIMUSA,2283,34844.430;2283,34844.430001024,00000077,64192,22,447,27,9,192*9e35f590
%RAWIMUSA,2283,34844.440;2283,34844.440001024,00000077,64188,20,446,0,-8,914*8538107e
%RAWIMUSA,2283,34844.450;2283,34844.450001024,00000077,64188,3,459,-18,-9,292*8ad772c3
%RAWIMUSA,2283,34844.460;2283,34844.460001024,00000077,64189,25,465,0,0,-905*57b7b519
%RAWIMUSA,2283,34844.470;2283,34844.470001024,00000077,64189,20,443,27,8,-740*31fa99a9
%RAWIMUSA,2283,34844.480;2283,34844.480001024,00000077,64186,13,438,9,0,923*df769875
%RAWIMUSA,2283,34844.490;2283,34844.490001024,00000077,64184,10,458,-8,-8,905*b174bb57
%RAWIMUSA,2283,34844.500;2283,34844.500001024,00000077,64190,18,467,-18,0,-594*02fa8439
%RAWIMUSA,2283,34844.510;2283,34844.510001024,00000077,64188,25,445,18,8,-905*975d216e
%RAWIMUSA,2283,34844.520;2283,34844.520001024,00000077,64190,6,441,18,9,146*e377bf35
%RAWIMUSA,2283,34844.530;2283,34844.530001024,00000077,64189,11,458,0,-8,914*ea5af60a
%RAWIMUSA,2283,34844.540;2283,34844.540001024,00000077,64185,26,461,-18,-8,347*1f642f77
%RAWIMUSA,2283,34844.550;2283,34844.550001024,00000077,64187,19,451,9,0,-896*b7662c39
%RAWIMUSA,2283,34844.560;2283,34844.560001024,00000077,64187,11,447,18,8,-795*55919132
%RAWIMUSA,2283,34844.570;2283,34844.570001024,00000077,64186,17,458,9,0,905*c4cc79ba
%RAWIMUSA,2283,34844.580;2283,34844.580001024,00000077,64189,24,458,-8,-8,914*f7b206db
%RAWIMUSA,2283,34844.590;2283,34844.590001024,00000077,64187,15,444,-18,0,-548*bb61a272
%RAWIMUSA,2283,34844.600;2283,34844.600001024,00000077,64186,10,448,27,8,-905*f7b7f87c
%RAWIMUSA,2283,34844.610;2283,34844.610001024,00000077,64191,23,467,18,9,100*10615b1d
%RAWIMUSA,2283,34844.620;2283,34844.620001024,00000077,64186,23,462,-8,-8,923*0fa239b7
%RAWIMUSA,2283,34844.630;2283,34844.630001024,00000077,64193,11,437,-8,-8,393*37247b73
%RAWIMUSA,2283,34844.640;2283,34844.640001024,00000077,64187,12,447,0,0,-914*0f00e5cc
%RAWIMUSA,2283,34844.650;2283,34844.650001024,00000077,64184,22,462,18,8,-841*2a1fbb0c
%RAWIMUSA,2283,34844.660;2283,34844.660001024,00000077,64187,21,457,9,0,914*25a077a9
%RAWIMUSA,2283,34844.670;2283,34844.670001024,00000077,64186,10,441,-8,-8,923*9706b16a
%RAWIMUSA,2283,34844.680;2283,34844.680001024,00000077,64189,14,448,-9,0,-502*27755771
%RAWIMUSA,2283,34844.690;2283,34844.690001024,00000077,64186,25,466,9,8,-905*6aa19241
%RAWIMUSA,2283,34844.700;2283,34844.700001024,00000077,64189,21,457,27,9,54*db3c5b07
%RAWIMUSA,2283,34844.710;2283,34844.710001024,00000077,64188,11,439,-8,-8,905*4e2cff70
%RAWIMUSA,2283,34844.720;2283,34844.720001024,00000077,64185,17,446,-8,-8,439*1ee61023
%RAWIMUSA,2283,34844.730;2283,34844.730001024,00000077,64185,25,463,0,8,-914*a9a9672f
%RAWIMUSA,2283,34844.740;2283,34844.740001024,00000077,64186,16,461,18,8,-896*46922ed0
%RAWIMUSA,2283,34844.750;2283,34844.750001024,00000077,64186,11,444,9,0,914*a04be6a3
%RAWIMUSA,2283,34844.760;2283,34844.760001024,00000077,64187,18,446,-8,-8,905*3d76bb19
%RAWIMUSA,2283,34844.770;2283,34844.770001024,00000077,64191,22,462,-9,0,-447*a70ef2ed
%RAWIMUSA,2283,34844.780;2283,34844.780001024,00000077,64189,15,457,18,8,-896*d72b68d3
%RAWIMUSA,2283,34844.790;2283,34844.790001024,00000077,64188,12,444,18,0,-9*27baeee1
%RAWIMUSA,2283,34844.800;2283,34844.800001024,00000077,64188,19,449,-8,-8,914*72a87acd
%RAWIMUSA,2283,34844.810;2283,34844.810001024,00000077,64187,21,465,-8,0,475*8a177c9c
%RAWIMUSA,2283,34844.820;2283,34844.820001024,00000077,64189,16,458,0,0,-896*11ed8952
%RAWIMUSA,2283,34844.830;2283,34844.830001024,00000077,64190,13,444,18,8,-914*660b755a
%RAWIMUSA,2283,34844.840;2283,34844.840001023,00000077,64191,16,448,9,0,877*76651961
%RAWIMUSA,2283,34844.850;2283,34844.850001023,00000077,64190,23,463,-8,-8,914*a75d0777
%RAWIMUSA,2283,34844.860;2283,34844.860001023,00000077,64185,17,457,-9,0,-402*1a90b348
%RAWIMUSA,2283,34844.870;2283,34844.870001023,00000077,64187,14,444,18,8,-914*13948d3a
%RAWIMUSA,2283,34844.880;2283,34844.880001023,00000077,64188,16,448,27,0,-63*c6a448d5
%RAWIMUSA,2283,34844.890;2283,34844.890001023,00000077,64188,20,465,-8,0,914*547ca2d2
%RAWIMUSA,2283,34844.900;2283,34844.900001023,00000077,64189,18,459,-18,-8,530*3aafb67d
%RAWIMUSA,2283,34844.910;2283,34844.910001023,00000077,64185,5,440,9,8,-905*a3d16064
%RAWIMUSA,2283,34844.920;2283,34844.920001023,00000077,64183,13,447,18,0,-914*d6c69cf4
%RAWIMUSA,2283,34844.930;2283,34844.930001023,00000077,64191,30,469,0,0,832*5ff0fa82
%RAWIMUSA,2283,34844.940;2283,34844.940001023,00000077,64189,17,459,-8,-8,923*73b5a066
%RAWIMUSA,2283,34844.950;2283,34844.950001023,00000077,64179,2,437,-9,0,-356*056f5184
%RAWIMUSA,2283,34844.960;2283,34844.960001023,00000077,64187,14,450,18,8,-914*402d10f6
%RAWIMUSA,2283,34844.970;2283,34844.970001023,00000077,64188,32,463,27,0,-109*157460e9
%RAWIMUSA,2283,34844.980;2283,34844.980001023,00000077,64192,15,454,-18,-8,923*2a02ce8b
%RAWIMUSA,2283,34844.990;2283,34844.990001023,00000077,64190,3,441,-8,0,594*ff3c8a79
%RAWIMUSA,2283,34845.000;2283,34845.000001023,00000077,64192,20,452,9,8,-914*4fe19de5
%RAWIMUSA,2283,34845.010;2283,34845.010001023,00000077,64188,31,464,18,8,-914*e8831c89
%RAWIMUSA,2283,34845.020;2283,34845.020001023,00000077,64186,7,451,0,-8,804*32afcbb6
%RAWIMUSA,2283,34845.030;2283,34845.030001023,00000077,64189,8,444,-8,-8,905*32e3c241
%RAWIMUSA,2283,34845.040;2283,34845.040001023,00000077,64188,28,456,0,0,-310*b6081ca5
%RAWIMUSA,2283,34845.050;2283,34845.050001023,00000077,64188,21,462,18,8,-896*d1c449d7
%RAWIMUSA,2283,34845.060;2283,34845.060001023,00000077,64190,7,452,18,0,-164*c45ea941
%RAWIMUSA,2283,34845.070;2283,34845.070001023,00000077,64187,8,444,-18,-8,923*ec924475
%RAWIMUSA,2283,34845.080;2283,34845.080001023,00000077,64187,31,452,-8,0,621*da8fdd3b
%RAWIMUSA,2283,34845.090;2283,34845.090001023,00000077,64188,30,460,9,8,-905*83b5207a
%RAWIMUSA,2283,34845.100;2283,34845.100001023,00000077,64189,1,455,18,0,-905*9ae877f0
%RAWIMUSA,2283,34845.110;2283,34845.110001023,00000077,64183,7,446,0,-8,731*ba1240d3
%RAWIMUSA,2283,34845.120;2283,34845.120001023,00000077,64185,30,452,-8,-8,923*05b844fd
%RAWIMUSA,2283,34845.130;2283,34845.130001023,00000077,64189,25,459,0,8,-246*b52b0c51
%RAWIMUSA,2283,34845.140;2283,34845.140001023,00000077,64185,6,455,18,8,-896*d6689c2f
%RAWIMUSA,2283,34845.150;2283,34845.150001023,00000077,64186,10,449,18,-9,-210*8023ffa4
%RAWIMUSA,2283,34845.160;2283,34845.160001023,00000077,64189,28,451,-18,-8,914*8c4d5f0b
%RAWIMUSA,2283,34845.170;2283,34845.170001023,00000077,64188,22,454,-8,0,685*860c1f79
%RAWIMUSA,2283,34845.180;2283,34845.180001023,00000077,64188,7,457,9,8,-905*8dc582db
%RAWIMUSA,2283,34845.190;2283,34845.190001023,00000077,64187,11,453,18,8,-923*362d00d9
%RAWIMUSA,2283,34845.200;2283,34845.200001023,00000077,64186,25,445,0,-8,685*79a4f036
%RAWIMUSA,2283,34845.210;2283,34845.210001023,00000077,64186,20,452,-8,-8,914*7d51280d
%RAWIMUSA,2283,34845.220;2283,34845.220001023,00000077,64187,10,458,0,8,-210*19930d3a
%RAWIMUSA,2283,34845.230;2283,34845.230001023,00000077,64190,13,454,18,8,-905*ef1f314a
%RAWIMUSA,2283,34845.240;2283,34845.240001023,00000077,64185,25,447,18,0,-246*dc26898e
%RAWIMUSA,2283,34845.250;2283,34845.250001023,00000077,64190,19,452,-18,-8,914*69379f71
%RAWIMUSA,2283,34845.260;2283,34845.260001023,00000077,64186,11,458,-18,0,731*24ca7521
%RAWIMUSA,2283,34845.270;2283,34845.270001023,00000077,64185,16,453,18,8,-905*9e34f462
%RAWIMUSA,2283,34845.280;2283,34845.280001023,00000077,64190,25,448,18,0,-914*0a7a76de
%RAWIMUSA,2283,34845.290;2283,34845.290001023,00000077,64186,14,455,0,0,631*607ac55f
%RAWIMUSA,2283,34845.300;2283,34845.300001023,00000077,64187,10,455,-18,-8,914*c3741c8b
%RAWIMUSA,2283,34845.310;2283,34845.310001023,00000077,64188,18,447,0,9,-155*5de33f95
%RAWIMUSA,2283,34845.320;2283,34845.320001023,00000077,64187,32,458,27,0,-905*99a9d91f
%RAWIMUSA,2283,34845.330;2283,34845.330001023,00000077,64188,10,450,9,0,-310*fc730e22
%RAWIMUSA,2283,34845.340;2283,34845.340001023,00000077,64190,6,448,-8,-8,923*fa35b0dc
%RAWIMUSA,2283,34845.350;2283,34845.350001023,00000077,64188,22,455,-18,0,777*faf372db
%RAWIMUSA,2283,34845.360;2283,34845.360001023,00000077,64189,22,458,18,8,-905*7a9d799c
%RAWIMUSA,2283,34845.370;2283,34845.370001023,00000077,64188,11,451,18,0,-905*b7238c49
%RAWIMUSA,2283,34845.380;2283,34845.380001023,00000077,64188,12,451,0,-8,576*01337fe3
%RAWIMUSA,2283,34845.390;2283,34845.390001023,00000077,64188,24,453,-8,0,923*2851d1e3
%RAWIMUSA,2283,34845.400;2283,34845.400001023,00000077,64188,23,458,0,0,-100*422af376
%RAWIMUSA,2283,34845.410;2283,34845.410001023,00000077,64189,7,455,18,8,-914*a0b92c6f
%RAWIMUSA,2283,34845.420;2283,34845.420001023,00000077,64186,15,451,18,0,-356*bd4df7c3
%RAWIMUSA,2283,34845.430;2283,34845.430001023,00000077,64189,27,452,-18,-8,905*bc026f5b
%RAWIMUSA,2283,34845.440;2283,34845.440001023,00000077,64186,16,455,-8,0,832*53884038
%RAWIMUSA,2283,34845.450;2283,34845.450001023,00000077,64188,12,452,18,8,-905*b70ec432
%RAWIMUSA,2283,34845.460;2283,34845.460001023,00000077,64189,20,446,18,0,-914*3c99ae5f
%RAWIMUSA,2283,34845.470;2283,34845.470001023,00000077,64188,21,456,0,-8,539*4c576bad
%RAWIMUSA,2283,34845.480;2283,34845.480001023,00000077,64187,15,462,-18,0,914*e4e44269
%RAWIMUSA,2283,34845.490;2283,34845.490001023,00000077,64188,11,446,9,9,-54*5cc92525
%RAWIMUSA,2283,34845.500;2283,34845.500001023,00000077,64193,23,451,18,0,-914*36ef901b
%RAWIMUSA,2283,34845.510;2283,34845.510001023,00000077,64184,22,459,9,0,-402*901e2acb
%RAWIMUSA,2283,34845.520;2283,34845.520001023,00000077,64185,6,460,-8,-8,923*57db9418
%RAWIMUSA,2283,34845.530;2283,34845.530001023,00000077,64189,15,445,-18,0,877*fe7dbe07
%RAWIMUSA,2283,34845.540;2283,34845.540001023,00000077,64186,23,445,27,8,-905*14e66c05
%RAWIMUSA,2283,34845.550;2283,34845.550001023,00000077,64190,21,462,18,0,-905*2147e706
%RAWIMUSA,2283,34845.560;2283,34845.560001023,00000077,64189,16,462,-8,-8,484*9fb17e29
%RAWIMUSA,2283,34845.570;2283,34845.570001023,00000077,64183,12,446,-18,0,914*78050107
%RAWIMUSA,2283,34845.580;2283,34845.580001023,00000077,64193,16,443,9,9,-9*25711b91
%RAWIMUSA,2283,34845.590;2283,34845.590001023,00000077,64185,20,458,18,0,-905*d705c784
%RAWIMUSA,2283,34845.600;2283,34845.600001023,00000077,64184,16,460,9,0,-447*eaaa744e
%RAWIMUSA,2283,34845.610;2283,34845.610001023,00000077,64195,17,449,-8,-8,914*2a9004ae
%RAWIMUSA,2283,34845.620;2283,34845.620001023,00000077,64188,19,446,-8,9,914*01632986
%RAWIMUSA,2283,34845.630;2283,34845.630001023,00000077,64187,12,451,18,8,-886*21857c03
%RAWIMUSA,2283,34845.640;2283,34845.640001023,00000077,64188,14,455,18,-9,-905*124f35dc
%RAWIMUSA,2283,34845.650;2283,34845.650001023,00000077,64185,17,459,0,-8,420*78fe51fe
%RAWIMUSA,2283,34845.660;2283,34845.660001023,00000077,64188,22,451,-18,0,914*56353dfb
%RAWIMUSA,2283,34845.670;2283,34845.670001023,00000077,64188,18,446,9,9,45*7e0d1e3a
%RAWIMUSA,2283,34845.680;2283,34845.680001023,00000077,64184,10,456,18,8,-914*8917cfa7
%RAWIMUSA,2283,34845.690;2283,34845.690001023,00000077,64186,16,460,9,-9,-502*6b3561fa
%RAWIMUSA,2283,34845.700;2283,34845.700001023,00000077,64189,20,450,-8,-8,914*cb6f96df
%RAWIMUSA,2283,34845.710;2283,34845.710001023,00000077,64188,16,450,-8,9,914*c755f581
%RAWIMUSA,2283,34845.720;2283,34845.720001023,00000077,64187,15,458,18,8,-841*8bdd3512
%RAWIMUSA,2283,34845.730;2283,34845.730001023,00000077,64186,15,453,18,-9,-895*0bea124e
%RAWIMUSA,2283,34845.740;2283,34845.740001023,00000077,64188,21,447,-8,-8,384*ab82133a
%RAWIMUSA,2283,34845.750;2283,34845.750001023,00000077,64189,18,453,-18,0,923*a3bfdb91
%RAWIMUSA,2283,34845.760;2283,34845.760001023,00000077,64187,14,456,9,9,91*905b9880
%RAWIMUSA,2283,34845.770;2283,34845.770001023,00000077,64187,16,451,18,0,-905*bab52661
%RAWIMUSA,2283,34845.780;2283,34845.780001023,00000077,64187,23,446,9,-9,-557*ef7e2b55
%RAWIMUSA,2283,34845.790;2283,34845.790001023,00000077,64187,20,454,-18,0,914*2931f22f
%RAWIMUSA,2283,34845.800;2283,34845.800001023,00000077,64185,10,461,-8,0,923*0954e30d
%RAWIMUSA,2283,34845.810;2283,34845.810001023,00000077,64188,10,449,18,8,-795*85e7a4ba
%RAWIMUSA,2283,34845.820;2283,34845.820001023,00000077,64184,28,445,27,0,-914*8043692a
%RAWIMUSA,2283,34845.830;2283,34845.830001023,00000077,64184,24,458,-8,-8,338*161a93e0
%RAWIMUSA,2283,34845.840;2283,34845.840001023,00000077,64189,9,458,-18,0,914*84e08a66
%RAWIMUSA,2283,34845.850;2283,34845.850001023,00000077,64188,13,450,9,9,146*3db452b7
%RAWIMUSA,2283,34845.860;2283,34845.860001023,00000077,64184,21,446,18,8,-896*1cb7bacc
%RAWIMUSA,2283,34845.870;2283,34845.870001023,00000077,64189,15,456,9,-9,-612*b162ef4d
%RAWIMUSA,2283,34845.880;2283,34845.880001023,00000077,64188,14,466,-18,-8,914*82572000
%RAWIMUSA,2283,34845.890;2283,34845.890001023,00000077,64189,20,451,-8,9,923*42195d71
%RAWIMUSA,2283,34845.900;2283,34845.900001023,00000077,64191,21,445,27,8,-740*6d83c758
%RAWIMUSA,2283,34845.910;2283,34845.910001023,00000077,64185,15,464,18,-9,-905*6ede9c5c
%RAWIMUSA,2283,34845.920;2283,34845.920001023,00000077,64188,11,462,-8,-9,292*dbc08ad5
%RAWIMUSA,2283,34845.930;2283,34845.930001023,00000077,64190,21,433,-18,9,914*8cbc297b
%RAWIMUSA,2283,34845.940;2283,34845.940001023,00000077,64189,22,453,9,9,201*4f9402ff
%RAWIMUSA,2283,34845.950;2283,34845.950001023,00000077,64189,18,468,18,0,-905*128b8744
%RAWIMUSA,2283,34845.960;2283,34845.960001023,00000077,64187,7,452,9,-9,-658*d243935a
%RAWIMUSA,2283,34845.970;2283,34845.970001023,00000077,64186,15,442,-8,-8,914*61ed2404
%RAWIMUSA,2283,34845.980;2283,34845.980001023,00000077,64186,24,455,-8,9,914*e3fe04ed
%RAWIMUSA,2283,34845.990;2283,34845.990001023,00000077,64184,17,464,18,0,-685*95a74461
%RAWIMUSA,2283,34846.000;2283,34846.000001023,00000077,64188,10,449,18,0,-905*e80298cf
%RAWIMUSA,2283,34846.010;2283,34846.010001023,00000077,64188,22,441,-9,-9,228*37b07349
%RAWIMUSA,2283,34846.020;2283,34846.020001023,00000077,64185,22,457,-18,0,914*5345bd83
%RAWIMUSA,2283,34846.030;2283,34846.030001023,00000077,64193,11,464,18,9,237*7f9d90ba
%RAWIMUSA,2283,34846.040;2283,34846.040001023,00000077,64188,14,451,18,0,-895*cb970e67
%RAWIMUSA,2283,34846.050;2283,34846.050001023,00000077,64188,21,447,0,-9,-703*72808bca
%RAWIMUSA,2283,34846.060;2283,34846.060001023,00000077,64192,21,453,-8,0,923*0eb03c76
%RAWIMUSA,2283,34846.070;2283,34846.070001023,00000077,64184,11,459,0,9,905*dc56065d
%RAWIMUSA,2283,34846.080;2283,34846.080001023,00000077,64187,15,449,18,0,-649*fa635300
%RAWIMUSA,2283,34846.090;2283,34846.090001023,00000077,64188,24,447,9,-9,-914*89d59a53
%RAWIMUSA,2283,34846.100;2283,34846.100001023,00000077,64186,19,459,-9,-9,192*8165f24b
%RAWIMUSA,2283,34846.110;2283,34846.110001023,00000077,64188,11,457,-18,9,923*9938ee3c
%RAWIMUSA,2283,34846.120;2283,34846.120001023,00000077,64191,12,444,18,9,274*b0a28b91
%RAWIMUSA,2283,34846.130;2283,34846.130001023,00000077,64184,16,448,18,0,-905*aeb50c39
%RAWIMUSA,2283,34846.140;2283,34846.140001023,00000077,64190,24,460,0,-9,-740*c114a696
%RAWIMUSA,2283,34846.150;2283,34846.150001023,00000077,64189,15,456,-18,0,914*dd4ec9f0
%RAWIMUSA,2283,34846.160;2283,34846.160001023,00000077,64184,12,450,0,0,914*124f50d2
%RAWIMUSA,2283,34846.170;2283,34846.170001023,00000077,64189,19,446,18,8,-585*2eff55d7
%RAWIMUSA,2283,34846.180;2283,34846.180001023,00000077,64187,21,457,18,-9,-914*04ba52a7
%RAWIMUSA,2283,34846.190;2283,34846.190001023,00000077,64187,14,458,-18,-9,137*480f76f0
%RAWIMUSA,2283,34846.200;2283,34846.200001023,00000077,64191,14,449,-8,9,905*707807c5
%RAWIMUSA,2283,34846.210;2283,34846.210001023,00000077,64188,17,450,18,9,338*8355c8fb
%RAWIMUSA,2283,34846.220;2283,34846.220001023,00000077,64188,21,457,18,0,-905*4069d4fe
%RAWIMUSA,2283,34846.230;2283,34846.230001023,00000077,64188,17,457,0,-9,-804*de2bbee6
%RAWIMUSA,2283,34846.240;2283,34846.240001023,00000077,64186,10,453,-18,0,914*2150dddd
%RAWIMUSA,2283,34846.250;2283,34846.250001023,00000077,64184,17,450,0,9,914*1d84b735
%RAWIMUSA,2283,34846.260;2283,34846.260001023,00000077,64186,21,457,18,0,-539*2a4aaf64
%RAWIMUSA,2283,34846.270;2283,34846.270001023,00000077,64189,16,454,18,-9,-905*522c490d
%RAWIMUSA,2283,34846.280;2283,34846.280001023,00000077,64187,13,450,-9,-9,82*6c3ea1b6
%RAWIMUSA,2283,34846.290;2283,34846.290001023,00000077,64185,21,449,-18,9,914*4b28a8c9
%RAWIMUSA,2283,34846.300;2283,34846.300001023,00000077,64188,17,455,18,9,393*ca2ab1f5
%RAWIMUSA,2283,34846.310;2283,34846.310001023,00000077,64188,15,456,18,-9,-905*a932b445
%RAWIMUSA,2283,34846.320;2283,34846.320001023,00000077,64186,16,449,0,0,-850*51902706
%RAWIMUSA,2283,34846.330;2283,34846.330001023,00000077,64188,18,454,-8,0,914*df275474
%RAWIMUSA,2283,34846.340;2283,34846.340001023,00000077,64189,20,459,0,9,932*de5648bf
%RAWIMUSA,2283,34846.350;2283,34846.350001023,00000077,64186,10,451,18,0,-493*f00e8750
%RAWIMUSA,2283,34846.360;2283,34846.360001023,00000077,64187,19,445,9,-9,-905*fcc23611
%RAWIMUSA,2283,34846.370;2283,34846.370001023,00000077,64187,21,455,-9,0,36*f1aa7f50
%RAWIMUSA,2283,34846.380;2283,34846.380001023,00000077,64188,17,460,-8,9,914*d129b892
%RAWIMUSA,2283,34846.390;2283,34846.390001023,00000077,64187,17,454,18,9,448*9f83e07a
%RAWIMUSA,2283,34846.400;2283,34846.400001023,00000077,64193,24,450,18,-9,-905*1bf55598
%RAWIMUSA,2283,34846.410;2283,34846.410001023,00000077,64188,16,445,0,-9,-895*93bf5e67
%RAWIMUSA,2283,34846.420;2283,34846.420001023,00000077,64188,13,462,-18,9,914*5bec00eb
%RAWIMUSA,2283,34846.430;2283,34846.430001023,00000077,64190,17,463,9,0,914*3bc9fd9f
%RAWIMUSA,2283,34846.440;2283,34846.440001023,00000077,64187,23,447,18,0,-447*ce637094
%RAWIMUSA,2283,34846.450;2283,34846.450001023,00000077,64187,13,444,9,0,-905*967afa75
%RAWIMUSA,2283,34846.460;2283,34846.460001023,00000077,64184,11,455,-18,-9,-9*99355608
%RAWIMUSA,2283,34846.470;2283,34846.470001023,00000077,64187,20,462,-8,9,914*519903c3
%RAWIMUSA,2283,34846.480;2283,34846.480001023,00000077,64190,27,455,18,9,493*d79bc46a
%RAWIMUSA,2283,34846.490;2283,34846.490001023,00000077,64191,11,439,18,-9,-923*94c976c2
%RAWIMUSA,2283,34846.500;2283,34846.500001023,00000077,64185,8,453,0,-9,-895*668e105d
%RAWIMUSA,2283,34846.510;2283,34846.510001023,00000077,64188,23,467,-18,9,859*a1562d1b
%RAWIMUSA,2283,34846.520;2283,34846.520001023,00000077,64184,24,447,9,9,932*9ad5f805
%RAWIMUSA,2283,34846.530;2283,34846.530001023,00000077,64189,6,440,18,-9,-420*e65eaa38
%RAWIMUSA,2283,34846.540;2283,34846.540001023,00000077,64188,17,455,9,0,-877*05feecd1
%RAWIMUSA,2283,34846.550;2283,34846.550001023,00000077,64186,23,469,-18,-9,-82*bba551ad
%RAWIMUSA,2283,34846.560;2283,34846.560001023,00000077,64192,17,449,-8,9,932*87679fde
%RAWIMUSA,2283,34846.570;2283,34846.570001023,00000077,64188,13,434,18,9,530*1c5cf97d
%RAWIMUSA,2283,34846.580;2283,34846.580001023,00000077,64185,19,450,18,-9,-895*11ddf950
%RAWIMUSA,2283,34846.590;2283,34846.590001023,00000077,64190,18,468,-9,-9,-923*8ba02497
%RAWIMUSA,2283,34846.600;2283,34846.600001023,00000077,64183,28,454,-8,9,841*7ea26a72
%RAWIMUSA,2283,34846.610;2283,34846.610001023,00000077,64190,4,439,0,9,905*f282b9ba
%RAWIMUSA,2283,34846.620;2283,34846.620001023,00000077,64190,17,456,27,0,-338*9228c0f1
%RAWIMUSA,2283,34846.630;2283,34846.630001023,00000077,64190,23,469,9,-9,-914*4c5654a2
%RAWIMUSA,2283,34846.640;2283,34846.640001023,00000077,64186,20,453,-18,0,-100*bdc9c0bb
