%RAWIMUSA,2283,33849.030;2283,33849.030001545,00000077,64188,16,449,9,8,-905*3676f7dc
%RAWIMUSA,2283,33849.040;2283,33849.040001545,00000077,64188,23,439,-9,8,-905*fd1cd72a
%RAWIMUSA,2283,33849.050;2283,33849.050001545,00000077,64185,16,462,-8,0,777*b884dc7d
%RAWIMUSA,2283,33849.060;2283,33849.060001545,00000077,64186,11,464,18,-8,923*d47b0d7b
%RAWIMUSA,2283,33849.070;2283,33849.070001545,00000077,64185,18,447,18,0,-301*f32adfa5
%RAWIMUSA,2283,33849.080;2283,33849.080001545,00000077,64187,23,439,-9,8,-905*e2f3e3e3
%RAWIMUSA,2283,33849.090;2283,33849.090001545,00000077,64185,18,460,-9,0,-164*bdafb66b
%RAWIMUSA,2283,33849.100;2283,33849.100001545,00000077,64184,12,463,0,-8,923*1363e77b
%RAWIMUSA,2283,33849.110;2283,33849.110001545,00000077,64186,18,451,27,0,649*a650e78c
%RAWIMUSA,2283,33849.120;2283,33849.120001545,00000077,64188,22,444,9,8,-923*d267ddf1
%RAWIMUSA,2283,33849.130;2283,33849.130001545,00000077,64189,13,463,-18,8,-905*3a5a06ac
%RAWIMUSA,2283,33849.140;2283,33849.140001545,00000077,64186,12,465,-8,-8,731*878ab359
%RAWIMUSA,2283,33849.150;2283,33849.150001545,00000077,64187,22,445,18,-8,905*4c460537
%RAWIMUSA,2283,33849.160;2283,33849.160001545,00000077,64185,21,442,18,0,-246*5ec848cb
%RAWIMUSA,2283,33849.170;2283,33849.170001545,00000077,64185,14,469,-9,8,-914*f3fb3320
%RAWIMUSA,2283,33849.180;2283,33849.180001545,00000077,64186,13,465,-9,0,-210*ca252f13
%RAWIMUSA,2283,33849.190;2283,33849.190001545,00000077,64188,19,440,9,0,914*9f3e0c89
%RAWIMUSA,2283,33849.200;2283,33849.200001545,00000077,64187,25,443,27,-8,704*b2f8de88
%RAWIMUSA,2283,33849.210;2283,33849.210001545,00000077,64184,16,469,0,8,-914*d5f73c61
%RAWIMUSA,2283,33849.220;2283,33849.220001545,00000077,64185,13,466,-9,0,-905*69736655
%RAWIMUSA,2283,33849.230;2283,33849.230001545,00000077,64186,18,441,-8,-8,685*88fd3d4b
%RAWIMUSA,2283,33849.240;2283,33849.240001545,00000077,64189,18,442,18,0,923*6b2887af
%RAWIMUSA,2283,33849.250;2283,33849.250001545,00000077,64191,20,462,18,8,-201*48576e4b
%RAWIMUSA,2283,33849.260;2283,33849.260001545,00000077,64187,16,464,-9,0,-914*31df84d4
%RAWIMUSA,2283,33849.270;2283,33849.270001545,00000077,64184,20,441,-9,0,-265*f453638c
%RAWIMUSA,2283,33849.280;2283,33849.280001545,00000077,64186,23,442,9,-8,923*bb824ae4
%RAWIMUSA,2283,33849.290;2283,33849.290001545,00000077,64189,14,463,18,9,749*fb6bf387
%RAWIMUSA,2283,33849.300;2283,33849.300001545,00000077,64186,13,465,0,8,-914*5d3fa10d
%RAWIMUSA,2283,33849.310;2283,33849.310001545,00000077,64187,16,442,-9,0,-905*baf8b88e
%RAWIMUSA,2283,33849.320;2283,33849.320001545,00000077,64185,18,451,-8,-17,621*c8cd14a2
%RAWIMUSA,2283,33849.330;2283,33849.330001545,00000077,64186,17,466,18,0,923*1148507c
%RAWIMUSA,2283,33849.340;2283,33849.340001545,00000077,64189,12,459,18,8,-155*5d8c3cec
%RAWIMUSA,2283,33849.350;2283,33849.350001545,00000077,64190,17,442,-9,8,-914*ef0fe57f
%RAWIMUSA,2283,33849.360;2283,33849.360001545,00000077,64185,22,446,-18,0,-310*6a16f589
%RAWIMUSA,2283,33849.370;2283,33849.370001545,00000077,64188,22,461,9,-8,923*7bf502b6
%RAWIMUSA,2283,33849.380;2283,33849.380001545,00000077,64188,17,459,18,-8,786*3e24326d
%RAWIMUSA,2283,33849.390;2283,33849.390001545,00000077,64184,13,451,9,8,-914*5d9f54be
%RAWIMUSA,2283,33849.400;2283,33849.400001545,00000077,64188,16,448,-18,8,-905*7194cf1d
%RAWIMUSA,2283,33849.410;2283,33849.410001545,00000077,64185,22,463,0,-8,576*1b5bb338
%RAWIMUSA,2283,33849.420;2283,33849.420001545,00000077,64185,18,460,18,-8,923*c0313a31
%RAWIMUSA,2283,33849.430;2283,33849.430001545,00000077,64191,16,438,18,0,-109*104b5f5e
%RAWIMUSA,2283,33849.440;2283,33849.440001545,00000077,64187,15,448,-18,17,-914*9337d795
%RAWIMUSA,2283,33849.450;2283,33849.450001545,00000077,64188,20,470,-9,0,-365*ce1b3899
%RAWIMUSA,2283,33849.460;2283,33849.460001545,00000077,64186,17,463,9,-8,932*9efd67e6
%RAWIMUSA,2283,33849.470;2283,33849.470001545,00000077,64185,16,439,28,-8,841*9b7f5541
%RAWIMUSA,2283,33849.480;2283,33849.480001545,00000077,64184,17,445,0,0,-905*4a4d74b6
%RAWIMUSA,2283,33849.490;2283,33849.490001545,00000077,64185,23,473,-18,8,-914*f96a9165
%RAWIMUSA,2283,33849.500;2283,33849.500001545,00000077,64187,15,456,0,-8,530*8b78ad7a
%RAWIMUSA,2283,33849.510;2283,33849.510001545,00000077,64193,15,432,18,0,914*21068baa
%RAWIMUSA,2283,33849.520;2283,33849.520001545,00000077,64188,20,448,18,9,-36*cb6b245d
%RAWIMUSA,2283,33849.530;2283,33849.530001545,00000077,64185,20,476,-18,0,-914*ec658479
%RAWIMUSA,2283,33849.540;2283,33849.540001545,00000077,64186,15,458,-18,-9,-420*d867678e
%RAWIMUSA,2283,33849.550;2283,33849.550001545,00000077,64185,12,433,18,-8,923*47ca3f67
%RAWIMUSA,2283,33849.560;2283,33849.560001545,00000077,64188,19,448,18,18,905*ded55856
%RAWIMUSA,2283,33849.570;2283,33849.570001545,00000077,64188,23,473,0,0,-923*372a7b04
%RAWIMUSA,2283,33849.580;2283,33849.580001545,00000077,64183,14,456,-9,-9,-905*3e256a2f
%RAWIMUSA,2283,33849.590;2283,33849.590001545,00000077,64183,13,436,0,-8,466*260b8823
%RAWIMUSA,2283,33849.600;2283,33849.600001545,00000077,64184,20,454,18,0,923*286efed7
%RAWIMUSA,2283,33849.610;2283,33849.610001545,00000077,64187,19,469,18,9,9*35a723c9
%RAWIMUSA,2283,33849.620;2283,33849.620001545,00000077,64188,14,449,-18,8,-905*f5b20de9
%RAWIMUSA,2283,33849.630;2283,33849.630001545,00000077,64191,14,433,-9,0,-457*b1c2c374
%RAWIMUSA,2283,33849.640;2283,33849.640001545,00000077,64189,24,454,18,-8,923*deb63482
%RAWIMUSA,2283,33849.650;2283,33849.650001545,00000077,64182,17,476,18,0,932*6180cd6f
%RAWIMUSA,2283,33849.660;2283,33849.660001545,00000077,64186,12,453,0,0,-877*da5c2c90
%RAWIMUSA,2283,33849.670;2283,33849.670001545,00000077,64186,20,433,-18,8,-914*8a5661be
%RAWIMUSA,2283,33849.680;2283,33849.680001545,00000077,64188,24,454,0,0,429*1b67af5f
%RAWIMUSA,2283,33849.690;2283,33849.690001545,00000077,64186,15,471,28,-8,932*16d041c9
%RAWIMUSA,2283,33849.700;2283,33849.700001545,00000077,64186,9,457,9,9,36*4e4fd022
%RAWIMUSA,2283,33849.710;2283,33849.710001545,00000077,64185,20,438,-9,0,-905*42c1035c
%RAWIMUSA,2283,33849.720;2283,33849.720001545,00000077,64187,25,456,-18,0,-521*8d5c9cde
%RAWIMUSA,2283,33849.730;2283,33849.730001545,00000077,64190,16,469,18,-8,923*2da65ff2
%RAWIMUSA,2283,33849.740;2283,33849.740001545,00000077,64186,12,448,28,18,914*bf169571
%RAWIMUSA,2283,33849.750;2283,33849.750001545,00000077,64186,19,436,-9,0,-841*9fc7b210
%RAWIMUSA,2283,33849.760;2283,33849.760001545,00000077,64187,19,459,-9,0,-905*222b5b45
%RAWIMUSA,2283,33849.770;2283,33849.770001545,00000077,64184,12,471,0,-18,384*568c5543
%RAWIMUSA,2283,33849.780;2283,33849.780001545,00000077,64187,14,446,18,0,923*2fef74a0
%RAWIMUSA,2283,33849.790;2283,33849.790001545,00000077,64187,19,438,9,18,100*8aab18b8
%RAWIMUSA,2283,33849.800;2283,33849.800001545,00000077,64190,27,457,-9,8,-905*93c79fd0
%RAWIMUSA,2283,33849.810;2283,33849.810001545,00000077,64184,15,472,-9,-18,-566*664b1e6e
%RAWIMUSA,2283,33849.820;2283,33849.820001545,00000077,64187,7,447,18,-8,923*1a6eb537
%RAWIMUSA,2283,33849.830;2283,33849.830001545,00000077,64185,24,437,18,9,923*41ec9bd1
%RAWIMUSA,2283,33849.840;2283,33849.840001545,00000077,64187,23,460,-9,8,-786*7213cedb
%RAWIMUSA,2283,33849.850;2283,33849.850001545,00000077,64189,12,467,-9,0,-896*a165738d
%RAWIMUSA,2283,33849.860;2283,33849.860001545,00000077,64186,20,446,9,-9,329*03a601d4
%RAWIMUSA,2283,33849.870;2283,33849.870001545,00000077,64190,17,448,18,0,923*05ef2c5c
%RAWIMUSA,2283,33849.880;2283,33849.880001545,00000077,64182,16,454,9,0,164*170b6b5a
%RAWIMUSA,2283,33849.890;2283,33849.890001545,00000077,64187,13,462,-18,0,-914*33372ceb
%RAWIMUSA,2283,33849.900;2283,33849.900001545,00000077,64188,22,452,-9,0,-612*84564189
%RAWIMUSA,2283,33849.910;2283,33849.910001545,00000077,64191,25,443,18,0,914*cb2e9f08
%RAWIMUSA,2283,33849.920;2283,33849.920001545,00000077,64186,16,458,18,0,923*34a01e76
%RAWIMUSA,2283,33849.930;2283,33849.930001545,00000077,64185,12,460,-9,8,-749*3a4bf18e
%RAWIMUSA,2283,33849.940;2283,33849.940001545,00000077,64186,21,449,-9,0,-905*e02e9e12
%RAWIMUSA,2283,33849.950;2283,33849.950001545,00000077,64188,18,448,0,-9,283*26ea0a40
%RAWIMUSA,2283,33849.960;2283,33849.960001545,00000077,64187,15,456,28,9,932*dbee2a25
%RAWIMUSA,2283,33849.970;2283,33849.970001545,00000077,64186,18,463,9,0,192*d53978f4
%RAWIMUSA,2283,33849.980;2283,33849.980001545,00000077,64186,16,454,-18,0,-905*ee766ca0
%RAWIMUSA,2283,33849.990;2283,33849.990001545,00000077,64186,15,440,-9,0,-667*ef084167
%RAWIMUSA,2283,33850.000;2283,33850.000001545,00000077,64189,18,456,18,0,914*48b2fcd2
%RAWIMUSA,2283,33850.010;2283,33850.010001545,00000077,64188,21,463,18,0,914*40d8adf2
%RAWIMUSA,2283,33850.020;2283,33850.020001545,00000077,64184,19,449,-9,0,-685*4d0b05d8
%RAWIMUSA,2283,33850.030;2283,33850.030001545,00000077,64186,15,445,-9,0,-914*27eeb8cd
%RAWIMUSA,2283,33850.040;2283,33850.040001545,00000077,64190,20,456,0,0,228*0aa9a63e
%RAWIMUSA,2283,33850.050;2283,33850.050001545,00000077,64187,19,464,28,0,923*9aa7beaf
%RAWIMUSA,2283,33850.060;2283,33850.060001545,00000077,64186,12,454,0,9,246*6d76c978
%RAWIMUSA,2283,33850.070;2283,33850.070001545,00000077,64182,18,444,-9,-9,-905*755885fa
%RAWIMUSA,2283,33850.080;2283,33850.080001545,00000077,64186,21,457,-9,0,-722*72e43d88
%RAWIMUSA,2283,33850.090;2283,33850.090001545,00000077,64188,16,460,18,0,932*10fc0bc4
%RAWIMUSA,2283,33850.100;2283,33850.100001545,00000077,64186,14,451,18,0,914*cb5e6404
%RAWIMUSA,2283,33850.110;2283,33850.110001545,00000077,64188,22,446,-9,8,-639*8a1d6b5b
%RAWIMUSA,2283,33850.120;2283,33850.120001545,00000077,64188,25,451,-9,0,-905*2aae82ad
%RAWIMUSA,2283,33850.130;2283,33850.130001545,00000077,64186,19,458,0,-9,182*fe019fe7
%RAWIMUSA,2283,33850.140;2283,33850.140001545,00000077,64186,14,460,28,0,923*617b2685
%RAWIMUSA,2283,33850.150;2283,33850.150001545,00000077,64185,13,450,0,9,301*bea3bd28
%RAWIMUSA,2283,33850.160;2283,33850.160001545,00000077,64187,19,448,-9,0,-905*088bc6a6
%RAWIMUSA,2283,33850.170;2283,33850.170001545,00000077,64187,22,459,-9,-9,-758*1f09c2fb
%RAWIMUSA,2283,33850.180;2283,33850.180001545,00000077,64185,16,459,18,0,914*7e8ba1e2
%RAWIMUSA,2283,33850.190;2283,33850.190001545,00000077,64189,17,450,18,9,932*13e004d6
%RAWIMUSA,2283,33850.200;2283,33850.200001545,00000077,64188,22,447,-9,8,-594*853a3c79
%RAWIMUSA,2283,33850.210;2283,33850.210001545,00000077,64185,18,456,-9,-19,-905*dfd08799
%RAWIMUSA,2283,33850.220;2283,33850.220001545,00000077,64186,12,455,9,0,128*b4dbb071
%RAWIMUSA,2283,33850.230;2283,33850.230001545,00000077,64186,18,452,18,0,932*4c040a04
%RAWIMUSA,2283,33850.240;2283,33850.240001545,00000077,64182,23,454,9,9,347*5865bfea
%RAWIMUSA,2283,33850.250;2283,33850.250001545,00000077,64189,16,455,-18,0,-914*8d70100d
%RAWIMUSA,2283,33850.260;2283,33850.260001545,00000077,64188,14,455,0,-9,-804*095408c5
%RAWIMUSA,2283,33850.270;2283,33850.270001545,00000077,64186,17,454,18,0,914*2b18873f
%RAWIMUSA,2283,33850.280;2283,33850.280001545,00000077,64186,24,449,18,9,923*e86d4adb
%RAWIMUSA,2283,33850.290;2283,33850.290001545,00000077,64189,17,455,-9,0,-548*dffdfb2d
%RAWIMUSA,2283,33850.300;2283,33850.300001545,00000077,64188,11,460,-18,0,-905*c0e7a68f
%RAWIMUSA,2283,33850.310;2283,33850.310001545,00000077,64183,13,452,9,-18,73*8439b5b0
%RAWIMUSA,2283,33850.320;2283,33850.320001544,00000077,64189,26,448,28,9,923*58feab86
%RAWIMUSA,2283,33850.330;2283,33850.330001544,00000077,64186,21,460,0,9,402*2aeb6e90
%RAWIMUSA,2283,33850.340;2283,33850.340001544,00000077,64185,9,453,-9,0,-914*a4b38fcb
%RAWIMUSA,2283,33850.350;2283,33850.350001544,00000077,64188,18,449,-9,-9,-868*baf98228
%RAWIMUSA,2283,33850.360;2283,33850.360001544,00000077,64189,21,453,28,0,923*ee8ec93d
%RAWIMUSA,2283,33850.370;2283,33850.370001544,00000077,64184,19,458,18,9,923*ea47221a
%RAWIMUSA,2283,33850.380;2283,33850.380001544,00000077,64185,11,460,-18,0,-493*22e7e81d
%RAWIMUSA,2283,33850.390;2283,33850.390001544,00000077,64187,14,451,-18,-9,-914*13c17251
%RAWIMUSA,2283,33850.400;2283,33850.400001544,00000077,64185,25,450,18,0,27*0c0c6c66
%RAWIMUSA,2283,33850.410;2283,33850.410001544,00000077,64187,15,458,18,9,914*4bcc0ef7
%RAWIMUSA,2283,33850.420;2283,33850.420001544,00000077,64188,14,457,0,9,448*a52ed19c
%RAWIMUSA,2283,33850.430;2283,33850.430001544,00000077,64186,18,451,-9,-9,-914*78ad27dd
%RAWIMUSA,2283,33850.440;2283,33850.440001544,00000077,64188,22,444,-9,-9,-896*8cc77de4
%RAWIMUSA,2283,33850.450;2283,33850.450001544,00000077,64190,18,467,18,0,914*b1cc65c6
%RAWIMUSA,2283,33850.460;2283,33850.460001544,00000077,64187,12,459,18,9,914*f775a715
%RAWIMUSA,2283,33850.470;2283,33850.470001544,00000077,64187,25,438,-9,8,-438*8fe63ff7
%RAWIMUSA,2283,33850.480;2283,33850.480001544,00000077,64186,17,451,-18,-9,-914*bd81aa01
%RAWIMUSA,2283,33850.490;2283,33850.490001544,00000077,64187,9,473,18,-9,-18*0fa9c503
%RAWIMUSA,2283,33850.500;2283,33850.500001544,00000077,64191,19,454,18,9,914*f108fdf5
%RAWIMUSA,2283,33850.510;2283,33850.510001544,00000077,64188,27,442,0,9,493*62016386
%RAWIMUSA,2283,33850.520;2283,33850.520001544,00000077,64186,16,452,-9,-9,-905*0dbcd7ad
%RAWIMUSA,2283,33850.530;2283,33850.530001544,00000077,64187,9,466,0,-9,-914*312c02c7
%RAWIMUSA,2283,33850.540;2283,33850.540001544,00000077,64186,20,452,18,9,868*2c0becc7
%RAWIMUSA,2283,33850.550;2283,33850.550001544,00000077,64190,26,442,18,0,923*ed61cf8d
%RAWIMUSA,2283,33850.560;2283,33850.560001544,00000077,64183,18,450,-18,8,-383*9d48dc4a
%RAWIMUSA,2283,33850.570;2283,33850.570001544,00000077,64185,8,464,-9,-9,-905*fcc90fe9
%RAWIMUSA,2283,33850.580;2283,33850.580001544,00000077,64188,23,464,9,-9,-63*70907b14
%RAWIMUSA,2283,33850.590;2283,33850.590001544,00000077,64186,26,445,18,9,914*0cb7e50a
%RAWIMUSA,2283,33850.600;2283,33850.600001544,00000077,64187,11,444,0,9,548*42eee140
%RAWIMUSA,2283,33850.610;2283,33850.610001544,00000077,64186,8,459,-9,-9,-914*07b0f6d7
%RAWIMUSA,2283,33850.620;2283,33850.620001544,00000077,64189,23,464,0,0,-905*258cf70c
%RAWIMUSA,2283,33850.630;2283,33850.630001544,00000077,64189,22,447,18,0,813*83cd2fa1
%RAWIMUSA,2283,33850.640;2283,33850.640001544,00000077,64186,10,449,18,9,923*badcb18a
%RAWIMUSA,2283,33850.650;2283,33850.650001544,00000077,64185,13,453,-18,0,-347*be685968
%RAWIMUSA,2283,33850.660;2283,33850.660001544,00000077,64186,25,464,-9,-9,-905*54350d70
%RAWIMUSA,2283,33850.670;2283,33850.670001544,00000077,64189,22,451,18,-9,-109*17f493d5
%RAWIMUSA,2283,33850.680;2283,33850.680001544,00000077,64188,11,444,18,9,905*bb69706b
%RAWIMUSA,2283,33850.690;2283,33850.690001544,00000077,64184,15,454,-8,9,612*1e482d45
%RAWIMUSA,2283,33850.700;2283,33850.700001544,00000077,64186,30,471,-9,-9,-914*6bece31a
%RAWIMUSA,2283,33850.710;2283,33850.710001544,00000077,64188,16,456,0,-9,-895*295aac72
%RAWIMUSA,2283,33850.720;2283,33850.720001544,00000077,64188,6,441,18,9,777*bf7d9588
%RAWIMUSA,2283,33850.730;2283,33850.730001544,00000077,64188,18,447,18,9,923*6d992ed2
%RAWIMUSA,2283,33850.740;2283,33850.740001544,00000077,64187,26,467,-9,-9,-301*5e9cfcc2
%RAWIMUSA,2283,33850.750;2283,33850.750001544,00000077,64187,15,457,-18,-9,-905*2ade75c4
%RAWIMUSA,2283,33850.760;2283,33850.760001544,00000077,64188,7,441,18,8,-173*f2415aa8
%RAWIMUSA,2283,33850.770;2283,33850.770001544,00000077,64188,21,453,18,9,923*fd144a6c
%RAWIMUSA,2283,33850.780;2283,33850.780001544,00000077,64187,25,470,0,0,649*88d67ebf
%RAWIMUSA,2283,33850.790;2283,33850.790001544,00000077,64183,16,449,-18,-9,-905*1753dfa3
%RAWIMUSA,2283,33850.800;2283,33850.800001544,00000077,64187,16,434,9,-9,-895*2d5e0302
%RAWIMUSA,2283,33850.810;2283,33850.810001544,00000077,64188,20,460,18,9,713*efcf37cb
%RAWIMUSA,2283,33850.820;2283,33850.820001544,00000077,64188,16,471,9,9,914*a8293788
%RAWIMUSA,2283,33850.830;2283,33850.830001544,00000077,64187,16,442,-9,-9,-237*c5bc71fe
%RAWIMUSA,2283,33850.840;2283,33850.840001544,00000077,64185,14,436,-18,0,-914*88f8f6a6
%RAWIMUSA,2283,33850.850;2283,33850.850001544,00000077,64187,22,468,18,0,-219*c7321dcc
%RAWIMUSA,2283,33850.860;2283,33850.860001544,00000077,64186,19,471,18,9,923*2889f84f
%RAWIMUSA,2283,33850.870;2283,33850.870001544,00000077,64189,14,441,0,0,704*8ed4e415
%RAWIMUSA,2283,33850.880;2283,33850.880001544,00000077,64185,14,439,-18,-9,-905*d49b0ba3
%RAWIMUSA,2283,33850.890;2283,33850.890001544,00000077,64187,25,466,9,-9,-923*e2293bf8
%RAWIMUSA,2283,33850.900;2283,33850.900001544,00000077,64190,19,468,18,9,676*afe8a10f
%RAWIMUSA,2283,33850.910;2283,33850.910001544,00000077,64188,7,438,9,9,923*6b85e2b3
%RAWIMUSA,2283,33850.920;2283,33850.920001544,00000077,64187,21,441,-9,0,-191*e296b366
%RAWIMUSA,2283,33850.930;2283,33850.930001544,00000077,64187,20,466,-18,-9,-905*f4d59ffa
%RAWIMUSA,2283,33850.940;2283,33850.940001544,00000077,64187,18,466,18,0,-265*e5b187e3
%RAWIMUSA,2283,33850.950;2283,33850.950001544,00000077,64188,12,442,28,9,914*33b4e0c3
%RAWIMUSA,2283,33850.960;2283,33850.960001544,00000077,64184,18,444,-8,0,749*0923206b
%RAWIMUSA,2283,33850.970;2283,33850.970001544,00000077,64187,26,467,-18,-9,-914*6bb5a04b
%RAWIMUSA,2283,33850.980;2283,33850.980001544,00000077,64187,13,464,9,-9,-905*12e787af
%RAWIMUSA,2283,33850.990;2283,33850.990001544,00000077,64188,13,445,18,9,631*78dd5819
%RAWIMUSA,2283,33851.000;2283,33851.000001544,00000077,64185,22,443,9,9,914*04dfad53
%RAWIMUSA,2283,33851.010;2283,33851.010001544,00000077,64186,22,463,-18,-9,-137*31f0db81
%RAWIMUSA,2283,33851.020;2283,33851.020001544,00000077,64186,16,461,-9,-9,-905*b6c15261
%RAWIMUSA,2283,33851.030;2283,33851.030001544,00000077,64186,11,447,27,0,-319*db0d6b0d
%RAWIMUSA,2283,33851.040;2283,33851.040001544,00000077,64186,23,445,18,9,923*ed1f835c
%RAWIMUSA,2283,33851.050;2283,33851.050001544,00000077,64187,26,460,-8,0,795*397ee109
%RAWIMUSA,2283,33851.060;2283,33851.060001544,00000077,64186,11,466,-9,-9,-905*5f4842c1
%RAWIMUSA,2283,33851.070;2283,33851.070001544,00000077,64185,11,442,0,-9,-914*e52a335e
%RAWIMUSA,2283,33851.080;2283,33851.080001544,00000077,64192,21,439,27,18,567*bf32725e
%RAWIMUSA,2283,33851.090;2283,33851.090001544,00000077,64184,22,474,0,0,923*0c363275
%RAWIMUSA,2283,33851.100;2283,33851.100001544,00000077,64185,14,457,-9,-9,-91*392edf45
%RAWIMUSA,2283,33851.110;2283,33851.110001544,00000077,64188,13,431,-9,0,-905*b93f4b6e
%RAWIMUSA,2283,33851.120;2283,33851.120001544,00000077,64191,18,451,18,8,-374*b473a56c
%RAWIMUSA,2283,33851.130;2283,33851.130001544,00000077,64183,26,469,28,0,914*5265b24b
%RAWIMUSA,2283,33851.140;2283,33851.140001544,00000077,64188,11,453,-8,-8,859*581dddb3
%RAWIMUSA,2283,33851.150;2283,33851.150001544,00000077,64181,11,439,-18,-9,-923*413bfedc
%RAWIMUSA,2283,33851.160;2283,33851.160001544,00000077,64184,16,456,9,0,-905*6ad3cf8d
%RAWIMUSA,2283,33851.170;2283,33851.170001544,00000077,64187,38,468,27,9,521*f209b25f
%RAWIMUSA,2283,33851.180;2283,33851.180001544,00000077,64188,-2,457,0,9,932*793a09c5
%RAWIMUSA,2283,33851.190;2283,33851.190001544,00000077,64178,27,437,-18,-9,-63*25c59fad
%RAWIMUSA,2283,33851.200;2283,33851.200001544,00000077,64191,7,455,0,0,-896*093da39b
%RAWIMUSA,2283,33851.210;2283,33851.210001544,00000077,64186,43,473,18,0,-429*f1d18995
%RAWIMUSA,2283,33851.220;2283,33851.220001544,00000077,64188,-9,449,18,9,932*a2a39236
%RAWIMUSA,2283,33851.230;2283,33851.230001544,00000077,64182,26,436,-8,0,868*fb897823
%RAWIMUSA,2283,33851.240;2283,33851.240001544,00000077,64190,14,457,-18,-9,-877*993aead7
%RAWIMUSA,2283,33851.250;2283,33851.250001544,00000077,64182,34,476,18,0,-932*3348f1bb
%RAWIMUSA,2283,33851.260;2283,33851.260001544,00000077,64189,-7,453,18,9,503*8ac157f0
%RAWIMUSA,2283,33851.270;2283,33851.270001544,00000077,64187,25,427,0,0,877*d39cba1e
%RAWIMUSA,2283,33851.280;2283,33851.280001544,00000077,64192,20,459,-9,0,36*b9bf43b9
%RAWIMUSA,2283,33851.290;2283,33851.290001544,00000077,64183,30,474,-9,-9,-941*85a3a34a
%RAWIMUSA,2283,33851.300;2283,33851.300001544,00000077,64188,-3,447,18,8,-447*3193a0e3
%RAWIMUSA,2283,33851.310;2283,33851.310001544,00000077,64188,23,439,18,9,896*e937802e
%RAWIMUSA,2283,33851.320;2283,33851.320001544,00000077,64190,25,459,-8,0,941*2d7bd949
%RAWIMUSA,2283,33851.330;2283,33851.330001544,00000077,64185,19,467,-18,-9,-905*74f6f61f
%RAWIMUSA,2283,33851.340;2283,33851.340001544,00000077,64187,11,444,18,0,-886*d1f9b541
%RAWIMUSA,2283,33851.350;2283,33851.350001544,00000077,64185,12,437,18,9,402*51449089
%RAWIMUSA,2283,33851.360;2283,33851.360001544,00000077,64190,32,463,0,0,923*da1c2aa7
%RAWIMUSA,2283,33851.370;2283,33851.370001544,00000077,64184,12,472,-18,-9,45*87275340
%RAWIMUSA,2283,33851.380;2283,33851.380001544,00000077,64186,14,448,0,0,-896*7a137bac
%RAWIMUSA,2283,33851.390;2283,33851.390001544,00000077,64187,14,434,18,0,-530*f07ebc1e
%RAWIMUSA,2283,33851.400;2283,33851.400001544,00000077,64188,34,460,18,19,923*6275b0c2
%RAWIMUSA,2283,33851.410;2283,33851.410001544,00000077,64187,7,474,-8,-8,914*03895b16
%RAWIMUSA,2283,33851.420;2283,33851.420001544,00000077,64184,21,445,-18,-9,-831*290a6b3c
%RAWIMUSA,2283,33851.430;2283,33851.430001544,00000077,64187,9,436,18,0,-914*f3a973e4
%RAWIMUSA,2283,33851.440;2283,33851.440001544,00000077,64186,40,460,18,18,374*87b67d42
%RAWIMUSA,2283,33851.450;2283,33851.450001544,00000077,64188,6,471,0,0,923*6b308899
%RAWIMUSA,2283,33851.460;2283,33851.460001544,00000077,64186,17,450,-9,-9,100*540de54a
%RAWIMUSA,2283,33851.470;2283,33851.470001544,00000077,64192,5,439,-9,-9,-896*f1908fab
%RAWIMUSA,2283,33851.480;2283,33851.480001544,00000077,64183,40,453,27,8,-585*7acc4198
%RAWIMUSA,2283,33851.490;2283,33851.490001544,00000077,64188,5,465,18,9,932*91337486
%RAWIMUSA,2283,33851.500;2283,33851.500001544,00000077,64182,21,454,-18,-8,905*865f61b7
%RAWIMUSA,2283,33851.510;2283,33851.510001544,00000077,64189,3,446,-9,0,-777*f197104f
%RAWIMUSA,2283,33851.520;2283,33851.520001544,00000077,64185,42,453,9,0,-914*f027fe6f
%RAWIMUSA,2283,33851.530;2283,33851.530001544,00000077,64185,2,459,27,9,329*00484b81
%RAWIMUSA,2283,33851.540;2283,33851.540001544,00000077,64183,20,451,-8,0,923*5e79dd6c
%RAWIMUSA,2283,33851.550;2283,33851.550001544,00000077,64189,7,448,-9,-18,155*754c2523
%RAWIMUSA,2283,33851.560;2283,33851.560001544,00000077,64187,38,457,0,0,-914*9c4a8e45
%RAWIMUSA,2283,33851.570;2283,33851.570001544,00000077,64186,6,458,18,8,-621*4b0038aa
%RAWIMUSA,2283,33851.580;2283,33851.580001544,00000077,64186,21,454,18,9,923*04c0c9c1
%RAWIMUSA,2283,33851.590;2283,33851.590001544,00000077,64190,13,453,-8,-8,896*081da047
%RAWIMUSA,2283,33851.600;2283,33851.600001544,00000077,64185,30,446,-18,-9,-713*fdc95c00
%RAWIMUSA,2283,33851.610;2283,33851.610001544,00000077,64186,12,453,18,0,-923*56ad6ae3
%RAWIMUSA,2283,33851.620;2283,33851.620001544,00000077,64187,13,463,18,9,301*1ff36ceb
%RAWIMUSA,2283,33851.630;2283,33851.630001544,00000077,64187,20,450,-8,0,896*2ae1db4a
%RAWIMUSA,2283,33851.640;2283,33851.640001544,00000077,64189,23,449,-18,-9,237*6d0b0fa8
%RAWIMUSA,2283,33851.650;2283,33851.650001544,00000077,64188,14,458,0,0,-923*01348358
%RAWIMUSA,2283,33851.660;2283,33851.660001544,00000077,64188,14,461,27,8,-649*e792882f
%RAWIMUSA,2283,33851.670;2283,33851.670001544,00000077,64185,29,447,9,9,896*5557e246
%RAWIMUSA,2283,33851.680;2283,33851.680001544,00000077,64188,13,446,-8,-8,941*40e54d6b
%RAWIMUSA,2283,33851.690;2283,33851.690001544,00000077,64185,15,461,-18,-9,-694*b28f9d7b
%RAWIMUSA,2283,33851.700;2283,33851.700001544,00000077,64188,13,461,18,8,-886*c6589ecd
%RAWIMUSA,2283,33851.710;2283,33851.710001544,00000077,64187,26,445,27,0,201*f7781943
%RAWIMUSA,2283,33851.720;2283,33851.720001544,00000077,64191,20,450,-8,0,932*5cac1f4f
%RAWIMUSA,2283,33851.730;2283,33851.730001544,00000077,64187,11,465,-9,-9,237*385dacc1
%RAWIMUSA,2283,33851.740;2283,33851.740001544,00000077,64188,13,454,0,8,-896*c2a18f40
%RAWIMUSA,2283,33851.750;2283,33851.750001544,00000077,64187,27,439,18,8,-731*12f7d8fc
%RAWIMUSA,2283,33851.760;2283,33851.760001544,00000077,64186,18,450,18,0,932*7d9f0bf3
%RAWIMUSA,2283,33851.770;2283,33851.770001544,00000077,64187,12,470,-18,-8,905*ac94a49b
%RAWIMUSA,2283,33851.780;2283,33851.780001544,00000077,64185,10,454,-9,0,-612*25643b1f
%RAWIMUSA,2283,33851.790;2283,33851.790001544,00000077,64186,25,442,18,0,-941*42861846
%RAWIMUSA,2283,33851.800;2283,33851.800001544,00000077,64186,19,451,18,9,201*60813148
%RAWIMUSA,2283,33851.810;2283,33851.810001544,00000077,64185,18,464,0,-8,905*3ccced4e
%RAWIMUSA,2283,33851.820;2283,33851.820001544,00000077,64187,6,455,-18,0,338*eec727cc
%RAWIMUSA,2283,33851.830;2283,33851.830001544,00000077,64186,27,444,9,0,-932*d6180f93
%RAWIMUSA,2283,33851.840;2283,33851.840001544,00000077,64189,18,448,18,8,-740*12438c66
%RAWIMUSA,2283,33851.850;2283,33851.850001544,00000077,64185,21,465,9,0,896*78fae6de
%RAWIMUSA,2283,33851.860;2283,33851.860001544,00000077,64192,4,455,-8,-8,941*f686d22a
%RAWIMUSA,2283,33851.870;2283,33851.870001544,00000077,64185,28,446,-9,0,-612*c10ac3e8
%RAWIMUSA,2283,33851.880;2283,33851.880001544,00000077,64190,14,455,18,8,-877*7fe3ada3
%RAWIMUSA,2283,33851.890;2283,33851.890001544,00000077,64182,20,460,18,9,100*f419b86a
%RAWIMUSA,2283,33851.900;2283,33851.900001544,00000077,64191,6,451,-8,-8,941*499ea0e9
%RAWIMUSA,2283,33851.910;2283,33851.910001544,00000077,64182,27,450,-18,-8,329*524eec59
%RAWIMUSA,2283,33851.920;2283,33851.920001544,00000077,64191,10,457,9,8,-877*7c2d3bda
%RAWIMUSA,2283,33851.930;2283,33851.930001544,00000077,64182,32,459,27,0,-841*c400862c
%RAWIMUSA,2283,33851.940;2283,33851.940001544,00000077,64191,-6,452,0,0,932*3ccad5d9
%RAWIMUSA,2283,33851.950;2283,33851.950001544,00000077,64181,39,444,-8,-8,923*b868435b
%RAWIMUSA,2283,33851.960;2283,33851.960001544,00000077,64190,7,458,-9,0,-548*5bec42f8
%RAWIMUSA,2283,33851.970;2283,33851.970001544,00000077,64188,32,461,18,8,-905*2d6a38a7
%RAWIMUSA,2283,33851.980;2283,33851.980001544,00000077,64185,-1,447,18,9,64*498092da
%RAWIMUSA,2283,33851.990;2283,33851.990001544,00000077,64191,23,447,-8,-8,932*b883d8f3
%RAWIMUSA,2283,33852.000;2283,33852.000001544,00000077,64189,34,458,-8,-8,393*db0c395c
%RAWIMUSA,2283,33852.010;2283,33852.010001544,00000077,64186,-1,460,9,8,-886*583d521b
%RAWIMUSA,2283,33852.020;2283,33852.020001544,00000077,64190,20,452,18,0,-886*4eed9558
%RAWIMUSA,2283,33852.030;2283,33852.030001544,00000077,64186,18,450,9,0,941*b61c3c63
%RAWIMUSA,2283,33852.040;2283,33852.040001544,00000077,64190,29,457,-8,0,887*79b5aabd
%RAWIMUSA,2283,33852.050;2283,33852.050001544,00000077,64185,3,456,-9,-9,-457*237ee42c
%RAWIMUSA,2283,33852.060;2283,33852.060001544,00000077,64185,18,454,18,17,-932*b0ec5add
%RAWIMUSA,2283,33852.070;2283,33852.070001544,00000077,64189,19,454,18,0,54*a4c4d1c5
%RAWIMUSA,2283,33852.080;2283,33852.080001544,00000077,64173,29,454,-8,-8,896*1f4a1f17
%RAWIMUSA,2283,33852.090;2283,33852.090001544,00000077,64193,-6,449,-18,-8,466*5ff1f466
%RAWIMUSA,2283,33852.100;2283,33852.100001544,00000077,64184,32,451,9,8,-923*667d9878
%RAWIMUSA,2283,33852.110;2283,33852.110001544,00000077,64187,11,453,18,0,-905*c0b4f8f5
%RAWIMUSA,2283,33852.120;2283,33852.120001544,00000077,64192,31,457,9,0,932*8d2530ea
%RAWIMUSA,2283,33852.130;2283,33852.130001544,00000077,64181,8,456,-8,-8,905*702b1e23
%RAWIMUSA,2283,33852.140;2283,33852.140001544,00000077,64188,8,452,-9,0,-420*8348c3c2
%RAWIMUSA,2283,33852.150;2283,33852.150001544,00000077,64192,40,450,18,8,-923*c665b3f0
%RAWIMUSA,2283,33852.160;2283,33852.160001544,00000077,64179,4,453,18,9,0*5e99d67c
%RAWIMUSA,2283,33852.170;2283,33852.170001544,00000077,64183,19,459,-8,-17,914*6e8a66cd
%RAWIMUSA,2283,33852.180;2283,33852.180001544,00000077,64192,14,454,-18,0,503*9aa31def
%RAWIMUSA,2283,33852.190;2283,33852.190001544,00000077,64184,32,453,9,0,-914*6048b46c
%RAWIMUSA,2283,33852.200;2283,33852.200001544,00000077,64185,11,454,27,8,-923*73414fca
%RAWIMUSA,2283,33852.210;2283,33852.210001544,00000077,64191,4,462,0,-8,877*43d46f3a
%RAWIMUSA,2283,33852.220;2283,33852.220001544,00000077,64186,32,453,-18,0,914*f1fb2b2f
%RAWIMUSA,2283,33852.230;2283,33852.230001543,00000077,64186,17,446,0,0,-393*851147ad
%RAWIMUSA,2283,33852.240;2283,33852.240001543,00000077,64186,9,454,18,8,-905*47866b1a
%RAWIMUSA,2283,33852.250;2283,33852.250001543,00000077,64181,20,461,27,0,-73*d466205f
%RAWIMUSA,2283,33852.260;2283,33852.260001543,00000077,64187,16,452,-18,-8,914*6732b63f
%RAWIMUSA,2283,33852.270;2283,33852.270001543,00000077,64185,22,450,-8,0,557*dac48d01
%RAWIMUSA,2283,33852.280;2283,33852.280001543,00000077,64188,16,456,9,8,-923*4048b8cc
%RAWIMUSA,2283,33852.290;2283,33852.290001543,00000077,64185,6,458,18,0,-905*1ac4d5b0
%RAWIMUSA,2283,33852.300;2283,33852.300001543,00000077,64186,23,447,0,0,823*bd5ae510
%RAWIMUSA,2283,33852.310;2283,33852.310001543,00000077,64187,20,448,-8,-8,914*eed65960
%RAWIMUSA,2283,33852.320;2283,33852.320001543,00000077,64188,11,461,-9,0,-319*7e4ce927
%RAWIMUSA,2283,33852.330;2283,33852.330001543,00000077,64183,20,456,18,8,-914*d961d98a
%RAWIMUSA,2283,33852.340;2283,33852.340001543,00000077,64186,18,447,18,0,-127*c5a2683c
%RAWIMUSA,2283,33852.350;2283,33852.350001543,00000077,64186,16,452,-18,0,923*e988e907
%RAWIMUSA,2283,33852.360;2283,33852.360001543,00000077,64186,16,463,-8,-8,594*10580f11
%RAWIMUSA,2283,33852.370;2283,33852.370001543,00000077,64191,16,455,9,8,-914*3fd5a4e3
%RAWIMUSA,2283,33852.380;2283,33852.380001543,00000077,64183,18,440,27,8,-905*3f2672eb
%RAWIMUSA,2283,33852.390;2283,33852.390001543,00000077,64188,22,458,0,-8,768*0c9301f7
%RAWIMUSA,2283,33852.400;2283,33852.400001543,00000077,64191,10,466,-18,-8,932*da9485c1
%RAWIMUSA,2283,33852.410;2283,33852.410001543,00000077,64183,12,446,0,8,-283*06bf9319
%RAWIMUSA,2283,33852.420;2283,33852.420001543,00000077,64187,25,443,27,8,-914*c348dd95
%RAWIMUSA,2283,33852.430;2283,33852.430001543,00000077,64189,21,467,9,0,-173*06baaef3
%RAWIMUSA,2283,33852.440;2283,33852.440001543,00000077,64185,12,463,-8,-8,923*60c9c472
%RAWIMUSA,2283,33852.450;2283,33852.450001543,00000077,64187,14,442,-8,0,649*d9f01ea5
%RAWIMUSA,2283,33852.460;2283,33852.460001543,00000077,64187,23,441,9,8,-905*1f0f974b
%RAWIMUSA,2283,33852.470;2283,33852.470001543,00000077,64185,24,464,27,8,-896*48bac939
%RAWIMUSA,2283,33852.480;2283,33852.480001543,00000077,64187,12,463,0,-8,722*65cca18f
%RAWIMUSA,2283,33852.490;2283,33852.490001543,00000077,64189,9,444,-18,-8,914*56448408
%RAWIMUSA,2283,33852.500;2283,33852.500001543,00000077,64187,21,446,0,0,-237*d20ae783
%RAWIMUSA,2283,33852.510;2283,33852.510001543,00000077,64186,21,462,18,8,-905*bc588638
%RAWIMUSA,2283,33852.520;2283,33852.520001543,00000077,64188,16,464,18,0,-219*431a9044
%RAWIMUSA,2283,33852.530;2283,33852.530001543,00000077,64186,17,447,-18,-8,914*54fd267b
%RAWIMUSA,2283,33852.540;2283,33852.540001543,00000077,64187,20,445,-8,0,704*ea89b078
%RAWIMUSA,2283,33852.550;2283,33852.550001543,00000077,64188,21,457,18,8,-923*2066a22b
%RAWIMUSA,2283,33852.560;2283,33852.560001543,00000077,64185,12,462,18,0,-905*960fed9b
%RAWIMUSA,2283,33852.570;2283,33852.570001543,00000077,64189,14,447,0,-8,667*376e03d8
%RAWIMUSA,2283,33852.580;2283,33852.580001543,00000077,64187,22,447,-18,0,914*ce9e183b
%RAWIMUSA,2283,33852.590;2283,33852.590001543,00000077,64187,18,462,0,0,-173*063b6c61
%RAWIMUSA,2283,33852.600;2283,33852.600001543,00000077,64188,12,454,18,17,-914*24bbfab2
%RAWIMUSA,2283,33852.610;2283,33852.610001543,00000077,64184,23,445,18,-9,-265*2456e826
%RAWIMUSA,2283,33852.620;2283,33852.620001543,00000077,64186,22,451,-18,0,923*5283369c
%RAWIMUSA,2283,33852.630;2283,33852.630001543,00000077,64184,17,463,-8,0,759*e119679f
%RAWIMUSA,2283,33852.640;2283,33852.640001543,00000077,64185,14,460,18,0,-905*e890479c
%RAWIMUSA,2283,33852.650;2283,33852.650001543,00000077,64188,16,448,18,8,-914*ea4de4d1
%RAWIMUSA,2283,33852.660;2283,33852.660001543,00000077,64186,20,450,-8,-8,612*4380c8a8
%RAWIMUSA,2283,33852.670;2283,33852.670001543,00000077,64187,17,457,-8,-8,914*5858137d
%RAWIMUSA,2283,33852.680;2283,33852.680001543,00000077,64188,17,458,0,9,-137*5f778af8
%RAWIMUSA,2283,33852.690;2283,33852.690001543,00000077,64186,18,448,18,8,-905*999f7f5b
%RAWIMUSA,2283,33852.700;2283,33852.700001543,00000077,64189,20,448,18,-9,-319*af3ea822
%RAWIMUSA,2283,33852.710;2283,33852.710001543,00000077,64188,13,456,-8,-8,914*892745b0
%RAWIMUSA,2283,33852.720;2283,33852.720001543,00000077,64187,16,462,-18,0,804*a80bfb7d
%RAWIMUSA,2283,33852.730;2283,33852.730001543,00000077,64187,21,453,18,8,-914*7a8d787c
%RAWIMUSA,2283,33852.740;2283,33852.740001543,00000077,64187,19,449,18,8,-905*9fedff12
%RAWIMUSA,2283,33852.750;2283,33852.750001543,00000077,64186,12,455,-8,-8,557*1ce30895
%RAWIMUSA,2283,33852.760;2283,33852.760001543,00000077,64188,18,457,-8,-8,923*372310c9
%RAWIMUSA,2283,33852.770;2283,33852.770001543,00000077,64187,23,455,9,9,-91*0f78ad70
%RAWIMUSA,2283,33852.780;2283,33852.780001543,00000077,64189,15,450,18,8,-914*a451a7e3
%RAWIMUSA,2283,33852.790;2283,33852.790001543,00000077,64186,13,452,9,-9,-383*c9cca10b
%RAWIMUSA,2283,33852.800;2283,33852.800001543,00000077,64185,21,460,-8,-8,914*8d6036e9
%RAWIMUSA,2283,33852.810;2283,33852.810001543,00000077,64187,20,450,-18,0,868*fb51fe6c
%RAWIMUSA,2283,33852.820;2283,33852.820001543,00000077,64188,16,447,18,8,-914*fccef973
%RAWIMUSA,2283,33852.830;2283,33852.830001543,00000077,64189,12,453,18,0,-905*bd94b7f1
%RAWIMUSA,2283,33852.840;2283,33852.840001543,00000077,64186,23,459,-8,0,521*eff3923b
%RAWIMUSA,2283,33852.850;2283,33852.850001543,00000077,64184,18,453,-8,-8,914*063c39ac
%RAWIMUSA,2283,33852.860;2283,33852.860001543,00000077,64184,15,452,0,9,-36*be568933
%RAWIMUSA,2283,33852.870;2283,33852.870001543,00000077,64187,23,454,27,8,-905*49c0fc7a
%RAWIMUSA,2283,33852.880;2283,33852.880001543,00000077,64187,17,455,0,-9,-420*a65adf86
%RAWIMUSA,2283,33852.890;2283,33852.890001543,00000077,64184,15,454,-8,-8,914*3a99ce82
%RAWIMUSA,2283,33852.900;2283,33852.900001543,00000077,64187,13,452,-8,0,896*9e04b8a7
%RAWIMUSA,2283,33852.910;2283,33852.910001543,00000077,64185,21,452,18,8,-905*80788a44
%RAWIMUSA,2283,33852.920;2283,33852.920001543,00000077,64188,24,453,27,0,-905*c19ced58
%RAWIMUSA,2283,33852.930;2283,33852.930001543,00000077,64189,9,452,-18,-8,457*b50824c9
%RAWIMUSA,2283,33852.940;2283,33852.940001543,00000077,64185,16,456,-8,0,914*07a6e959
%RAWIMUSA,2283,33852.950;2283,33852.950001543,00000077,64185,23,449,9,9,9*2295df7c
%RAWIMUSA,2283,33852.960;2283,33852.960001543,00000077,64188,22,454,18,8,-896*d7258f76
%RAWIMUSA,2283,33852.970;2283,33852.970001543,00000077,64188,9,453,9,-18,-484*8a88fdd5
%RAWIMUSA,2283,33852.980;2283,33852.980001543,00000077,64185,14,452,-8,0,914*1c161988
%RAWIMUSA,2283,33852.990;2283,33852.990001543,00000077,64187,22,459,-8,9,932*401c54ae
%RAWIMUSA,2283,33853.000;2283,33853.000001543,00000077,64185,16,455,18,0,-877*e3956263
%RAWIMUSA,2283,33853.010;2283,33853.010001543,00000077,64190,13,449,18,0,-914*31635ea3
%RAWIMUSA,2283,33853.020;2283,33853.020001543,00000077,64188,19,449,-8,-8,420*269f9ad7
%RAWIMUSA,2283,33853.030;2283,33853.030001543,00000077,64187,21,459,-18,0,923*c660d289
%RAWIMUSA,2283,33853.040;2283,33853.040001543,00000077,64188,14,461,9,9,64*579f7736
%RAWIMUSA,2283,33853.050;2283,33853.050001543,00000077,64187,19,445,27,0,-905*bc849b6f
%RAWIMUSA,2283,33853.060;2283,33853.060001543,00000077,64189,21,447,0,0,-530*f206c54c
%RAWIMUSA,2283,33853.070;2283,33853.070001543,00000077,64185,18,462,-18,-8,914*907f3f1b
%RAWIMUSA,2283,33853.080;2283,33853.080001543,00000077,64184,15,459,0,9,923*1e1d93d4
%RAWIMUSA,2283,33853.090;2283,33853.090001543,00000077,64190,19,448,18,8,-831*89309d1c
%RAWIMUSA,2283,33853.100;2283,33853.100001543,00000077,64186,17,445,18,-9,-914*cfa6a3b5
%RAWIMUSA,2283,33853.110;2283,33853.110001543,00000077,64185,15,456,-18,-8,384*12a34311
%RAWIMUSA,2283,33853.120;2283,33853.120001543,00000077,64187,14,464,-8,9,914*d3e5eac9
%RAWIMUSA,2283,33853.130;2283,33853.130001543,00000077,64186,21,452,9,0,118*fbbf9dd1
%RAWIMUSA,2283,33853.140;2283,33853.140001543,00000077,64187,17,447,18,8,-905*7da034fe
%RAWIMUSA,2283,33853.150;2283,33853.150001543,00000077,64188,13,455,9,-9,-566*a7666b8c
%RAWIMUSA,2283,33853.160;2283,33853.160001543,00000077,64185,21,461,-18,-8,914*25116d4d
%RAWIMUSA,2283,33853.170;2283,33853.170001543,00000077,64188,22,453,0,9,914*950213c8
%RAWIMUSA,2283,33853.180;2283,33853.180001543,00000077,64187,16,452,18,0,-767*99a0f657
%RAWIMUSA,2283,33853.190;2283,33853.190001543,00000077,64187,10,452,18,0,-923*5f822fe5
%RAWIMUSA,2283,33853.200;2283,33853.200001543,00000077,64187,17,457,-18,-8,320*63d67ed6
%RAWIMUSA,2283,33853.210;2283,33853.210001543,00000077,64187,24,448,-8,0,923*a55cfe77
%RAWIMUSA,2283,33853.220;2283,33853.220001543,00000077,64185,15,448,9,9,164*7d8194d1
%RAWIMUSA,2283,33853.230;2283,33853.230001543,00000077,64188,12,459,27,0,-914*c2a88d5b
%RAWIMUSA,2283,33853.240;2283,33853.240001543,00000077,64186,25,459,0,-9,-621*a33f71eb
%RAWIMUSA,2283,33853.250;2283,33853.250001543,00000077,64185,17,448,-18,-8,923*b9946893
%RAWIMUSA,2283,33853.260;2283,33853.260001543,00000077,64185,9,445,0,19,914*f2fbbead
%RAWIMUSA,2283,33853.270;2283,33853.270001543,00000077,64186,15,459,18,8,-740*6471ae05
%RAWIMUSA,2283,33853.280;2283,33853.280001543,00000077,64185,24,462,18,-9,-905*bc6e6812
%RAWIMUSA,2283,33853.290;2283,33853.290001543,00000077,64187,19,446,-8,-9,265*a320d4db
%RAWIMUSA,2283,33853.300;2283,33853.300001543,00000077,64187,8,446,-8,0,923*7903edde
%RAWIMUSA,2283,33853.310;2283,33853.310001543,00000077,64187,18,459,9,0,201*ed7f532b
%RAWIMUSA,2283,33853.320;2283,33853.320001543,00000077,64187,26,463,18,0,-905*f426ff49
%RAWIMUSA,2283,33853.330;2283,33853.330001543,00000077,64186,14,453,0,-9,-658*068b0147
%RAWIMUSA,2283,33853.340;2283,33853.340001543,00000077,64187,14,448,-8,0,905*4adc5ecc
%RAWIMUSA,2283,33853.350;2283,33853.350001543,00000077,64187,19,454,-8,9,923*bffd1600
%RAWIMUSA,2283,33853.360;2283,33853.360001543,00000077,64187,20,459,18,8,-667*44392daa
%RAWIMUSA,2283,33853.370;2283,33853.370001543,00000077,64186,13,451,18,-9,-914*c84e241c
%RAWIMUSA,2283,33853.380;2283,33853.380001543,00000077,64186,12,450,-9,-9,219*130e3abb
%RAWIMUSA,2283,33853.390;2283,33853.390001543,00000077,64187,25,451,-18,9,923*4ed9ecd4
%RAWIMUSA,2283,33853.400;2283,33853.400001543,00000077,64189,22,458,18,9,274*c22a33ea
%RAWIMUSA,2283,33853.410;2283,33853.410001543,00000077,64186,13,455,18,-9,-905*6fd2b277
%RAWIMUSA,2283,33853.420;2283,33853.420001543,00000077,64187,17,453,0,-9,-722*7eab6be7
%RAWIMUSA,2283,33853.430;2283,33853.430001543,00000077,64186,27,453,-18,0,914*3cc62f24
%RAWIMUSA,2283,33853.440;2283,33853.440001543,00000077,64187,16,454,0,9,923*10766c90
%RAWIMUSA,2283,33853.450;2283,33853.450001543,00000077,64187,12,453,18,8,-621*4371f745
%RAWIMUSA,2283,33853.460;2283,33853.460001543,00000077,64187,20,453,18,-9,-905*8841fa38
%RAWIMUSA,2283,33853.470;2283,33853.470001543,00000077,64190,21,452,-18,-9,173*882aaab5
%RAWIMUSA,2283,33853.480;2283,33853.480001543,00000077,64188,20,456,-18,9,914*3f0a8602
%RAWIMUSA,2283,33853.490;2283,33853.490001543,00000077,64185,17,457,18,0,301*5bc4d608
%RAWIMUSA,2283,33853.500;2283,33853.500001543,00000077,64187,17,452,18,0,-905*4366d87b
%RAWIMUSA,2283,33853.510;2283,33853.510001543,00000077,64185,17,452,0,-9,-767*17cd08e1
%RAWIMUSA,2283,33853.520;2283,33853.520001543,00000077,64187,16,457,-8,0,923*a088d8e8
%RAWIMUSA,2283,33853.530;2283,33853.530001543,00000077,64185,13,458,0,9,923*96c34141
%RAWIMUSA,2283,33853.540;2283,33853.540001543,00000077,64187,23,451,18,8,-575*8bb70dba
%RAWIMUSA,2283,33853.550;2283,33853.550001543,00000077,64189,20,449,9,-9,-905*479fd34c
%RAWIMUSA,2283,33853.560;2283,33853.560001543,00000077,64183,15,454,-9,-9,118*d19e7cb2
%RAWIMUSA,2283,33853.570;2283,33853.570001543,00000077,64186,16,459,-18,9,914*ee477622
%RAWIMUSA,2283,33853.580;2283,33853.580001543,00000077,64185,18,460,18,9,365*e8229d20
%RAWIMUSA,2283,33853.590;2283,33853.590001543,00000077,64190,19,446,27,0,-914*014c6408
%RAWIMUSA,2283,33853.600;2283,33853.600001543,00000077,64183,14,444,-9,-9,-813*6c14f117
%RAWIMUSA,2283,33853.610;2283,33853.610001543,00000077,64188,18,457,-8,0,923*305c3d24
%RAWIMUSA,2283,33853.620;2283,33853.620001543,00000077,64188,22,468,0,9,932*9970ee10
%RAWIMUSA,2283,33853.630;2283,33853.630001543,00000077,64187,14,448,18,0,-530*f0021ea2
%RAWIMUSA,2283,33853.640;2283,33853.640001543,00000077,64186,12,438,9,-9,-905*cd09e684
%RAWIMUSA,2283,33853.650;2283,33853.650001543,00000077,64187,24,455,-9,-9,73*103ac151
%RAWIMUSA,2283,33853.660;2283,33853.660001543,00000077,64186,18,472,-18,9,923*31d61360
%RAWIMUSA,2283,33853.670;2283,33853.670001543,00000077,64186,13,450,27,9,411*363ebf86
%RAWIMUSA,2283,33853.680;2283,33853.680001543,00000077,64186,16,433,18,-9,-905*c6563fcb
%RAWIMUSA,2283,33853.690;2283,33853.690001543,00000077,64187,25,455,-9,0,-859*e1e0168b
%RAWIMUSA,2283,33853.700;2283,33853.700001543,00000077,64184,25,475,-8,0,914*28786383
%RAWIMUSA,2283,33853.710;2283,33853.710001543,00000077,64187,5,452,0,0,923*1747568b
%RAWIMUSA,2283,33853.720;2283,33853.720001543,00000077,64187,11,434,18,0,-484*20990ea5
%RAWIMUSA,2283,33853.730;2283,33853.730001543,00000077,64186,25,452,18,0,-905*51b60eec
%RAWIMUSA,2283,33853.740;2283,33853.740001543,00000077,64184,21,476,-18,-9,9*ac8ed1bf
%RAWIMUSA,2283,33853.750;2283,33853.750001543,00000077,64188,12,460,-8,9,923*fec157dc
%RAWIMUSA,2283,33853.760;2283,33853.760001543,00000077,64186,13,429,18,9,457*d4b315bc
%RAWIMUSA,2283,33853.770;2283,33853.770001543,00000077,64188,26,448,18,-9,-914*be1107e7
%RAWIMUSA,2283,33853.780;2283,33853.780001543,00000077,64188,24,480,-9,-9,-905*853c1946
%RAWIMUSA,2283,33853.790;2283,33853.790001543,00000077,64186,5,453,-8,9,905*72a60ad4
%RAWIMUSA,2283,33853.800;2283,33853.800001543,00000077,64187,14,432,9,9,914*a669fdad
%RAWIMUSA,2283,33853.810;2283,33853.810001543,00000077,64187,25,450,18,0,-429*70e178ec
%RAWIMUSA,2283,33853.820;2283,33853.820001543,00000077,64187,23,477,9,-9,-905*2aaa38f5
%RAWIMUSA,2283,33853.830;2283,33853.830001543,00000077,64187,9,459,-18,-9,-36*2a2bce0f
%RAWIMUSA,2283,33853.840;2283,33853.840001543,00000077,64190,16,435,0,9,914*363069c4
%RAWIMUSA,2283,33853.850;2283,33853.850001543,00000077,64189,29,453,18,9,512*8efb5b45
%RAWIMUSA,2283,33853.860;2283,33853.860001543,00000077,64183,16,470,18,-9,-895*e1f38403
%RAWIMUSA,2283,33853.870;2283,33853.870001543,00000077,64188,4,448,-9,-9,-905*0f0c92f9
%RAWIMUSA,2283,33853.880;2283,33853.880001543,00000077,64185,21,441,-18,9,859*7de31b8d
%RAWIMUSA,2283,33853.890;2283,33853.890001543,00000077,64186,27,460,9,9,923*b02a3934
%RAWIMUSA,2283,33853.900;2283,33853.900001543,00000077,64187,18,460,18,0,-383*b509d9d2
%RAWIMUSA,2283,33853.910;2283,33853.910001543,00000077,64187,11,447,9,-9,-905*654009a8
%RAWIMUSA,2283,33853.920;2283,33853.920001543,00000077,64188,15,448,-18,0,-91*66402701
%RAWIMUSA,2283,33853.930;2283,33853.930001543,00000077,64187,28,460,-8,9,914*1fb50cc6
%RAWIMUSA,2283,33853.940;2283,33853.940001543,00000077,64184,14,462,27,0,576*aa691ae6
%RAWIMUSA,2283,33853.950;2283,33853.950001543,00000077,64188,9,448,18,-9,-914*76ce63cb
%RAWIMUSA,2283,33853.960;2283,33853.960001543,00000077,64186,21,445,-9,0,-914*c5922fc4
%RAWIMUSA,2283,33853.970;2283,33853.970001543,00000077,64187,24,459,-18,9,804*39ba9d38
%RAWIMUSA,2283,33853.980;2283,33853.980001543,00000077,64185,11,458,9,0,932*caf9e2c1
%RAWIMUSA,2283,33853.990;2283,33853.990001543,00000077,64186,6,447,18,0,-329*3320b1ee
%RAWIMUSA,2283,33854.000;2283,33854.000001543,00000077,64186,22,449,9,-9,-914*16f6059e
%RAWIMUSA,2283,33854.010;2283,33854.010001543,00000077,64186,28,459,-18,0,-118*7a0bc748
%RAWIMUSA,2283,33854.020;2283,33854.020001543,00000077,64188,13,457,0,9,923*be912fc9
%RAWIMUSA,2283,33854.030;2283,33854.030001543,00000077,64188,9,447,18,0,612*43acb4a4
%RAWIMUSA,2283,33854.040;2283,33854.040001543,00000077,64186,24,450,18,-9,-914*3af7033e
%RAWIMUSA,2283,33854.050;2283,33854.050001543,00000077,64189,26,457,-9,-9,-905*3b27ae98
%RAWIMUSA,2283,33854.060;2283,33854.060001543,00000077,64184,13,454,-8,9,759*9c8deb61
%RAWIMUSA,2283,33854.070;2283,33854.070001543,00000077,64185,11,450,9,9,914*1bc4410c
%RAWIMUSA,2283,33854.080;2283,33854.080001543,00000077,64187,22,451,18,0,-274*f1838eb9
%RAWIMUSA,2283,33854.090;2283,33854.090001543,00000077,64188,24,456,0,-9,-905*db9bf2a9
%RAWIMUSA,2283,33854.100;2283,33854.100001543,00000077,64186,16,455,-9,0,-182*a3c2b05b
%RAWIMUSA,2283,33854.110;2283,33854.110001543,00000077,64187,11,453,-8,9,923*d25e74a9
%RAWIMUSA,2283,33854.120;2283,33854.120001543,00000077,64189,21,449,18,0,658*70150109
%RAWIMUSA,2283,33854.130;2283,33854.130001543,00000077,64187,21,456,27,-9,-905*3e6e5a9e
%RAWIMUSA,2283,33854.140;2283,33854.140001542,00000077,64185,13,456,-18,-9,-923*663e0cb6
%RAWIMUSA,2283,33854.150;2283,33854.150001542,00000077,64187,12,455,-8,9,713*948bd46b
%RAWIMUSA,2283,33854.160;2283,33854.160001542,00000077,64184,21,451,9,9,923*d9642008
%RAWIMUSA,2283,33854.170;2283,33854.170001542,00000077,64189,22,459,18,-9,-228*c179b2eb
%RAWIMUSA,2283,33854.180;2283,33854.180001542,00000077,64188,10,459,9,0,-914*8e707756
%RAWIMUSA,2283,33854.190;2283,33854.190001542,00000077,64182,13,444,-18,0,-219*f09be93f
%RAWIMUSA,2283,33854.200;2283,33854.200001542,00000077,64188,24,448,0,9,923*2297994d
%RAWIMUSA,2283,33854.210;2283,33854.210001542,00000077,64186,22,464,18,0,713*f90fd5fe
%RAWIMUSA,2283,33854.220;2283,33854.220001542,00000077,64187,10,461,18,-9,-914*90984f50
%RAWIMUSA,2283,33854.230;2283,33854.230001542,00000077,64187,11,446,-9,0,-914*5cd81a9a
%RAWIMUSA,2283,33854.240;2283,33854.240001542,00000077,64186,31,448,-18,9,667*8ba3d666
%RAWIMUSA,2283,33854.250;2283,33854.250001542,00000077,64185,19,463,18,9,914*68259072
%RAWIMUSA,2283,33854.260;2283,33854.260001542,00000077,64188,7,460,18,-9,-173*a973af74
%RAWIMUSA,2283,33854.270;2283,33854.270001542,00000077,64186,13,446,0,-9,-914*ab2f5260
%RAWIMUSA,2283,33854.280;2283,33854.280001542,00000077,64187,28,446,-9,0,-274*a4ca8be6
%RAWIMUSA,2283,33854.290;2283,33854.290001542,00000077,64186,24,460,-8,9,923*1b671cd5
%RAWIMUSA,2283,33854.300;2283,33854.300001542,00000077,64185,3,465,18,0,768*7b0d8e20
%RAWIMUSA,2283,33854.310;2283,33854.310001542,00000077,64186,11,446,18,-9,-905*efafd6db
%RAWIMUSA,2283,33854.320;2283,33854.320001542,00000077,64185,30,442,-9,0,-914*af4b5e31
%RAWIMUSA,2283,33854.330;2283,33854.330001542,00000077,64190,23,464,-8,0,603*0cb52f1a
%RAWIMUSA,2283,33854.340;2283,33854.340001542,00000077,64191,8,469,9,9,914*3083cf73
%RAWIMUSA,2283,33854.350;2283,33854.350001542,00000077,64189,8,441,18,-9,-127*f0125119
%RAWIMUSA,2283,33854.360;2283,33854.360001542,00000077,64182,25,433,0,-9,-905*b8a3035d
%RAWIMUSA,2283,33854.370;2283,33854.370001542,00000077,64187,24,471,-9,8,-338*6f7bf26b
%RAWIMUSA,2283,33854.380;2283,33854.380001542,00000077,64184,9,475,0,9,923*6fefc32b
%RAWIMUSA,2283,33854.390;2283,33854.390001542,00000077,64187,11,437,18,-8,804*60bf599d
%RAWIMUSA,2283,33854.400;2283,33854.400001542,00000077,64189,32,433,9,0,-914*7e972750
%RAWIMUSA,2283,33854.410;2283,33854.410001542,00000077,64187,23,470,-9,0,-896*f4cbc341
%RAWIMUSA,2283,33854.420;2283,33854.420001542,00000077,64186,5,475,-18,0,557*c4dd5f33
%RAWIMUSA,2283,33854.430;2283,33854.430001542,00000077,64188,10,440,18,9,914*877ccf91
%RAWIMUSA,2283,33854.440;2283,33854.440001542,00000077,64184,26,435,18,-9,-82*a762d2b7
%RAWIMUSA,2283,33854.450;2283,33854.450001542,00000077,64187,25,466,0,-9,-905*5c0b5ed1
%RAWIMUSA,2283,33854.460;2283,33854.460001542,00000077,64187,5,471,-18,8,-383*4ef4423e
%RAWIMUSA,2283,33854.470;2283,33854.470001542,00000077,64186,14,443,0,0,932*539597ef
%RAWIMUSA,2283,33854.480;2283,33854.480001542,00000077,64187,29,438,18,0,850*6e69c94b
%RAWIMUSA,2283,33854.490;2283,33854.490001542,00000077,64187,20,466,18,0,-905*e8ee0115
%RAWIMUSA,2283,33854.500;2283,33854.500001542,00000077,64186,3,469,-18,0,-914*eb3d5317
%RAWIMUSA,2283,33854.510;2283,33854.510001542,00000077,64185,16,445,-8,0,512*5e4a935c
%RAWIMUSA,2283,33854.520;2283,33854.520001542,00000077,64187,30,437,18,9,914*e0f4c067
%RAWIMUSA,2283,33854.530;2283,33854.530001542,00000077,64188,16,462,18,-9,-27*48fb0888
%RAWIMUSA,2283,33854.540;2283,33854.540001542,00000077,64187,8,471,-9,-9,-905*71ec28cd
%RAWIMUSA,2283,33854.550;2283,33854.550001542,00000077,64186,16,445,-9,8,-429*3c10b2d1
%RAWIMUSA,2283,33854.560;2283,33854.560001542,00000077,64188,28,433,0,0,923*a5700876
%RAWIMUSA,2283,33854.570;2283,33854.570001542,00000077,64185,22,464,18,0,905*3dde1720
%RAWIMUSA,2283,33854.580;2283,33854.580001542,00000077,64186,4,468,9,-9,-905*dd5f9ccc
%RAWIMUSA,2283,33854.590;2283,33854.590001542,00000077,64185,18,443,-9,0,-905*e5cb12b3
%RAWIMUSA,2283,33854.600;2283,33854.600001542,00000077,64188,25,441,-18,9,466*813364a5
%RAWIMUSA,2283,33854.610;2283,33854.610001542,00000077,64187,14,463,18,0,914*b9bf133d
%RAWIMUSA,2283,33854.620;2283,33854.620001542,00000077,64184,11,466,27,0,18*188d3cac
%RAWIMUSA,2283,33854.630;2283,33854.630001542,00000077,64188,19,446,-9,-9,-914*4e0d2d3c
%RAWIMUSA,2283,33854.640;2283,33854.640001542,00000077,64186,24,441,-9,8,-466*b1e5be29
%RAWIMUSA,2283,33854.650;2283,33854.650001542,00000077,64186,16,456,0,0,914*ee41125b
%RAWIMUSA,2283,33854.660;2283,33854.660001542,00000077,64187,7,466,18,-8,914*06ff2270
%RAWIMUSA,2283,33854.670;2283,33854.670001542,00000077,64188,20,451,9,-9,-868*b357c054
%RAWIMUSA,2283,33854.680;2283,33854.680001542,00000077,64187,28,441,-9,8,-905*355954e2
%RAWIMUSA,2283,33854.690;2283,33854.690001542,00000077,64186,10,452,-8,9,420*47ff02fd
%RAWIMUSA,2283,33854.700;2283,33854.700001542,00000077,64187,11,462,18,0,914*10b59526
%RAWIMUSA,2283,33854.710;2283,33854.710001542,00000077,64186,17,456,18,-9,64*1aef7275
%RAWIMUSA,2283,33854.720;2283,33854.720001542,00000077,64187,24,443,-9,0,-905*41f11e0d
%RAWIMUSA,2283,33854.730;2283,33854.730001542,00000077,64188,23,449,-18,8,-530*30601f48
%RAWIMUSA,2283,33854.740;2283,33854.740001542,00000077,64189,9,469,0,0,923*da96902c
%RAWIMUSA,2283,33854.750;2283,33854.750001542,00000077,64189,14,458,28,0,914*7d92ded4
%RAWIMUSA,2283,33854.760;2283,33854.760001542,00000077,64186,27,439,0,-9,-813*6870c257
%RAWIMUSA,2283,33854.770;2283,33854.770001542,00000077,64188,16,450,-9,8,-905*0d1cb9cd
%RAWIMUSA,2283,33854.780;2283,33854.780001542,00000077,64183,10,465,-8,0,356*a4795747
%RAWIMUSA,2283,33854.790;2283,33854.790001542,00000077,64185,15,461,18,0,923*d8814fbd
%RAWIMUSA,2283,33854.800;2283,33854.800001542,00000077,64188,27,440,18,-9,109*b42fb07d
%RAWIMUSA,2283,33854.810;2283,33854.810001542,00000077,64183,19,449,-9,0,-905*5546b2fc
%RAWIMUSA,2283,33854.820;2283,33854.820001542,00000077,64188,8,466,-9,8,-594*62038fd3
%RAWIMUSA,2283,33854.830;2283,33854.830001542,00000077,64183,12,469,0,9,923*f3680229
%RAWIMUSA,2283,33854.840;2283,33854.840001542,00000077,64185,26,439,28,-8,914*c471f5da
%RAWIMUSA,2283,33854.850;2283,33854.850001542,00000077,64192,21,439,9,0,-758*d0ccf3f7
%RAWIMUSA,2283,33854.860;2283,33854.860001542,00000077,64187,8,474,-18,8,-914*3c14dfa5
%RAWIMUSA,2283,33854.870;2283,33854.870001542,00000077,64186,16,466,-8,0,310*4945ac71
%RAWIMUSA,2283,33854.880;2283,33854.880001542,00000077,64186,18,436,18,0,914*f027423f
%RAWIMUSA,2283,33854.890;2283,33854.890001542,00000077,64183,21,437,18,-9,182*55f28604
%RAWIMUSA,2283,33854.900;2283,33854.900001542,00000077,64195,24,464,-9,0,-905*06743966
%RAWIMUSA,2283,33854.910;2283,33854.910001542,00000077,64185,11,476,-18,8,-639*b8855856
%RAWIMUSA,2283,33854.920;2283,33854.920001542,00000077,64186,16,441,9,0,923*d2510f92
%RAWIMUSA,2283,33854.930;2283,33854.930001542,00000077,64190,19,431,28,0,914*01d96377
%RAWIMUSA,2283,33854.940;2283,33854.940001542,00000077,64186,20,465,0,-9,-722*660d4b5e
%RAWIMUSA,2283,33854.950;2283,33854.950001542,00000077,64187,18,476,-9,8,-905*422d16a0
%RAWIMUSA,2283,33854.960;2283,33854.960001542,00000077,64187,9,444,-8,9,265*0b97a268
%RAWIMUSA,2283,33854.970;2283,33854.970001542,00000077,64187,26,428,28,-8,905*4ca8eaef
%RAWIMUSA,2283,33854.980;2283,33854.980001542,00000077,64187,20,461,18,0,237*ec03b786
%RAWIMUSA,2283,33854.990;2283,33854.990001542,00000077,64185,12,478,-18,-9,-932*042b6489
%RAWIMUSA,2283,33855.000;2283,33855.000001542,00000077,64189,12,446,-9,8,-649*c159b3bf
%RAWIMUSA,2283,33855.010;2283,33855.010001542,00000077,64183,26,432,9,0,896*fdbd7c66
%RAWIMUSA,2283,33855.020;2283,33855.020001542,00000077,64190,17,461,18,0,932*2428901d
%RAWIMUSA,2283,33855.030;2283,33855.030001542,00000077,64180,16,473,9,-9,-694*9a1423e8
%RAWIMUSA,2283,33855.040;2283,33855.040001542,00000077,64189,10,447,-18,8,-886*0ace5ef3
%RAWIMUSA,2283,33855.050;2283,33855.050001542,00000077,64188,27,431,-9,9,192*0f7933d6
%RAWIMUSA,2283,33855.060;2283,33855.060001542,00000077,64189,20,461,28,-8,932*0ebcb6f3
%RAWIMUSA,2283,33855.070;2283,33855.070001542,00000077,64187,10,476,18,-9,246*4114c079
%RAWIMUSA,2283,33855.080;2283,33855.080001542,00000077,64186,12,448,-9,0,-896*1793ef54
%RAWIMUSA,2283,33855.090;2283,33855.090001542,00000077,64188,22,433,-18,8,-749*148f0853
%RAWIMUSA,2283,33855.100;2283,33855.100001542,00000077,64186,19,456,9,9,941*17637cc1
%RAWIMUSA,2283,33855.110;2283,33855.110001542,00000077,64183,16,477,28,-17,887*6e7d6cf8
%RAWIMUSA,2283,33855.120;2283,33855.120001542,00000077,64189,10,453,0,0,-603*bea4dca7
%RAWIMUSA,2283,33855.130;2283,33855.130001542,00000077,64185,24,432,-18,8,-932*71aa8b31
%RAWIMUSA,2283,33855.140;2283,33855.140001542,00000077,64186,18,454,0,9,192*288c8c50
%RAWIMUSA,2283,33855.150;2283,33855.150001542,00000077,64185,15,472,18,-8,896*76ba7341
%RAWIMUSA,2283,33855.160;2283,33855.160001542,00000077,64189,12,456,18,-9,338*cd7a8e28
%RAWIMUSA,2283,33855.170;2283,33855.170001542,00000077,64183,30,441,-9,0,-932*0be8140f
%RAWIMUSA,2283,33855.180;2283,33855.180001542,00000077,64187,12,451,-18,17,-749*5e1612c6
%RAWIMUSA,2283,33855.190;2283,33855.190001542,00000077,64186,21,460,18,-8,896*15d11abd
%RAWIMUSA,2283,33855.200;2283,33855.200001542,00000077,64189,8,459,18,0,932*3d5bf1b2
%RAWIMUSA,2283,33855.210;2283,33855.210001542,00000077,64183,28,445,0,-9,-585*1a700729
%RAWIMUSA,2283,33855.220;2283,33855.220001542,00000077,64191,13,451,-9,8,-877*3d0f0863
%RAWIMUSA,2283,33855.230;2283,33855.230001542,00000077,64187,20,465,0,9,100*075192d9
%RAWIMUSA,2283,33855.240;2283,33855.240001542,00000077,64185,12,456,18,-8,941*d3e0b213
%RAWIMUSA,2283,33855.250;2283,33855.250001542,00000077,64189,19,439,18,-9,347*39fb14c5
%RAWIMUSA,2283,33855.260;2283,33855.260001542,00000077,64187,17,447,-18,8,-886*fb691be8
%RAWIMUSA,2283,33855.270;2283,33855.270001542,00000077,64185,15,464,-9,0,-841*3ea32f2e
%RAWIMUSA,2283,33855.280;2283,33855.280001542,00000077,64187,18,464,9,0,941*8a7f571c
%RAWIMUSA,2283,33855.290;2283,33855.290001542,00000077,64187,17,446,18,-8,896*30c91b5b
%RAWIMUSA,2283,33855.300;2283,33855.300001542,00000077,64189,16,446,0,0,-502*4b260d8b
%RAWIMUSA,2283,33855.310;2283,33855.310001542,00000077,64185,26,459,-9,8,-932*ed370973
%RAWIMUSA,2283,33855.320;2283,33855.320001542,00000077,64185,13,460,0,9,82*33c4bd2b
%RAWIMUSA,2283,33855.330;2283,33855.330001542,00000077,64186,24,451,18,-8,896*d0d2f27a
%RAWIMUSA,2283,33855.340;2283,33855.340001542,00000077,64191,6,449,18,-8,448*06ba0569
%RAWIMUSA,2283,33855.350;2283,33855.350001542,00000077,64181,31,458,-18,8,-932*d7240d98
%RAWIMUSA,2283,33855.360;2283,33855.360001542,00000077,64192,9,459,-18,8,-850*34a60803
%RAWIMUSA,2283,33855.370;2283,33855.370001542,00000077,64185,30,450,18,-8,896*87418bb5
%RAWIMUSA,2283,33855.380;2283,33855.380001542,00000077,64190,0,448,28,0,941*9a3e887a
%RAWIMUSA,2283,33855.390;2283,33855.390001542,00000077,64184,43,455,0,-9,-493*58b9ec33
%RAWIMUSA,2283,33855.400;2283,33855.400001542,00000077,64192,4,456,-18,8,-886*2fdb47a2
%RAWIMUSA,2283,33855.410;2283,33855.410001542,00000077,64184,18,456,0,9,0*89fde031
%RAWIMUSA,2283,33855.420;2283,33855.420001542,00000077,64190,5,449,28,-8,932*630d5438
%RAWIMUSA,2283,33855.430;2283,33855.430001542,00000077,64184,39,452,9,-8,475*f791ed58
%RAWIMUSA,2283,33855.440;2283,33855.440001542,00000077,64189,7,452,-9,0,-905*1c7fda81
%RAWIMUSA,2283,33855.450;2283,33855.450001542,00000077,64186,27,457,-18,8,-914*7af6d186
%RAWIMUSA,2283,33855.460;2283,33855.460001542,00000077,64185,3,454,18,0,905*aa1e394d
%RAWIMUSA,2283,33855.470;2283,33855.470001542,00000077,64188,33,452,18,-8,914*bff09474
%RAWIMUSA,2283,33855.480;2283,33855.480001542,00000077,64189,11,455,0,0,-420*d9695a0d
%RAWIMUSA,2283,33855.490;2283,33855.490001542,00000077,64183,18,452,-9,8,-896*ec90452e
%RAWIMUSA,2283,33855.500;2283,33855.500001542,00000077,64187,4,449,0,9,-54*11a14e39
%RAWIMUSA,2283,33855.510;2283,33855.510001542,00000077,64187,24,452,18,-8,932*cb412126
%RAWIMUSA,2283,33855.520;2283,33855.520001542,00000077,64183,25,452,18,-8,503*609ad241
%RAWIMUSA,2283,33855.530;2283,33855.530001542,00000077,64186,11,454,-18,8,-896*c379e778
%RAWIMUSA,2283,33855.540;2283,33855.540001542,00000077,64186,13,454,-18,8,-941*cbcfc143
%RAWIMUSA,2283,33855.550;2283,33855.550001542,00000077,64188,21,453,28,-8,877*bbf10ce3
%RAWIMUSA,2283,33855.560;2283,33855.560001542,00000077,64184,24,449,18,-8,905*383d1b28
%RAWIMUSA,2283,33855.570;2283,33855.570001542,00000077,64187,8,453,-9,8,-347*ffc95aaf
%RAWIMUSA,2283,33855.580;2283,33855.580001542,00000077,64189,25,462,-9,0,-932*349bf247
%RAWIMUSA,2283,33855.590;2283,33855.590001542,00000077,64188,15,453,0,9,-54*e3df4aed
%RAWIMUSA,2283,33855.600;2283,33855.600001542,00000077,64184,14,453,18,-8,896*7d70735e
%RAWIMUSA,2283,33855.610;2283,33855.610001542,00000077,64193,13,455,9,-8,576*67516cdd
%RAWIMUSA,2283,33855.620;2283,33855.620001542,00000077,64180,25,462,-9,8,-923*fbc1b11a
%RAWIMUSA,2283,33855.630;2283,33855.630001542,00000077,64197,8,450,-18,8,-905*afe084fd
%RAWIMUSA,2283,33855.640;2283,33855.640001542,00000077,64186,36,450,18,-8,795*04ba7336
%RAWIMUSA,2283,33855.650;2283,33855.650001542,00000077,64186,-3,458,28,-8,923*ff98a8ab
%RAWIMUSA,2283,33855.660;2283,33855.660001542,00000077,64189,30,455,-9,0,-319*b23b7367
%RAWIMUSA,2283,33855.670;2283,33855.670001542,00000077,64181,7,452,-18,8,-914*223ccfcd
%RAWIMUSA,2283,33855.680;2283,33855.680001542,00000077,64191,20,454,9,0,-118*4e16059d
%RAWIMUSA,2283,33855.690;2283,33855.690001542,00000077,64186,25,459,18,-8,896*3660112a
%RAWIMUSA,2283,33855.700;2283,33855.700001542,00000077,64184,7,454,9,0,631*308161da
%RAWIMUSA,2283,33855.710;2283,33855.710001542,00000077,64191,26,450,-9,8,-923*44c46025
%RAWIMUSA,2283,33855.720;2283,33855.720001542,00000077,64182,4,447,-18,8,-886*ba039524
%RAWIMUSA,2283,33855.730;2283,33855.730001542,00000077,64184,30,452,27,-8,722*07707ed6
%RAWIMUSA,2283,33855.740;2283,33855.740001542,00000077,64191,19,459,18,-8,951*ced70418
%RAWIMUSA,2283,33855.750;2283,33855.750001542,00000077,64179,18,451,-9,0,-292*eea7a0b6
%RAWIMUSA,2283,33855.760;2283,33855.760001542,00000077,64197,-2,451,-9,8,-905*a6e51237
%RAWIMUSA,2283,33855.770;2283,33855.770001542,00000077,64187,44,452,9,0,-191*2e3a4e06
%RAWIMUSA,2283,33855.780;2283,33855.780001542,00000077,64184,4,459,18,-8,905*97da9389
%RAWIMUSA,2283,33855.790;2283,33855.790001542,00000077,64192,15,450,9,0,685*7d4c6691
%RAWIMUSA,2283,33855.800;2283,33855.800001542,00000077,64183,17,452,-18,8,-923*e875c398
%RAWIMUSA,2283,33855.810;2283,33855.810001542,00000077,64183,9,453,0,8,-896*1caa8a0b
%RAWIMUSA,2283,33855.820;2283,33855.820001542,00000077,64194,35,455,18,-8,685*a643cd93
%RAWIMUSA,2283,33855.830;2283,33855.830001542,00000077,64184,0,458,18,-8,932*09cae649
%RAWIMUSA,2283,33855.840;2283,33855.840001542,00000077,64190,22,457,-9,8,-246*93b23431
%RAWIMUSA,2283,33855.850;2283,33855.850001542,00000077,64190,21,451,-9,8,-886*461f7f86
%RAWIMUSA,2283,33855.860;2283,33855.860001542,00000077,64176,18,450,0,-9,-246*ab4f44d2
%RAWIMUSA,2283,33855.870;2283,33855.870001542,00000077,64190,7,455,28,-8,914*c01e4035
%RAWIMUSA,2283,33855.880;2283,33855.880001542,00000077,64187,18,460,0,0,722*0d69c6f0
%RAWIMUSA,2283,33855.890;2283,33855.890001542,00000077,64183,28,453,-9,8,-923*37b26a81
%RAWIMUSA,2283,33855.900;2283,33855.900001542,00000077,64189,11,448,-9,8,-905*d086bd10
%RAWIMUSA,2283,33855.910;2283,33855.910001542,00000077,64187,11,448,18,-8,658*b4ef35ff
%RAWIMUSA,2283,33855.920;2283,33855.920001542,00000077,64185,23,463,18,-8,905*bb4de8b9
%RAWIMUSA,2283,33855.930;2283,33855.930001542,00000077,64189,16,461,-9,9,-164*745b62a5
%RAWIMUSA,2283,33855.940;2283,33855.940001542,00000077,64182,27,443,-9,8,-905*5dcda6a5
